{
  "meta": {
    "brand": "BHC 매장",
    "totalCount": 2045,
    "extractedAt": "2026-03-16T19:11:43.466Z"
  },
  "stores": [
    {
      "id": 1,
      "storeCd": "8413301",
      "name": "압구정로데오점",
      "address": "서울 강남구 압구정로50길 28 101동 1층 156,157호",
      "region": "서울",
      "district": "강남구",
      "phone": "025160715",
      "lat": 37.526648,
      "lng": 127.037303,
      "status": "OPEN",
      "isDelivery": "Y",
      "isTakeout": "Y",
      "isDineIn": "Y"
    },
    {
      "id": 2,
      "storeCd": "8410401",
      "name": "역삼스타점",
      "address": "서울 강남구 언주로99길 9 2층",
      "region": "서울",
      "district": "강남구",
      "phone": "025625858",
      "lat": 37.50567,
      "lng": 127.040128,
      "status": "OPEN",
      "isDelivery": "Y",
      "isTakeout": "Y",
      "isDineIn": "Y"
    },
    {
      "id": 3,
      "storeCd": "8400501",
      "name": "역삼점",
      "address": "서울 강남구 논현로85길 52 B1 BHC역삼점",
      "region": "서울",
      "district": "강남구",
      "phone": "025661619",
      "lat": 37.498187,
      "lng": 127.033813,
      "status": "OPEN",
      "isDelivery": "Y",
      "isTakeout": "Y",
      "isDineIn": "N"
    },
    {
      "id": 4,
      "storeCd": "7988501",
      "name": "개포자이스퀘어점",
      "address": "서울 강남구 삼성로 14 스퀘어동  제1층 제118, 119호",
      "region": "서울",
      "district": "강남구",
      "phone": "0222260715",
      "lat": 37.487893,
      "lng": 127.073939,
      "status": "OPEN",
      "isDelivery": "Y",
      "isTakeout": "Y",
      "isDineIn": "Y"
    },
    {
      "id": 5,
      "storeCd": "7992101",
      "name": "강남논현점",
      "address": "서울 강남구 논현로119길 17 (논현동)  1층",
      "region": "서울",
      "district": "강남구",
      "phone": "025469282",
      "lat": 37.510041,
      "lng": 127.031093,
      "status": "OPEN",
      "isDelivery": "Y",
      "isTakeout": "Y",
      "isDineIn": "Y"
    },
    {
      "id": 6,
      "storeCd": "7992301",
      "name": "역삼푸르지오점",
      "address": "서울 강남구 언주로69길 17 (역삼동)  17 (역삼동)",
      "region": "서울",
      "district": "강남구",
      "phone": "025679979",
      "lat": 37.496213,
      "lng": 127.043946,
      "status": "OPEN",
      "isDelivery": "Y",
      "isTakeout": "Y",
      "isDineIn": "Y"
    },
    {
      "id": 7,
      "storeCd": "7980101",
      "name": "개포4동점",
      "address": "서울 강남구 논현로10길 28 (개포동) 1층",
      "region": "서울",
      "district": "강남구",
      "phone": "0234617770",
      "lat": 37.474877,
      "lng": 127.050783,
      "status": "OPEN",
      "isDelivery": "Y",
      "isTakeout": "Y",
      "isDineIn": "Y"
    },
    {
      "id": 8,
      "storeCd": "7975801",
      "name": "선릉역점",
      "address": "서울 강남구 선릉로82길 23 1층",
      "region": "서울",
      "district": "강남구",
      "phone": "025580715",
      "lat": 37.503006,
      "lng": 127.05193,
      "status": "OPEN",
      "isDelivery": "Y",
      "isTakeout": "Y",
      "isDineIn": "Y"
    },
    {
      "id": 9,
      "storeCd": "7816801",
      "name": "도곡점",
      "address": "서울 강남구 남부순환로363길 12-53 (도곡동) 1층",
      "region": "서울",
      "district": "강남구",
      "phone": "0269523830",
      "lat": 37.486554,
      "lng": 127.038926,
      "status": "OPEN",
      "isDelivery": "Y",
      "isTakeout": "Y",
      "isDineIn": "N"
    },
    {
      "id": 10,
      "storeCd": "7892601",
      "name": "대치점",
      "address": "서울 강남구 삼성로58길 39 (대치동), 지상1층 106호",
      "region": "서울",
      "district": "강남구",
      "phone": "07077230275",
      "lat": 37.499434,
      "lng": 127.064456,
      "status": "OPEN",
      "isDelivery": "Y",
      "isTakeout": "Y",
      "isDineIn": "N"
    },
    {
      "id": 11,
      "storeCd": "7896501",
      "name": "일원점",
      "address": "서울 강남구 일원로3길 63 (일원동, 옐로우하우스), 1층",
      "region": "서울",
      "district": "강남구",
      "phone": "0234119289",
      "lat": 37.492913,
      "lng": 127.084821,
      "status": "OPEN",
      "isDelivery": "Y",
      "isTakeout": "Y",
      "isDineIn": "Y"
    },
    {
      "id": 12,
      "storeCd": "7904701",
      "name": "압구정역점",
      "address": "서울 강남구 논현로157길 8 (신사동)",
      "region": "서울",
      "district": "강남구",
      "phone": "025470875",
      "lat": 37.522504,
      "lng": 127.027398,
      "status": "OPEN",
      "isDelivery": "Y",
      "isTakeout": "Y",
      "isDineIn": "Y"
    },
    {
      "id": 13,
      "storeCd": "7926301",
      "name": "세곡점",
      "address": "서울 강남구 자곡로 191, 지하1층 B01호 (자곡동, 강남푸르지오시티 1차)",
      "region": "서울",
      "district": "강남구",
      "phone": "024510381",
      "lat": 37.47487,
      "lng": 127.103576,
      "status": "OPEN",
      "isDelivery": "Y",
      "isTakeout": "Y",
      "isDineIn": "Y"
    },
    {
      "id": 14,
      "storeCd": "7931101",
      "name": "강남구청역점",
      "address": "서울 강남구 학동로56길 26 (삼성동, 재율빌딩), 1층 101호",
      "region": "서울",
      "district": "강남구",
      "phone": "0262006699",
      "lat": 37.51547,
      "lng": 127.0427,
      "status": "OPEN",
      "isDelivery": "Y",
      "isTakeout": "Y",
      "isDineIn": "Y"
    },
    {
      "id": 15,
      "storeCd": "7693701",
      "name": "일원삼성점",
      "address": "서울 강남구 광평로31길 27 (수서동, 삼성아파트) 상가 1층",
      "region": "서울",
      "district": "강남구",
      "phone": "0234129282",
      "lat": 37.484496,
      "lng": 127.090791,
      "status": "OPEN",
      "isDelivery": "Y",
      "isTakeout": "Y",
      "isDineIn": "N"
    },
    {
      "id": 16,
      "storeCd": "7517301",
      "name": "삼성점",
      "address": "서울 강남구 삼성동 77-9,1층2층",
      "region": "서울",
      "district": "강남구",
      "phone": "0260846330",
      "lat": 37.514774,
      "lng": 127.059381,
      "status": "OPEN",
      "isDelivery": "Y",
      "isTakeout": "Y",
      "isDineIn": "Y"
    },
    {
      "id": 17,
      "storeCd": "7966901",
      "name": "천호점",
      "address": "서울 강동구 구천면로42길 4 1층",
      "region": "서울",
      "district": "강동구",
      "phone": "024779995",
      "lat": 37.546488,
      "lng": 127.13441,
      "status": "OPEN",
      "isDelivery": "Y",
      "isTakeout": "Y",
      "isDineIn": "Y"
    },
    {
      "id": 18,
      "storeCd": "7946601",
      "name": "강일점",
      "address": "서울 강동구 천호대로221길 23 (상일동) 1층",
      "region": "서울",
      "district": "강동구",
      "phone": "024818292",
      "lat": 37.547966,
      "lng": 127.172644,
      "status": "OPEN",
      "isDelivery": "Y",
      "isTakeout": "Y",
      "isDineIn": "N"
    },
    {
      "id": 19,
      "storeCd": "7813301",
      "name": "강일뉴타운점",
      "address": "서울 강동구 아리수로91길 28 (강일동, 트리피움오피스텔) 1층",
      "region": "서울",
      "district": "강동구",
      "phone": "024279909",
      "lat": 37.565074,
      "lng": 127.173029,
      "status": "OPEN",
      "isDelivery": "Y",
      "isTakeout": "Y",
      "isDineIn": "Y"
    },
    {
      "id": 20,
      "storeCd": "7914701",
      "name": "둔촌올림픽파크점",
      "address": "서울 강동구 양재대로89가길 42 (성내동) 1층",
      "region": "서울",
      "district": "강동구",
      "phone": "024745854",
      "lat": 37.524794,
      "lng": 127.1341,
      "status": "OPEN",
      "isDelivery": "Y",
      "isTakeout": "Y",
      "isDineIn": "Y"
    },
    {
      "id": 21,
      "storeCd": "7925301",
      "name": "둔촌점",
      "address": "서울 강동구 진황도로 145 (둔촌동, KNP주상복합), 103호",
      "region": "서울",
      "district": "강동구",
      "phone": "024844959",
      "lat": 37.533133,
      "lng": 127.141309,
      "status": "OPEN",
      "isDelivery": "Y",
      "isTakeout": "Y",
      "isDineIn": "Y"
    },
    {
      "id": 22,
      "storeCd": "7738601",
      "name": "천호대교점",
      "address": "서울 강동구 천호대로 989 (천호동, 천호역 한강 청년주택) 1층",
      "region": "서울",
      "district": "강동구",
      "phone": "0261409292",
      "lat": 37.539411,
      "lng": 127.122219,
      "status": "OPEN",
      "isDelivery": "Y",
      "isTakeout": "Y",
      "isDineIn": "N"
    },
    {
      "id": 23,
      "storeCd": "7752101",
      "name": "명일점",
      "address": "서울 강동구 구천면로 431-5 (명일동) 1층",
      "region": "서울",
      "district": "강동구",
      "phone": "024299279",
      "lat": 37.550553,
      "lng": 127.14654,
      "status": "OPEN",
      "isDelivery": "Y",
      "isTakeout": "Y",
      "isDineIn": "Y"
    },
    {
      "id": 24,
      "storeCd": "7648001",
      "name": "암사점",
      "address": "서울 강동구 올림픽로91길 30 (암사동, 힐스테이트 강동 리버뷰) 1층",
      "region": "서울",
      "district": "강동구",
      "phone": "024267177",
      "lat": 37.548323,
      "lng": 127.125603,
      "status": "OPEN",
      "isDelivery": "Y",
      "isTakeout": "Y",
      "isDineIn": "Y"
    },
    {
      "id": 25,
      "storeCd": "7686901",
      "name": "길동중앙점",
      "address": "서울 강동구 명일로 198 (길동, 신영빌딩) 1층",
      "region": "서울",
      "district": "강동구",
      "phone": "024769282",
      "lat": 37.536418,
      "lng": 127.145828,
      "status": "OPEN",
      "isDelivery": "Y",
      "isTakeout": "Y",
      "isDineIn": "Y"
    },
    {
      "id": 26,
      "storeCd": "7698701",
      "name": "고덕중앙점",
      "address": "서울 강동구 고덕로 89 (암사동) 1층",
      "region": "서울",
      "district": "강동구",
      "phone": "024289285",
      "lat": 37.554889,
      "lng": 127.135327,
      "status": "OPEN",
      "isDelivery": "Y",
      "isTakeout": "Y",
      "isDineIn": "Y"
    },
    {
      "id": 27,
      "storeCd": "7136901",
      "name": "성내점",
      "address": "서울 강동구 성안로 112 (성내동) 1층",
      "region": "서울",
      "district": "강동구",
      "phone": "024749282",
      "lat": 37.533296,
      "lng": 127.133551,
      "status": "OPEN",
      "isDelivery": "Y",
      "isTakeout": "Y",
      "isDineIn": "Y"
    },
    {
      "id": 28,
      "storeCd": "8408801",
      "name": "번동점",
      "address": "서울 강북구 오현로 176 202호",
      "region": "서울",
      "district": "강북구",
      "phone": "029816162",
      "lat": 37.627499,
      "lng": 127.038129,
      "status": "OPEN",
      "isDelivery": "Y",
      "isTakeout": "Y",
      "isDineIn": "N"
    },
    {
      "id": 29,
      "storeCd": "7953601",
      "name": "수유역점",
      "address": "서울 강북구 오패산로 383 (번동, 현빌딩) 1층",
      "region": "서울",
      "district": "강북구",
      "phone": "029088005",
      "lat": 37.635524,
      "lng": 127.028124,
      "status": "OPEN",
      "isDelivery": "Y",
      "isTakeout": "Y",
      "isDineIn": "Y"
    },
    {
      "id": 30,
      "storeCd": "7960701",
      "name": "삼각산뉴타운점",
      "address": "서울 강북구 삼양로19길 55 (미아동)",
      "region": "서울",
      "district": "강북구",
      "phone": "0269523879",
      "lat": 37.615614,
      "lng": 127.019558,
      "status": "OPEN",
      "isDelivery": "Y",
      "isTakeout": "Y",
      "isDineIn": "N"
    },
    {
      "id": 31,
      "storeCd": "7906201",
      "name": "강북구청점",
      "address": "서울 강북구 한천로143길 36 (수유동)",
      "region": "서울",
      "district": "강북구",
      "phone": "029985577",
      "lat": 37.640703,
      "lng": 127.023281,
      "status": "OPEN",
      "isDelivery": "Y",
      "isTakeout": "Y",
      "isDineIn": "N"
    },
    {
      "id": 32,
      "storeCd": "7645101",
      "name": "미아점",
      "address": "서울 강북구 솔샘로 167 (미아동, 벽산라이브파크) 지하1층",
      "region": "서울",
      "district": "강북구",
      "phone": "029869282",
      "lat": 37.620159,
      "lng": 127.011207,
      "status": "OPEN",
      "isDelivery": "Y",
      "isTakeout": "Y",
      "isDineIn": "N"
    },
    {
      "id": 33,
      "storeCd": "7645601",
      "name": "수유점",
      "address": "서울 강북구 인수봉로 284-1 (수유동) 1층",
      "region": "서울",
      "district": "강북구",
      "phone": "029008866",
      "lat": 37.644135,
      "lng": 127.011055,
      "status": "OPEN",
      "isDelivery": "Y",
      "isTakeout": "Y",
      "isDineIn": "Y"
    },
    {
      "id": 34,
      "storeCd": "7686801",
      "name": "삼양사거리점",
      "address": "서울 강북구 삼양로 261 (미아동, 대성빌딩) 1층",
      "region": "서울",
      "district": "강북구",
      "phone": "029802638",
      "lat": 37.626735,
      "lng": 127.017967,
      "status": "OPEN",
      "isDelivery": "Y",
      "isTakeout": "Y",
      "isDineIn": "N"
    },
    {
      "id": 35,
      "storeCd": "7692101",
      "name": "미아송중점",
      "address": "서울 강북구 도봉로10길 66 (미아동, 준석빌딩) 1층",
      "region": "서울",
      "district": "강북구",
      "phone": "029893351",
      "lat": 37.615637,
      "lng": 127.031032,
      "status": "OPEN",
      "isDelivery": "Y",
      "isTakeout": "Y",
      "isDineIn": "Y"
    },
    {
      "id": 36,
      "storeCd": "7211801",
      "name": "미아2호점",
      "address": "서울특별시 강북구 도봉로50길 15",
      "region": "서울",
      "district": "강북구",
      "phone": "029882235",
      "lat": 37.625645,
      "lng": 127.027499,
      "status": "OPEN",
      "isDelivery": "Y",
      "isTakeout": "Y",
      "isDineIn": "N"
    },
    {
      "id": 37,
      "storeCd": "8417601",
      "name": "송정역점",
      "address": "서울 강서구 공항대로8길 27 서울 강서구 공항대로8길 27 (공항동)",
      "region": "서울",
      "district": "강서구",
      "phone": "0220648200",
      "lat": 37.559903,
      "lng": 126.812388,
      "status": "OPEN",
      "isDelivery": "Y",
      "isTakeout": "Y",
      "isDineIn": "N"
    },
    {
      "id": 38,
      "storeCd": "8404901",
      "name": "등촌동점",
      "address": "서울 강서구 등촌로 211 bhc",
      "region": "서울",
      "district": "강서구",
      "phone": "0226467889",
      "lat": 37.548536,
      "lng": 126.86308,
      "status": "OPEN",
      "isDelivery": "Y",
      "isTakeout": "Y",
      "isDineIn": "Y"
    },
    {
      "id": 39,
      "storeCd": "7960801",
      "name": "가양역점",
      "address": "서울 강서구 화곡로69길 71 (등촌동, 등촌8단지주공아파트)",
      "region": "서울",
      "district": "강서구",
      "phone": "0226687779",
      "lat": 37.561882,
      "lng": 126.85111,
      "status": "OPEN",
      "isDelivery": "Y",
      "isTakeout": "Y",
      "isDineIn": "N"
    },
    {
      "id": 40,
      "storeCd": "7885901",
      "name": "발산점",
      "address": "서울 강서구 공항대로42길 23 (내발산동)",
      "region": "서울",
      "district": "강서구",
      "phone": "0236633238",
      "lat": 37.556859,
      "lng": 126.843631,
      "status": "OPEN",
      "isDelivery": "Y",
      "isTakeout": "Y",
      "isDineIn": "N"
    },
    {
      "id": 41,
      "storeCd": "7907301",
      "name": "내발산마곡점",
      "address": "서울 강서구 수명로 74 (내발산동, 발산시티타워), 1층101호",
      "region": "서울",
      "district": "강서구",
      "phone": "0226678192",
      "lat": 37.552409,
      "lng": 126.826125,
      "status": "OPEN",
      "isDelivery": "Y",
      "isTakeout": "Y",
      "isDineIn": "Y"
    },
    {
      "id": 42,
      "storeCd": "7594201",
      "name": "증미역점",
      "address": "서울 강서구 가양동 449-4 한화비즈메트로1차 104호",
      "region": "서울",
      "district": "강서구",
      "phone": "0236632456",
      "lat": 37.559326,
      "lng": 126.860963,
      "status": "OPEN",
      "isDelivery": "N",
      "isTakeout": "Y",
      "isDineIn": "Y"
    },
    {
      "id": 43,
      "storeCd": "7596401",
      "name": "방화점",
      "address": "서울 강서구 금낭화로 31 (방화동, 삼광빌딩) 1층",
      "region": "서울",
      "district": "강서구",
      "phone": "0226623330",
      "lat": 37.568198,
      "lng": 126.811539,
      "status": "OPEN",
      "isDelivery": "Y",
      "isTakeout": "Y",
      "isDineIn": "Y"
    },
    {
      "id": 44,
      "storeCd": "7691501",
      "name": "염창점",
      "address": "서울 강서구 양천로 646-29 (염창동) 1층",
      "region": "서울",
      "district": "강서구",
      "phone": "0236619282",
      "lat": 37.552096,
      "lng": 126.86825,
      "status": "OPEN",
      "isDelivery": "Y",
      "isTakeout": "Y",
      "isDineIn": "N"
    },
    {
      "id": 45,
      "storeCd": "7527701",
      "name": "마곡점",
      "address": "서울 강서구 마곡동 768-2",
      "region": "서울",
      "district": "강서구",
      "phone": "0226668892",
      "lat": 37.562752,
      "lng": 126.823597,
      "status": "OPEN",
      "isDelivery": "Y",
      "isTakeout": "Y",
      "isDineIn": "N"
    },
    {
      "id": 46,
      "storeCd": "7255401",
      "name": "강서구청점",
      "address": "서울특별시 강서구 화곡로58길 34,1층 (화곡동) bhc",
      "region": "서울",
      "district": "강서구",
      "phone": "0220652200",
      "lat": 37.552676,
      "lng": 126.85272,
      "status": "OPEN",
      "isDelivery": "Y",
      "isTakeout": "Y",
      "isDineIn": "Y"
    },
    {
      "id": 47,
      "storeCd": "7264401",
      "name": "신방화사거리점",
      "address": "서울 강서구 방화동 180-14",
      "region": "서울",
      "district": "강서구",
      "phone": "0226624800",
      "lat": 37.573163,
      "lng": 126.817855,
      "status": "OPEN",
      "isDelivery": "Y",
      "isTakeout": "Y",
      "isDineIn": "Y"
    },
    {
      "id": 48,
      "storeCd": "7198201",
      "name": "까치산역점",
      "address": "서울특별시 강서구 곰달래로 138-1 (화곡동) (화곡동,1층)",
      "region": "서울",
      "district": "강서구",
      "phone": "0226929288",
      "lat": 37.530522,
      "lng": 126.848229,
      "status": "OPEN",
      "isDelivery": "Y",
      "isTakeout": "Y",
      "isDineIn": "Y"
    },
    {
      "id": 49,
      "storeCd": "7207901",
      "name": "화곡역점",
      "address": "서울 강서구 가로공원로 197-1 (화곡동) bhc",
      "region": "서울",
      "district": "강서구",
      "phone": "0226929233",
      "lat": 37.537566,
      "lng": 126.837921,
      "status": "OPEN",
      "isDelivery": "Y",
      "isTakeout": "Y",
      "isDineIn": "Y"
    },
    {
      "id": 50,
      "storeCd": "7226301",
      "name": "양천향교점",
      "address": "서울특별시 강서구 강서로 462 (등촌동) bhc",
      "region": "서울",
      "district": "강서구",
      "phone": "0236618292",
      "lat": 37.566612,
      "lng": 126.841403,
      "status": "OPEN",
      "isDelivery": "Y",
      "isTakeout": "Y",
      "isDineIn": "Y"
    },
    {
      "id": 51,
      "storeCd": "7228302",
      "name": "우장산역점",
      "address": "서울특별시 강서구 강서로45라길 18 (내발산동) bhc",
      "region": "서울",
      "district": "강서구",
      "phone": "0226629234",
      "lat": 37.54859,
      "lng": 126.83408,
      "status": "OPEN",
      "isDelivery": "Y",
      "isTakeout": "Y",
      "isDineIn": "N"
    },
    {
      "id": 52,
      "storeCd": "8408401",
      "name": "낙성대점",
      "address": "서울 관악구 봉천로 585 1층",
      "region": "서울",
      "district": "관악구",
      "phone": "028771677",
      "lat": 37.476911,
      "lng": 126.962667,
      "status": "OPEN",
      "isDelivery": "Y",
      "isTakeout": "Y",
      "isDineIn": "Y"
    },
    {
      "id": 53,
      "storeCd": "8406101",
      "name": "봉천청룡점",
      "address": "서울 관악구 쑥고개로 54 1층",
      "region": "서울",
      "district": "관악구",
      "phone": "028759211",
      "lat": 37.478217,
      "lng": 126.943336,
      "status": "OPEN",
      "isDelivery": "Y",
      "isTakeout": "Y",
      "isDineIn": "Y"
    },
    {
      "id": 54,
      "storeCd": "7996401",
      "name": "서림점",
      "address": "서울 관악구 서림길 117 서울 관악구 서림길 117 (신림동) 1층",
      "region": "서울",
      "district": "관악구",
      "phone": "028786367",
      "lat": 37.471446,
      "lng": 126.940345,
      "status": "OPEN",
      "isDelivery": "Y",
      "isTakeout": "Y",
      "isDineIn": "Y"
    },
    {
      "id": 55,
      "storeCd": "8402001",
      "name": "신대방역점",
      "address": "서울 관악구 조원로 92 1층",
      "region": "서울",
      "district": "관악구",
      "phone": "028529282",
      "lat": 37.484436,
      "lng": 126.912535,
      "status": "OPEN",
      "isDelivery": "Y",
      "isTakeout": "Y",
      "isDineIn": "N"
    },
    {
      "id": 56,
      "storeCd": "7994001",
      "name": "남현점",
      "address": "서울 관악구 남현길 60 서울 관악구 남현길 60 (남현동) 1층 101호",
      "region": "서울",
      "district": "관악구",
      "phone": "025853363",
      "lat": 37.47414,
      "lng": 126.975958,
      "status": "OPEN",
      "isDelivery": "Y",
      "isTakeout": "Y",
      "isDineIn": "Y"
    },
    {
      "id": 57,
      "storeCd": "7990701",
      "name": "신림신원점",
      "address": "서울 관악구 신원로3가길 14 (신림동) 1층 1층",
      "region": "서울",
      "district": "관악구",
      "phone": "0260525204",
      "lat": 37.481272,
      "lng": 126.92748,
      "status": "OPEN",
      "isDelivery": "Y",
      "isTakeout": "Y",
      "isDineIn": "N"
    },
    {
      "id": 58,
      "storeCd": "7987101",
      "name": "봉천스타점",
      "address": "서울 관악구 은천로5길 11 1층",
      "region": "서울",
      "district": "관악구",
      "phone": "028898333",
      "lat": 37.486774,
      "lng": 126.938032,
      "status": "OPEN",
      "isDelivery": "Y",
      "isTakeout": "Y",
      "isDineIn": "N"
    },
    {
      "id": 59,
      "storeCd": "7968101",
      "name": "신림역",
      "address": "서울 관악구 남부순환로176길 20 2층",
      "region": "서울",
      "district": "관악구",
      "phone": "028821659",
      "lat": 37.482984,
      "lng": 126.92847,
      "status": "OPEN",
      "isDelivery": "Y",
      "isTakeout": "Y",
      "isDineIn": "Y"
    },
    {
      "id": 60,
      "storeCd": "7933901",
      "name": "신림난우점",
      "address": "서울 관악구 난곡로 171 (신림동) 2층",
      "region": "서울",
      "district": "관악구",
      "phone": "028560555",
      "lat": 37.470405,
      "lng": 126.919601,
      "status": "OPEN",
      "isDelivery": "Y",
      "isTakeout": "Y",
      "isDineIn": "N"
    },
    {
      "id": 61,
      "storeCd": "7948501",
      "name": "봉천중앙점",
      "address": "서울 관악구 은천로 143 (봉천동, 관악동부센트레빌아파트) 상가동 102호",
      "region": "서울",
      "district": "관악구",
      "phone": "028830357",
      "lat": 37.486631,
      "lng": 126.951265,
      "status": "OPEN",
      "isDelivery": "Y",
      "isTakeout": "Y",
      "isDineIn": "N"
    },
    {
      "id": 62,
      "storeCd": "7955001",
      "name": "봉천청림점",
      "address": "서울 관악구 청림길 10-1 (봉천동) 1층",
      "region": "서울",
      "district": "관악구",
      "phone": "028770814",
      "lat": 37.4882,
      "lng": 126.959237,
      "status": "OPEN",
      "isDelivery": "Y",
      "isTakeout": "Y",
      "isDineIn": "N"
    },
    {
      "id": 63,
      "storeCd": "7780601",
      "name": "서울대역점",
      "address": "서울 관악구 봉천로 520 (봉천동) 1층",
      "region": "서울",
      "district": "관악구",
      "phone": "028787752",
      "lat": 37.47946,
      "lng": 126.955705,
      "status": "OPEN",
      "isDelivery": "Y",
      "isTakeout": "Y",
      "isDineIn": "Y"
    },
    {
      "id": 64,
      "storeCd": "7591901",
      "name": "대학동점",
      "address": "서울 관악구 호암로24길 52 (신림동, 세목) 1층",
      "region": "서울",
      "district": "관악구",
      "phone": "028752077",
      "lat": 37.469336,
      "lng": 126.936014,
      "status": "OPEN",
      "isDelivery": "Y",
      "isTakeout": "Y",
      "isDineIn": "Y"
    },
    {
      "id": 65,
      "storeCd": "7996101",
      "name": "구의역점",
      "address": "서울 광진구 자양로18길 41 1층",
      "region": "서울",
      "district": "광진구",
      "phone": "024560715",
      "lat": 37.538086,
      "lng": 127.085929,
      "status": "OPEN",
      "isDelivery": "Y",
      "isTakeout": "Y",
      "isDineIn": "Y"
    },
    {
      "id": 66,
      "storeCd": "7998601",
      "name": "화양점",
      "address": "서울 광진구 능동로13길 65 1층",
      "region": "서울",
      "district": "광진구",
      "phone": "024985874",
      "lat": 37.544752,
      "lng": 127.069092,
      "status": "OPEN",
      "isDelivery": "Y",
      "isTakeout": "Y",
      "isDineIn": "Y"
    },
    {
      "id": 67,
      "storeCd": "7994301",
      "name": "자양뚝섬점",
      "address": "서울 광진구 뚝섬로 676(자양동)",
      "region": "서울",
      "district": "광진구",
      "phone": "024448295",
      "lat": 37.531918,
      "lng": 127.084517,
      "status": "OPEN",
      "isDelivery": "Y",
      "isTakeout": "Y",
      "isDineIn": "N"
    },
    {
      "id": 68,
      "storeCd": "7977701",
      "name": "아차산점",
      "address": "서울 광진구 용마산로 84 (중곡동) 1층",
      "region": "서울",
      "district": "광진구",
      "phone": "0222051004",
      "lat": 37.561676,
      "lng": 127.087513,
      "status": "OPEN",
      "isDelivery": "Y",
      "isTakeout": "Y",
      "isDineIn": "Y"
    },
    {
      "id": 69,
      "storeCd": "7976101",
      "name": "구의점",
      "address": "서울 광진구 구의로 40 (구의동) 1층 102호",
      "region": "서울",
      "district": "광진구",
      "phone": "024558295",
      "lat": 37.541379,
      "lng": 127.090025,
      "status": "OPEN",
      "isDelivery": "Y",
      "isTakeout": "Y",
      "isDineIn": "Y"
    },
    {
      "id": 70,
      "storeCd": "7970601",
      "name": "자양점",
      "address": "서울 광진구 동일로20길 62 (자양동) 1층 bhc",
      "region": "서울",
      "district": "광진구",
      "phone": "0263680092",
      "lat": 37.540451,
      "lng": 127.066906,
      "status": "OPEN",
      "isDelivery": "Y",
      "isTakeout": "Y",
      "isDineIn": "Y"
    },
    {
      "id": 71,
      "storeCd": "7962801",
      "name": "자양3동점",
      "address": "서울 광진구 자양번영로 21 (자양동) 1층",
      "region": "서울",
      "district": "광진구",
      "phone": "024443356",
      "lat": 37.531517,
      "lng": 127.074968,
      "status": "OPEN",
      "isDelivery": "Y",
      "isTakeout": "Y",
      "isDineIn": "Y"
    },
    {
      "id": 72,
      "storeCd": "7851101",
      "name": "중곡대박점",
      "address": "서울 광진구 긴고랑로13길 82 (중곡동)",
      "region": "서울",
      "district": "광진구",
      "phone": "024649909",
      "lat": 37.56598,
      "lng": 127.083649,
      "status": "OPEN",
      "isDelivery": "Y",
      "isTakeout": "Y",
      "isDineIn": "N"
    },
    {
      "id": 73,
      "storeCd": "7245301",
      "name": "광나루점",
      "address": "서울 광진구 광장동 566 1층",
      "region": "서울",
      "district": "광진구",
      "phone": "024441580",
      "lat": 37.542466,
      "lng": 127.096292,
      "status": "OPEN",
      "isDelivery": "Y",
      "isTakeout": "Y",
      "isDineIn": "N"
    },
    {
      "id": 74,
      "storeCd": "8402801",
      "name": "광명시장점",
      "address": "서울 구로구 개봉로3길 87 bhc",
      "region": "서울",
      "district": "구로구",
      "phone": "0226259299",
      "lat": 37.485899,
      "lng": 126.850971,
      "status": "OPEN",
      "isDelivery": "Y",
      "isTakeout": "Y",
      "isDineIn": "N"
    },
    {
      "id": 75,
      "storeCd": "7271101",
      "name": "고척점",
      "address": "서울시 구로구 고척동  52-81",
      "region": "서울",
      "district": "구로구",
      "phone": "0226122777",
      "lat": 37.502462,
      "lng": 126.864322,
      "status": "OPEN",
      "isDelivery": "Y",
      "isTakeout": "Y",
      "isDineIn": "N"
    },
    {
      "id": 76,
      "storeCd": "7858201",
      "name": "천왕점",
      "address": "서울 구로구 천왕로 10 (천왕동, 천왕 이펜하우스 5단지)  103호",
      "region": "서울",
      "district": "구로구",
      "phone": "0226849282",
      "lat": 37.480149,
      "lng": 126.841569,
      "status": "OPEN",
      "isDelivery": "N",
      "isTakeout": "Y",
      "isDineIn": "Y"
    },
    {
      "id": 77,
      "storeCd": "7878301",
      "name": "구로5점",
      "address": "서울 구로구 가마산로 140-2 (구로동)",
      "region": "서울",
      "district": "구로구",
      "phone": "0260829292",
      "lat": 37.488416,
      "lng": 126.880843,
      "status": "OPEN",
      "isDelivery": "Y",
      "isTakeout": "Y",
      "isDineIn": "N"
    },
    {
      "id": 78,
      "storeCd": "7884701",
      "name": "개봉북점",
      "address": "서울 구로구 경인로35길 131-25 (고척동)",
      "region": "서울",
      "district": "구로구",
      "phone": "0226875055",
      "lat": 37.501315,
      "lng": 126.851234,
      "status": "OPEN",
      "isDelivery": "Y",
      "isTakeout": "Y",
      "isDineIn": "N"
    },
    {
      "id": 79,
      "storeCd": "7728201",
      "name": "오류1점",
      "address": "서울 구로구 오류로 64 (오류동) bhc",
      "region": "서울",
      "district": "구로구",
      "phone": "0220609989",
      "lat": 37.490288,
      "lng": 126.84075,
      "status": "OPEN",
      "isDelivery": "Y",
      "isTakeout": "Y",
      "isDineIn": "Y"
    },
    {
      "id": 80,
      "storeCd": "7572801",
      "name": "구로동중앙점",
      "address": "서울 구로구 구로중앙로28길 73 (구로동, 구로하우비) bhc",
      "region": "서울",
      "district": "구로구",
      "phone": "028301252",
      "lat": 37.500849,
      "lng": 126.889318,
      "status": "OPEN",
      "isDelivery": "Y",
      "isTakeout": "Y",
      "isDineIn": "N"
    },
    {
      "id": 81,
      "storeCd": "7631201",
      "name": "신도림미래점",
      "address": "서울 구로구 새말로 75 (구로동) 1층",
      "region": "서울",
      "district": "구로구",
      "phone": "028669232",
      "lat": 37.504943,
      "lng": 126.88854,
      "status": "OPEN",
      "isDelivery": "Y",
      "isTakeout": "Y",
      "isDineIn": "Y"
    },
    {
      "id": 82,
      "storeCd": "7684001",
      "name": "구로구 항동점",
      "address": "서울 구로구 연동로 233 (항동, 항동중흥에스클래스베르데카운티) 제상가2동 1층 103호",
      "region": "서울",
      "district": "구로구",
      "phone": "0236669997",
      "lat": 37.481706,
      "lng": 126.820698,
      "status": "OPEN",
      "isDelivery": "Y",
      "isTakeout": "Y",
      "isDineIn": "N"
    },
    {
      "id": 83,
      "storeCd": "7516701",
      "name": "계남공원점",
      "address": "서울 구로구 고척동 330 삼익아파트상가 106호",
      "region": "서울",
      "district": "구로구",
      "phone": "0226897979",
      "lat": 37.508632,
      "lng": 126.852971,
      "status": "OPEN",
      "isDelivery": "Y",
      "isTakeout": "Y",
      "isDineIn": "N"
    },
    {
      "id": 84,
      "storeCd": "7523201",
      "name": "오류초교점",
      "address": "서울 구로구 오류동 24-20",
      "region": "서울",
      "district": "구로구",
      "phone": "0226153322",
      "lat": 37.49702,
      "lng": 126.842674,
      "status": "OPEN",
      "isDelivery": "Y",
      "isTakeout": "Y",
      "isDineIn": "N"
    },
    {
      "id": 85,
      "storeCd": "7543301",
      "name": "구일SK허브수점",
      "address": "서울 구로구 구일로10길 27 (구로동, SK허브수) 상가a동 131호",
      "region": "서울",
      "district": "구로구",
      "phone": "028549282",
      "lat": 37.49594,
      "lng": 126.872267,
      "status": "OPEN",
      "isDelivery": "Y",
      "isTakeout": "Y",
      "isDineIn": "N"
    },
    {
      "id": 86,
      "storeCd": "7239801",
      "name": "개봉점",
      "address": "서울특별시 구로구 개봉로16길 22 (개봉동) 개봉로16길 22",
      "region": "서울",
      "district": "구로구",
      "phone": "0226119288",
      "lat": 37.489989,
      "lng": 126.857413,
      "status": "OPEN",
      "isDelivery": "Y",
      "isTakeout": "Y",
      "isDineIn": "N"
    },
    {
      "id": 87,
      "storeCd": "7961301",
      "name": "금천구청점",
      "address": "서울 금천구 시흥대로 291 (독산동, 금천롯데캐슬골드파크3차) bhc",
      "region": "서울",
      "district": "금천구",
      "phone": "028071333",
      "lat": 37.459751,
      "lng": 126.896675,
      "status": "OPEN",
      "isDelivery": "Y",
      "isTakeout": "Y",
      "isDineIn": "Y"
    },
    {
      "id": 88,
      "storeCd": "7737401",
      "name": "디지털점",
      "address": "서울 금천구 가산로9길 12-8 (가산동) 112호",
      "region": "서울",
      "district": "금천구",
      "phone": "028519919",
      "lat": 37.477417,
      "lng": 126.890899,
      "status": "OPEN",
      "isDelivery": "Y",
      "isTakeout": "Y",
      "isDineIn": "Y"
    },
    {
      "id": 89,
      "storeCd": "7764401",
      "name": "독산맛나거리점",
      "address": "서울 금천구 시흥대로122길 22 (독산동) bhc",
      "region": "서울",
      "district": "금천구",
      "phone": "028383339",
      "lat": 37.469226,
      "lng": 126.899397,
      "status": "OPEN",
      "isDelivery": "Y",
      "isTakeout": "Y",
      "isDineIn": "Y"
    },
    {
      "id": 90,
      "storeCd": "7782301",
      "name": "시흥사거리점",
      "address": "서울 금천구 시흥대로52길 49 (시흥동) bhc",
      "region": "서울",
      "district": "금천구",
      "phone": "028951717",
      "lat": 37.453417,
      "lng": 126.901842,
      "status": "OPEN",
      "isDelivery": "Y",
      "isTakeout": "Y",
      "isDineIn": "Y"
    },
    {
      "id": 91,
      "storeCd": "7677301",
      "name": "가산디지털점",
      "address": "서울 금천구 가산디지털1로 181 (가산동, 가산 더블유센터) bhc",
      "region": "서울",
      "district": "금천구",
      "phone": "0262816644",
      "lat": 37.481425,
      "lng": 126.880394,
      "status": "OPEN",
      "isDelivery": "Y",
      "isTakeout": "Y",
      "isDineIn": "Y"
    },
    {
      "id": 92,
      "storeCd": "7679001",
      "name": "시흥점",
      "address": "서울 금천구 독산로 114 (시흥동) bhc",
      "region": "서울",
      "district": "금천구",
      "phone": "028089898",
      "lat": 37.457513,
      "lng": 126.905589,
      "status": "OPEN",
      "isDelivery": "Y",
      "isTakeout": "Y",
      "isDineIn": "N"
    },
    {
      "id": 93,
      "storeCd": "7997201",
      "name": "중계역점",
      "address": "서울 노원구 동일로 1280 (중계동, 중계무지개아파트2단지상가,유치원) 중계무지개아파트 2단지 상가 지층14호",
      "region": "서울",
      "district": "노원구",
      "phone": "029712099",
      "lat": 37.643561,
      "lng": 127.065765,
      "status": "OPEN",
      "isDelivery": "Y",
      "isTakeout": "Y",
      "isDineIn": "N"
    },
    {
      "id": 94,
      "storeCd": "7960501",
      "name": "노원역점",
      "address": "서울 노원구 노해로81길 12-4 (상계동, 화랑상가) 1층",
      "region": "서울",
      "district": "노원구",
      "phone": "029307692",
      "lat": 37.655446,
      "lng": 127.06324,
      "status": "OPEN",
      "isDelivery": "Y",
      "isTakeout": "Y",
      "isDineIn": "Y"
    },
    {
      "id": 95,
      "storeCd": "7965601",
      "name": "하계점",
      "address": "서울 노원구 공릉로58길 103 1층 bhc",
      "region": "서울",
      "district": "노원구",
      "phone": "029759282",
      "lat": 37.635742,
      "lng": 127.074167,
      "status": "OPEN",
      "isDelivery": "Y",
      "isTakeout": "Y",
      "isDineIn": "N"
    },
    {
      "id": 96,
      "storeCd": "7934101",
      "name": "중계본점",
      "address": "서울 노원구 덕릉로 669 (중계동, 세양빌딩) 103호",
      "region": "서울",
      "district": "노원구",
      "phone": "029372077",
      "lat": 37.65738,
      "lng": 127.074655,
      "status": "OPEN",
      "isDelivery": "Y",
      "isTakeout": "Y",
      "isDineIn": "Y"
    },
    {
      "id": 97,
      "storeCd": "7937901",
      "name": "공릉역점",
      "address": "서울 노원구 공릉로 231 (공릉동, 중앙빌딩)",
      "region": "서울",
      "district": "노원구",
      "phone": "029488844",
      "lat": 37.629727,
      "lng": 127.076332,
      "status": "OPEN",
      "isDelivery": "Y",
      "isTakeout": "Y",
      "isDineIn": "Y"
    },
    {
      "id": 98,
      "storeCd": "7901701",
      "name": "월계스타점",
      "address": "서울 노원구 초안산로2라길 19 (월계동) , 2층 201호",
      "region": "서울",
      "district": "노원구",
      "phone": "029998292",
      "lat": 37.631477,
      "lng": 127.057653,
      "status": "OPEN",
      "isDelivery": "Y",
      "isTakeout": "Y",
      "isDineIn": "Y"
    },
    {
      "id": 99,
      "storeCd": "7930901",
      "name": "상계대박점",
      "address": "서울 노원구 상계로26길 20 (상계동, 대동청솔아파트) 상가동 105호 106호",
      "region": "서울",
      "district": "노원구",
      "phone": "029359282",
      "lat": 37.657302,
      "lng": 127.070722,
      "status": "OPEN",
      "isDelivery": "Y",
      "isTakeout": "Y",
      "isDineIn": "Y"
    },
    {
      "id": 100,
      "storeCd": "7723801",
      "name": "상계역점",
      "address": "서울 노원구 덕릉로87길 13 (중계동) 1",
      "region": "서울",
      "district": "노원구",
      "phone": "029525077",
      "lat": 37.660676,
      "lng": 127.07493,
      "status": "OPEN",
      "isDelivery": "Y",
      "isTakeout": "Y",
      "isDineIn": "N"
    },
    {
      "id": 101,
      "storeCd": "7541201",
      "name": "상계행복점",
      "address": "서울 노원구 상계동 767-4",
      "region": "서울",
      "district": "노원구",
      "phone": "029758292",
      "lat": 37.647755,
      "lng": 127.057748,
      "status": "OPEN",
      "isDelivery": "Y",
      "isTakeout": "Y",
      "isDineIn": "N"
    },
    {
      "id": 102,
      "storeCd": "7553401",
      "name": "수락산역점",
      "address": "서울 노원구 상계동 1267 1층",
      "region": "서울",
      "district": "노원구",
      "phone": "029357792",
      "lat": 37.680186,
      "lng": 127.05583,
      "status": "OPEN",
      "isDelivery": "Y",
      "isTakeout": "Y",
      "isDineIn": "Y"
    },
    {
      "id": 103,
      "storeCd": "7312102",
      "name": "마들점",
      "address": "서울 노원구 수락산로 212 (상계동) 1층bhc",
      "region": "서울",
      "district": "노원구",
      "phone": "029339288",
      "lat": 37.670828,
      "lng": 127.055378,
      "status": "OPEN",
      "isDelivery": "Y",
      "isTakeout": "Y",
      "isDineIn": "Y"
    },
    {
      "id": 104,
      "storeCd": "7231501",
      "name": "태릉입구점",
      "address": "서울 노원구 공릉동 633-11 1",
      "region": "서울",
      "district": "노원구",
      "phone": "029499222",
      "lat": 37.620138,
      "lng": 127.077742,
      "status": "OPEN",
      "isDelivery": "Y",
      "isTakeout": "Y",
      "isDineIn": "Y"
    },
    {
      "id": 105,
      "storeCd": "7982601",
      "name": "쌍문역점",
      "address": "서울 도봉구 도봉로110길 49 1층",
      "region": "서울",
      "district": "도봉구",
      "phone": "0269529995",
      "lat": 37.646337,
      "lng": 127.036342,
      "status": "OPEN",
      "isDelivery": "Y",
      "isTakeout": "Y",
      "isDineIn": "Y"
    },
    {
      "id": 106,
      "storeCd": "7969801",
      "name": "도봉역점",
      "address": "서울 도봉구 도봉로169나길 69 (도봉동)",
      "region": "서울",
      "district": "도봉구",
      "phone": "029558886",
      "lat": 37.676585,
      "lng": 127.043722,
      "status": "OPEN",
      "isDelivery": "Y",
      "isTakeout": "Y",
      "isDineIn": "N"
    },
    {
      "id": 107,
      "storeCd": "7906701",
      "name": "창2동점",
      "address": "서울 도봉구 덕릉로 216 (창동) 1층",
      "region": "서울",
      "district": "도봉구",
      "phone": "029003344",
      "lat": 37.637326,
      "lng": 127.037103,
      "status": "OPEN",
      "isDelivery": "Y",
      "isTakeout": "Y",
      "isDineIn": "N"
    },
    {
      "id": 108,
      "storeCd": "7775701",
      "name": "도봉구청점",
      "address": "서울 도봉구 도봉로150다길 28 (방학동, 방학 지음재힐스) 1층",
      "region": "서울",
      "district": "도봉구",
      "phone": "029569972",
      "lat": 37.66833,
      "lng": 127.045337,
      "status": "OPEN",
      "isDelivery": "Y",
      "isTakeout": "Y",
      "isDineIn": "Y"
    },
    {
      "id": 109,
      "storeCd": "7786001",
      "name": "방학점",
      "address": "서울 도봉구 시루봉로 172 (방학동) 102호",
      "region": "서울",
      "district": "도봉구",
      "phone": "0260837272",
      "lat": 37.665193,
      "lng": 127.030421,
      "status": "OPEN",
      "isDelivery": "Y",
      "isTakeout": "Y",
      "isDineIn": "N"
    },
    {
      "id": 110,
      "storeCd": "7587701",
      "name": "방학신동아점",
      "address": "서울 도봉구 시루봉로 105 (방학동, 신동아상가) 1층",
      "region": "서울",
      "district": "도봉구",
      "phone": "029562292",
      "lat": 37.660177,
      "lng": 127.027032,
      "status": "OPEN",
      "isDelivery": "Y",
      "isTakeout": "Y",
      "isDineIn": "Y"
    },
    {
      "id": 111,
      "storeCd": "7487901",
      "name": "창동행복점",
      "address": "서울 도봉구 노해로70길 81 (창동) 2층 205호",
      "region": "서울",
      "district": "도봉구",
      "phone": "029918878",
      "lat": 37.648831,
      "lng": 127.05257,
      "status": "OPEN",
      "isDelivery": "Y",
      "isTakeout": "Y",
      "isDineIn": "Y"
    },
    {
      "id": 112,
      "storeCd": "7293901",
      "name": "창동아이파크점",
      "address": "서울시 도봉구 창동 749-16",
      "region": "서울",
      "district": "도봉구",
      "phone": "029917771",
      "lat": 37.65943,
      "lng": 127.041778,
      "status": "OPEN",
      "isDelivery": "Y",
      "isTakeout": "Y",
      "isDineIn": "Y"
    },
    {
      "id": 113,
      "storeCd": "7966401",
      "name": "장한평점",
      "address": "서울 동대문구 장한로5길 50 1층",
      "region": "서울",
      "district": "동대문구",
      "phone": "0222422247",
      "lat": 37.56534,
      "lng": 127.063946,
      "status": "OPEN",
      "isDelivery": "Y",
      "isTakeout": "Y",
      "isDineIn": "N"
    },
    {
      "id": 114,
      "storeCd": "7844401",
      "name": "이문점",
      "address": "서울 동대문구 이문로 164, 1층 103호(이문동,C&J오피스텔)",
      "region": "서울",
      "district": "동대문구",
      "phone": "029599912",
      "lat": 37.601102,
      "lng": 127.062255,
      "status": "OPEN",
      "isDelivery": "Y",
      "isTakeout": "Y",
      "isDineIn": "N"
    },
    {
      "id": 115,
      "storeCd": "7887301",
      "name": "청량리점",
      "address": "서울 동대문구 제기로38길 13 (청량리동)",
      "region": "서울",
      "district": "동대문구",
      "phone": "029590901",
      "lat": 37.585247,
      "lng": 127.050615,
      "status": "OPEN",
      "isDelivery": "Y",
      "isTakeout": "Y",
      "isDineIn": "N"
    },
    {
      "id": 116,
      "storeCd": "7913901",
      "name": "답십리점",
      "address": "서울 동대문구 전농로 65-1 (답십리동), 1층",
      "region": "서울",
      "district": "동대문구",
      "phone": "0222121222",
      "lat": 37.570822,
      "lng": 127.057011,
      "status": "OPEN",
      "isDelivery": "Y",
      "isTakeout": "Y",
      "isDineIn": "Y"
    },
    {
      "id": 117,
      "storeCd": "7658001",
      "name": "휘경점",
      "address": "서울 동대문구 한천로 264 (휘경동) 1층",
      "region": "서울",
      "district": "동대문구",
      "phone": "0264891123",
      "lat": 37.58429,
      "lng": 127.068482,
      "status": "OPEN",
      "isDelivery": "Y",
      "isTakeout": "Y",
      "isDineIn": "N"
    },
    {
      "id": 118,
      "storeCd": "7692401",
      "name": "회기점",
      "address": "서울 동대문구 휘경로2길 42 (이문동) 1층",
      "region": "서울",
      "district": "동대문구",
      "phone": "029598892",
      "lat": 37.594393,
      "lng": 127.05999,
      "status": "OPEN",
      "isDelivery": "Y",
      "isTakeout": "Y",
      "isDineIn": "N"
    },
    {
      "id": 119,
      "storeCd": "7426201",
      "name": "시립대점",
      "address": "서울 동대문구 전농동 사가정로 93",
      "region": "서울",
      "district": "동대문구",
      "phone": "0233905577",
      "lat": 37.576406,
      "lng": 127.05562,
      "status": "OPEN",
      "isDelivery": "Y",
      "isTakeout": "Y",
      "isDineIn": "Y"
    },
    {
      "id": 120,
      "storeCd": "7513901",
      "name": "장안점",
      "address": "서울 동대문구 장안동 141-10",
      "region": "서울",
      "district": "동대문구",
      "phone": "0222425577",
      "lat": 37.572959,
      "lng": 127.066781,
      "status": "OPEN",
      "isDelivery": "Y",
      "isTakeout": "Y",
      "isDineIn": "Y"
    },
    {
      "id": 121,
      "storeCd": "7560801",
      "name": "고대역점",
      "address": "서울 동대문구 제기동 137-418",
      "region": "서울",
      "district": "동대문구",
      "phone": "029252100",
      "lat": 37.589079,
      "lng": 127.035755,
      "status": "OPEN",
      "isDelivery": "Y",
      "isTakeout": "Y",
      "isDineIn": "Y"
    },
    {
      "id": 122,
      "storeCd": "7390701",
      "name": "제기점",
      "address": "서울 동대문구 왕산로26길 23 (용두동) 1층",
      "region": "서울",
      "district": "동대문구",
      "phone": "029602212",
      "lat": 37.577021,
      "lng": 127.036545,
      "status": "OPEN",
      "isDelivery": "Y",
      "isTakeout": "Y",
      "isDineIn": "Y"
    },
    {
      "id": 123,
      "storeCd": "8404501",
      "name": "숭실대점",
      "address": "서울 동작구 상도로61길 48 1층",
      "region": "서울",
      "district": "동작구",
      "phone": "028179923",
      "lat": 37.49466,
      "lng": 126.957375,
      "status": "OPEN",
      "isDelivery": "Y",
      "isTakeout": "Y",
      "isDineIn": "Y"
    },
    {
      "id": 124,
      "storeCd": "7988101",
      "name": "대방점",
      "address": "서울 동작구 등용로96 1층",
      "region": "서울",
      "district": "동작구",
      "phone": "028150104",
      "lat": 37.509764,
      "lng": 126.932282,
      "status": "OPEN",
      "isDelivery": "Y",
      "isTakeout": "Y",
      "isDineIn": "N"
    },
    {
      "id": 125,
      "storeCd": "7938601",
      "name": "노량진점",
      "address": "서울 동작구 만양로3길 20 (노량진동, 신동아리버파크빌), 제1동 2층 202호",
      "region": "서울",
      "district": "동작구",
      "phone": "028259292",
      "lat": 37.508222,
      "lng": 126.946199,
      "status": "OPEN",
      "isDelivery": "Y",
      "isTakeout": "Y",
      "isDineIn": "N"
    },
    {
      "id": 126,
      "storeCd": "7917301",
      "name": "남성역점",
      "address": "서울 동작구 사당로 229-1 (사당동, 해연당) 2층",
      "region": "서울",
      "district": "동작구",
      "phone": "0263967979",
      "lat": 37.483671,
      "lng": 126.973483,
      "status": "OPEN",
      "isDelivery": "Y",
      "isTakeout": "Y",
      "isDineIn": "Y"
    },
    {
      "id": 127,
      "storeCd": "7918901",
      "name": "상도점",
      "address": "서울 동작구 성대로 167 (상도동)",
      "region": "서울",
      "district": "동작구",
      "phone": "028168599",
      "lat": 37.498972,
      "lng": 126.939588,
      "status": "OPEN",
      "isDelivery": "Y",
      "isTakeout": "Y",
      "isDineIn": "N"
    },
    {
      "id": 128,
      "storeCd": "7928101",
      "name": "보라매역점",
      "address": "서울 동작구 여의대방로 86-1 (신대방동)",
      "region": "서울",
      "district": "동작구",
      "phone": "028418292",
      "lat": 37.496736,
      "lng": 126.916347,
      "status": "OPEN",
      "isDelivery": "Y",
      "isTakeout": "Y",
      "isDineIn": "Y"
    },
    {
      "id": 129,
      "storeCd": "7550501",
      "name": "신대방스타점",
      "address": "서울 동작구 신대방동 342-17",
      "region": "서울",
      "district": "동작구",
      "phone": "028258292",
      "lat": 37.496759,
      "lng": 126.928059,
      "status": "OPEN",
      "isDelivery": "Y",
      "isTakeout": "Y",
      "isDineIn": "Y"
    },
    {
      "id": 130,
      "storeCd": "7236601",
      "name": "중앙대점",
      "address": "서울특별시 동작구 흑석로 79 (흑석동,2층) 2층",
      "region": "서울",
      "district": "동작구",
      "phone": "0260106471",
      "lat": 37.507029,
      "lng": 126.958421,
      "status": "OPEN",
      "isDelivery": "Y",
      "isTakeout": "Y",
      "isDineIn": "Y"
    },
    {
      "id": 131,
      "storeCd": "7308101",
      "name": "사당점",
      "address": "서울 동작구 사당동 1029-45",
      "region": "서울",
      "district": "동작구",
      "phone": "025822004",
      "lat": 37.479924,
      "lng": 126.980684,
      "status": "OPEN",
      "isDelivery": "Y",
      "isTakeout": "Y",
      "isDineIn": "Y"
    },
    {
      "id": 132,
      "storeCd": "8414301",
      "name": "망원점",
      "address": "서울 마포구 방울내로 41 1층 bhc",
      "region": "서울",
      "district": "마포구",
      "phone": "01058954294",
      "lat": 37.558961,
      "lng": 126.900226,
      "status": "OPEN",
      "isDelivery": "Y",
      "isTakeout": "Y",
      "isDineIn": "N"
    },
    {
      "id": 133,
      "storeCd": "8404801",
      "name": "상암점",
      "address": "서울 마포구 월드컵북로48길 54 1층",
      "region": "서울",
      "district": "마포구",
      "phone": "023043339",
      "lat": 37.577735,
      "lng": 126.896356,
      "status": "OPEN",
      "isDelivery": "Y",
      "isTakeout": "Y",
      "isDineIn": "Y"
    },
    {
      "id": 134,
      "storeCd": "7984901",
      "name": "합정점",
      "address": "서울 마포구 포은로 50 (합정동)  1층 bhc",
      "region": "서울",
      "district": "마포구",
      "phone": "023329983",
      "lat": 37.551991,
      "lng": 126.906943,
      "status": "OPEN",
      "isDelivery": "Y",
      "isTakeout": "Y",
      "isDineIn": "Y"
    },
    {
      "id": 135,
      "storeCd": "7823101",
      "name": "상수점",
      "address": "서울 마포구 와우산로15길 33 (서교동) 202호",
      "region": "서울",
      "district": "마포구",
      "phone": "023329242",
      "lat": 37.549089,
      "lng": 126.921646,
      "status": "OPEN",
      "isDelivery": "Y",
      "isTakeout": "Y",
      "isDineIn": "Y"
    },
    {
      "id": 136,
      "storeCd": "7829801",
      "name": "신수서강대점",
      "address": "서울 마포구 독막로28길 7 (신수동, 성원아파트)  106호",
      "region": "서울",
      "district": "마포구",
      "phone": "027043456",
      "lat": 37.546847,
      "lng": 126.937623,
      "status": "OPEN",
      "isDelivery": "Y",
      "isTakeout": "Y",
      "isDineIn": "N"
    },
    {
      "id": 137,
      "storeCd": "7867701",
      "name": "공덕점",
      "address": "서울 마포구 백범로 205 (신공덕동, 펜트라우스) 101동 B232호",
      "region": "서울",
      "district": "마포구",
      "phone": "027527777",
      "lat": 37.544106,
      "lng": 126.95413,
      "status": "OPEN",
      "isDelivery": "Y",
      "isTakeout": "Y",
      "isDineIn": "Y"
    },
    {
      "id": 138,
      "storeCd": "7887201",
      "name": "홍대서교점",
      "address": "서울 마포구 월드컵북로5길 56 (서교동) 1층",
      "region": "서울",
      "district": "마포구",
      "phone": "023321718",
      "lat": 37.556304,
      "lng": 126.915827,
      "status": "OPEN",
      "isDelivery": "Y",
      "isTakeout": "Y",
      "isDineIn": "N"
    },
    {
      "id": 139,
      "storeCd": "7713001",
      "name": "창전서강점",
      "address": "서울 마포구  서강로11길 11 (창전동)",
      "region": "서울",
      "district": "마포구 ",
      "phone": "023220988",
      "lat": 37.553367,
      "lng": 126.932731,
      "status": "OPEN",
      "isDelivery": "Y",
      "isTakeout": "Y",
      "isDineIn": "N"
    },
    {
      "id": 140,
      "storeCd": "7800701",
      "name": "성산동점",
      "address": "서울 마포구  모래내로7길 62 (성산동)",
      "region": "서울",
      "district": "마포구 ",
      "phone": "023038335",
      "lat": 37.567697,
      "lng": 126.90962,
      "status": "OPEN",
      "isDelivery": "Y",
      "isTakeout": "Y",
      "isDineIn": "N"
    },
    {
      "id": 141,
      "storeCd": "7310601",
      "name": "아현점",
      "address": "서울 마포구 아현동 702-6.",
      "region": "서울",
      "district": "마포구",
      "phone": "023651253",
      "lat": 37.556991,
      "lng": 126.961713,
      "status": "OPEN",
      "isDelivery": "Y",
      "isTakeout": "Y",
      "isDineIn": "N"
    },
    {
      "id": 142,
      "storeCd": "7209501",
      "name": "홍대점",
      "address": "서울 마포구 홍익로6길 10 (동교동, 준봉빌딩) 2F",
      "region": "서울",
      "district": "마포구",
      "phone": "023253112",
      "lat": 37.555014,
      "lng": 126.922687,
      "status": "OPEN",
      "isDelivery": "Y",
      "isTakeout": "Y",
      "isDineIn": "Y"
    },
    {
      "id": 143,
      "storeCd": "7991401",
      "name": "디지털미디어시티점",
      "address": "서울 서대문구 수색로 100 3단지 상가 1동 지1층",
      "region": "서울",
      "district": "서대문구",
      "phone": "023035999",
      "lat": 37.574642,
      "lng": 126.906781,
      "status": "OPEN",
      "isDelivery": "Y",
      "isTakeout": "Y",
      "isDineIn": "Y"
    },
    {
      "id": 144,
      "storeCd": "7976901",
      "name": "북가좌동점",
      "address": "서울 서대문구  증가로 229 (북가좌동)",
      "region": "서울",
      "district": "서대문구 ",
      "phone": "023035503",
      "lat": 37.581805,
      "lng": 126.913822,
      "status": "OPEN",
      "isDelivery": "Y",
      "isTakeout": "Y",
      "isDineIn": "N"
    },
    {
      "id": 145,
      "storeCd": "7978601",
      "name": "홍은점",
      "address": "서울 서대문구 포방터길 44 (홍은동)  1층",
      "region": "서울",
      "district": "서대문구",
      "phone": "0232169795",
      "lat": 37.598593,
      "lng": 126.949113,
      "status": "OPEN",
      "isDelivery": "Y",
      "isTakeout": "Y",
      "isDineIn": "N"
    },
    {
      "id": 146,
      "storeCd": "7729701",
      "name": "홍제점",
      "address": "서울 서대문구  통일로37길 42 (홍제동)",
      "region": "서울",
      "district": "서대문구 ",
      "phone": "027355999",
      "lat": 37.586461,
      "lng": 126.943882,
      "status": "OPEN",
      "isDelivery": "Y",
      "isTakeout": "Y",
      "isDineIn": "Y"
    },
    {
      "id": 147,
      "storeCd": "7588601",
      "name": "서대문점",
      "address": "서울 서대문구 충정로 9길 8",
      "region": "서울",
      "district": "서대문구",
      "phone": "023934043",
      "lat": 37.564471,
      "lng": 126.964922,
      "status": "OPEN",
      "isDelivery": "Y",
      "isTakeout": "Y",
      "isDineIn": "Y"
    },
    {
      "id": 148,
      "storeCd": "7503401",
      "name": "이대역점",
      "address": "서울 서대문구  이화여대2길 11 (대현동)",
      "region": "서울",
      "district": "서대문구 ",
      "phone": "0263383222",
      "lat": 37.557523,
      "lng": 126.946514,
      "status": "OPEN",
      "isDelivery": "Y",
      "isTakeout": "Y",
      "isDineIn": "Y"
    },
    {
      "id": 149,
      "storeCd": "7521201",
      "name": "남가좌점",
      "address": "서울 서대문구 가재울로10길 37 (남가좌동) 1층 (남가좌동)",
      "region": "서울",
      "district": "서대문구",
      "phone": "023049282",
      "lat": 37.576837,
      "lng": 126.922678,
      "status": "OPEN",
      "isDelivery": "Y",
      "isTakeout": "Y",
      "isDineIn": "N"
    },
    {
      "id": 150,
      "storeCd": "7229801",
      "name": "연희점",
      "address": "서울특별시 서대문구  증가로 28, 1층 (연희동)",
      "region": "서울",
      "district": "서대문구",
      "phone": "023335303",
      "lat": 37.570724,
      "lng": 126.930591,
      "status": "OPEN",
      "isDelivery": "Y",
      "isTakeout": "Y",
      "isDineIn": "N"
    },
    {
      "id": 151,
      "storeCd": "7985401",
      "name": "서초교대점",
      "address": "서울특별시 서초구 서초대로48길 33  103호",
      "region": "서울",
      "district": "서초구",
      "phone": "025810715",
      "lat": 37.491385,
      "lng": 127.011995,
      "status": "OPEN",
      "isDelivery": "Y",
      "isTakeout": "Y",
      "isDineIn": "Y"
    },
    {
      "id": 152,
      "storeCd": "7958101",
      "name": "신반포점",
      "address": "서울 서초구 서래로10길 10 (반포동) 1층",
      "region": "서울",
      "district": "서초구",
      "phone": "025359282",
      "lat": 37.499256,
      "lng": 126.998803,
      "status": "OPEN",
      "isDelivery": "Y",
      "isTakeout": "Y",
      "isDineIn": "Y"
    },
    {
      "id": 153,
      "storeCd": "7868801",
      "name": "강남반포점",
      "address": "서울 서초구 사평대로 353 (반포동) 1층 101,102호",
      "region": "서울",
      "district": "서초구",
      "phone": "025128488",
      "lat": 37.504249,
      "lng": 127.021789,
      "status": "OPEN",
      "isDelivery": "Y",
      "isTakeout": "Y",
      "isDineIn": "Y"
    },
    {
      "id": 154,
      "storeCd": "7790601",
      "name": "내곡점",
      "address": "서울 서초구 청계산로9길 70 (내곡동, 내곡 SH 플라자) 1층 103호",
      "region": "서울",
      "district": "서초구",
      "phone": "025785588",
      "lat": 37.453462,
      "lng": 127.059797,
      "status": "OPEN",
      "isDelivery": "Y",
      "isTakeout": "Y",
      "isDineIn": "N"
    },
    {
      "id": 155,
      "storeCd": "7626901",
      "name": "우면점",
      "address": "서울 서초구 강남대로25길 37 (양재동, 양촌) 1층",
      "region": "서울",
      "district": "서초구",
      "phone": "025779092",
      "lat": 37.476195,
      "lng": 127.036536,
      "status": "OPEN",
      "isDelivery": "Y",
      "isTakeout": "Y",
      "isDineIn": "Y"
    },
    {
      "id": 156,
      "storeCd": "7645001",
      "name": "방배본동점(점명변.방배행복점)",
      "address": "서울 서초구 동광로1길 100 (방배동) 1층",
      "region": "서울",
      "district": "서초구",
      "phone": "025373410",
      "lat": 37.496311,
      "lng": 126.983955,
      "status": "OPEN",
      "isDelivery": "Y",
      "isTakeout": "Y",
      "isDineIn": "Y"
    },
    {
      "id": 157,
      "storeCd": "7566701",
      "name": "이수점",
      "address": "서울 서초구 방배동 3001-2 104,104-1",
      "region": "서울",
      "district": "서초구",
      "phone": "025378292",
      "lat": 37.485982,
      "lng": 126.983064,
      "status": "OPEN",
      "isDelivery": "Y",
      "isTakeout": "Y",
      "isDineIn": "Y"
    },
    {
      "id": 158,
      "storeCd": "7398501",
      "name": "잠원점",
      "address": "서울 서초구 강남대로95길 19-4 (잠원동, 호영빌딩) 1층",
      "region": "서울",
      "district": "서초구",
      "phone": "0234826699",
      "lat": 37.513573,
      "lng": 127.018748,
      "status": "OPEN",
      "isDelivery": "Y",
      "isTakeout": "Y",
      "isDineIn": "Y"
    },
    {
      "id": 159,
      "storeCd": "7937401",
      "name": "금호동점",
      "address": "서울 성동구 동호로 93 (금호동4가, 브라운스톤 금호2차), 401동 지2층 3호",
      "region": "서울",
      "district": "성동구",
      "phone": "027961890",
      "lat": 37.547592,
      "lng": 127.015402,
      "status": "OPEN",
      "isDelivery": "Y",
      "isTakeout": "Y",
      "isDineIn": "Y"
    },
    {
      "id": 160,
      "storeCd": "7959701",
      "name": "도선점",
      "address": "서울 성동구 무학로6길 50 50 (도선동, 성동삼성쉐르빌)  101동 236-4호",
      "region": "서울",
      "district": "성동구",
      "phone": "0222993510",
      "lat": 37.564596,
      "lng": 127.035024,
      "status": "OPEN",
      "isDelivery": "Y",
      "isTakeout": "Y",
      "isDineIn": "N"
    },
    {
      "id": 161,
      "storeCd": "7868301",
      "name": "응봉점",
      "address": "서울 성동구 고산자로2길 10-7 (응봉동) 1층, 101호,102호",
      "region": "서울",
      "district": "성동구",
      "phone": "0222825935",
      "lat": 37.552132,
      "lng": 127.036414,
      "status": "OPEN",
      "isDelivery": "Y",
      "isTakeout": "Y",
      "isDineIn": "Y"
    },
    {
      "id": 162,
      "storeCd": "7911201",
      "name": "행당점",
      "address": "서울 성동구 무학봉길 43 (하왕십리동)",
      "region": "서울",
      "district": "성동구",
      "phone": "0263383343",
      "lat": 37.560515,
      "lng": 127.02756,
      "status": "OPEN",
      "isDelivery": "Y",
      "isTakeout": "Y",
      "isDineIn": "N"
    },
    {
      "id": 163,
      "storeCd": "7710401",
      "name": "한양대마장점",
      "address": "서울 성동구 사근동길 18 (사근동) 1층",
      "region": "서울",
      "district": "성동구",
      "phone": "0222925588",
      "lat": 37.560589,
      "lng": 127.04315,
      "status": "OPEN",
      "isDelivery": "Y",
      "isTakeout": "Y",
      "isDineIn": "N"
    },
    {
      "id": 164,
      "storeCd": "7243001",
      "name": "성수역점",
      "address": "서울특별시 성동구 성덕정길 56, 1층 (성수동1가) 1층",
      "region": "서울",
      "district": "성동구",
      "phone": "024685577",
      "lat": 37.536938,
      "lng": 127.051685,
      "status": "OPEN",
      "isDelivery": "Y",
      "isTakeout": "Y",
      "isDineIn": "N"
    },
    {
      "id": 165,
      "storeCd": "7995201",
      "name": "신설점",
      "address": "서울 성북구 보문로13길 21 (보문동7가) 1층",
      "region": "서울",
      "district": "성북구",
      "phone": "029535522",
      "lat": 37.579823,
      "lng": 127.020901,
      "status": "OPEN",
      "isDelivery": "Y",
      "isTakeout": "Y",
      "isDineIn": "Y"
    },
    {
      "id": 166,
      "storeCd": "7991701",
      "name": "성북성신점",
      "address": "서울 성북구 고려대로7길 52 (안암동1가) 1층",
      "region": "서울",
      "district": "성북구",
      "phone": "029213222",
      "lat": 37.588164,
      "lng": 127.019999,
      "status": "OPEN",
      "isDelivery": "Y",
      "isTakeout": "Y",
      "isDineIn": "N"
    },
    {
      "id": 167,
      "storeCd": "7979601",
      "name": "돈암점",
      "address": "서울 성북구 북악산로 902 1층",
      "region": "서울",
      "district": "성북구",
      "phone": "029259292",
      "lat": 37.596316,
      "lng": 127.022323,
      "status": "OPEN",
      "isDelivery": "Y",
      "isTakeout": "Y",
      "isDineIn": "N"
    },
    {
      "id": 168,
      "storeCd": "7966301",
      "name": "길음뉴타운점",
      "address": "서울 성북구 삼양로 66 (길음동, 동부크리닉센타) 102호, 106호",
      "region": "서울",
      "district": "성북구",
      "phone": "0260535578",
      "lat": 37.609035,
      "lng": 127.023296,
      "status": "OPEN",
      "isDelivery": "Y",
      "isTakeout": "Y",
      "isDineIn": "N"
    },
    {
      "id": 169,
      "storeCd": "7925501",
      "name": "석관점",
      "address": "서울 성북구 한천로 583 (석관동) 1층",
      "region": "서울",
      "district": "성북구",
      "phone": "029685577",
      "lat": 37.611487,
      "lng": 127.061817,
      "status": "OPEN",
      "isDelivery": "Y",
      "isTakeout": "Y",
      "isDineIn": "N"
    },
    {
      "id": 170,
      "storeCd": "7712401",
      "name": "한성대입구점",
      "address": "서울 성북구 성북로2길 18 (동소문동1가) 1층",
      "region": "서울",
      "district": "성북구",
      "phone": "027450417",
      "lat": 37.589223,
      "lng": 127.006839,
      "status": "OPEN",
      "isDelivery": "Y",
      "isTakeout": "Y",
      "isDineIn": "Y"
    },
    {
      "id": 171,
      "storeCd": "7717801",
      "name": "종암점",
      "address": "서울 성북구 종암로 113 (종암동, 국승호치과의원)  2층",
      "region": "서울",
      "district": "성북구",
      "phone": "029299981",
      "lat": 37.600156,
      "lng": 127.033676,
      "status": "OPEN",
      "isDelivery": "Y",
      "isTakeout": "Y",
      "isDineIn": "Y"
    },
    {
      "id": 172,
      "storeCd": "7793001",
      "name": "장위점",
      "address": "서울 성북구 돌곶이로40길 46 (장위동) 상가6동 1호",
      "region": "서울",
      "district": "성북구",
      "phone": "029092368",
      "lat": 37.619829,
      "lng": 127.049613,
      "status": "OPEN",
      "isDelivery": "Y",
      "isTakeout": "Y",
      "isDineIn": "N"
    },
    {
      "id": 173,
      "storeCd": "7646701",
      "name": "정릉점",
      "address": "서울 성북구 정릉로27길 23-3 (정릉동, 삼성파크빌7차) 1층",
      "region": "서울",
      "district": "성북구",
      "phone": "029432292",
      "lat": 37.604812,
      "lng": 127.013178,
      "status": "OPEN",
      "isDelivery": "Y",
      "isTakeout": "Y",
      "isDineIn": "Y"
    },
    {
      "id": 174,
      "storeCd": "1085302",
      "name": "월곡점",
      "address": "서울특별시 성북구 오패산로3길 83 (하월곡동) 1층,2층,3층,지하(전체)(하월곡동,96-1,96-100)",
      "region": "서울",
      "district": "성북구",
      "phone": "029189289",
      "lat": 37.606827,
      "lng": 127.034211,
      "status": "OPEN",
      "isDelivery": "Y",
      "isTakeout": "Y",
      "isDineIn": "N"
    },
    {
      "id": 175,
      "storeCd": "8408001",
      "name": "문정로데오점",
      "address": "서울 송파구 동남로4길 15-1 1층",
      "region": "서울",
      "district": "송파구",
      "phone": "0220439282",
      "lat": 37.488803,
      "lng": 127.124618,
      "status": "OPEN",
      "isDelivery": "Y",
      "isTakeout": "Y",
      "isDineIn": "Y"
    },
    {
      "id": 176,
      "storeCd": "7813401",
      "name": "개롱역점",
      "address": "서울 송파구 오금로44가길 4 (가락동) 1층",
      "region": "서울",
      "district": "송파구",
      "phone": "0220435002",
      "lat": 37.497154,
      "lng": 127.135659,
      "status": "OPEN",
      "isDelivery": "Y",
      "isTakeout": "Y",
      "isDineIn": "Y"
    },
    {
      "id": 177,
      "storeCd": "7900201",
      "name": "풍납올림픽공원점",
      "address": "서울 송파구 올림픽로47길 11 (풍납동, 율곡빌라), 1층 101호",
      "region": "서울",
      "district": "송파구",
      "phone": "0237845298",
      "lat": 37.528015,
      "lng": 127.117522,
      "status": "OPEN",
      "isDelivery": "Y",
      "isTakeout": "Y",
      "isDineIn": "Y"
    },
    {
      "id": 178,
      "storeCd": "7908001",
      "name": "헬리오시티점",
      "address": "서울 송파구 가락로 110 (석촌동),2층",
      "region": "서울",
      "district": "송파구",
      "phone": "024125577",
      "lat": 37.501251,
      "lng": 127.108232,
      "status": "OPEN",
      "isDelivery": "Y",
      "isTakeout": "Y",
      "isDineIn": "Y"
    },
    {
      "id": 179,
      "storeCd": "7915701",
      "name": "송파한양점",
      "address": "서울 송파구 송파대로36가길 15-22 (송파동)",
      "region": "서울",
      "district": "송파구",
      "phone": "024157892",
      "lat": 37.500498,
      "lng": 127.116516,
      "status": "OPEN",
      "isDelivery": "Y",
      "isTakeout": "Y",
      "isDineIn": "Y"
    },
    {
      "id": 180,
      "storeCd": "7748801",
      "name": "잠실푸르지오점",
      "address": "서울 송파구 올림픽로35가길 9 (신천동, 잠실 푸르지오 월드마크) 118호",
      "region": "서울",
      "district": "송파구",
      "phone": "0222025588",
      "lat": 37.517485,
      "lng": 127.103445,
      "status": "OPEN",
      "isDelivery": "Y",
      "isTakeout": "Y",
      "isDineIn": "Y"
    },
    {
      "id": 181,
      "storeCd": "7784501",
      "name": "마천점",
      "address": "서울 송파구 거마로24길 10 (마천동) 1층",
      "region": "서울",
      "district": "송파구",
      "phone": "024140036",
      "lat": 37.499527,
      "lng": 127.148388,
      "status": "OPEN",
      "isDelivery": "Y",
      "isTakeout": "Y",
      "isDineIn": "Y"
    },
    {
      "id": 182,
      "storeCd": "7807701",
      "name": "송파장지점",
      "address": "서울 송파구 새말로 122 (문정동)",
      "region": "서울",
      "district": "송파구",
      "phone": "024438292",
      "lat": 37.482714,
      "lng": 127.127743,
      "status": "OPEN",
      "isDelivery": "Y",
      "isTakeout": "Y",
      "isDineIn": "Y"
    },
    {
      "id": 183,
      "storeCd": "7573901",
      "name": "송파구청점",
      "address": "서울 송파구 방이동 60, 2층",
      "region": "서울",
      "district": "송파구",
      "phone": "024240440",
      "lat": 37.51434,
      "lng": 127.109562,
      "status": "OPEN",
      "isDelivery": "Y",
      "isTakeout": "Y",
      "isDineIn": "Y"
    },
    {
      "id": 184,
      "storeCd": "7580501",
      "name": "위례중앙점",
      "address": "서울 송파구 위례광장로 120 (장지동, 위례중앙푸르지오1단지) 상가동1층 150호,151호",
      "region": "서울",
      "district": "송파구",
      "phone": "0230129922",
      "lat": 37.47501,
      "lng": 127.141593,
      "status": "OPEN",
      "isDelivery": "Y",
      "isTakeout": "Y",
      "isDineIn": "Y"
    },
    {
      "id": 185,
      "storeCd": "7606801",
      "name": "석촌점",
      "address": "서울 송파구 석촌동 150-1",
      "region": "서울",
      "district": "송파구",
      "phone": "024129211",
      "lat": 37.504679,
      "lng": 127.101893,
      "status": "OPEN",
      "isDelivery": "Y",
      "isTakeout": "Y",
      "isDineIn": "Y"
    },
    {
      "id": 186,
      "storeCd": "7615301",
      "name": "가락점",
      "address": "서울 송파구 송이로14길 3 (가락동) 1층",
      "region": "서울",
      "district": "송파구",
      "phone": "024042010",
      "lat": 37.499191,
      "lng": 127.119166,
      "status": "OPEN",
      "isDelivery": "Y",
      "isTakeout": "Y",
      "isDineIn": "Y"
    },
    {
      "id": 187,
      "storeCd": "7515401",
      "name": "방이점",
      "address": "서울 송파구 방이동 129-2",
      "region": "서울",
      "district": "송파구",
      "phone": "024189200",
      "lat": 37.509617,
      "lng": 127.118779,
      "status": "OPEN",
      "isDelivery": "Y",
      "isTakeout": "Y",
      "isDineIn": "Y"
    },
    {
      "id": 188,
      "storeCd": "7214401",
      "name": "삼전점",
      "address": "서울특별시 송파구 백제고분로28길 14 (삼전동,1층) 1층",
      "region": "서울",
      "district": "송파구",
      "phone": "0234329288",
      "lat": 37.501848,
      "lng": 127.091776,
      "status": "OPEN",
      "isDelivery": "Y",
      "isTakeout": "Y",
      "isDineIn": "Y"
    },
    {
      "id": 189,
      "storeCd": "1069802",
      "name": "잠실본점",
      "address": "서울 송파구 잠실본동 226-5 14",
      "region": "서울",
      "district": "송파구",
      "phone": "024222992",
      "lat": 37.506827,
      "lng": 127.083217,
      "status": "OPEN",
      "isDelivery": "Y",
      "isTakeout": "Y",
      "isDineIn": "N"
    },
    {
      "id": 190,
      "storeCd": "8419501",
      "name": "오목교점",
      "address": "서울 양천구 목동서로 291 (신정동, 제이월드빌)",
      "region": "서울",
      "district": "양천구",
      "phone": "0263397782",
      "lat": 37.521633,
      "lng": 126.869543,
      "status": "OPEN",
      "isDelivery": "Y",
      "isTakeout": "Y",
      "isDineIn": "Y"
    },
    {
      "id": 191,
      "storeCd": "7429501",
      "name": "목동중앙점",
      "address": "서울 양천구 목동 315-44",
      "region": "서울",
      "district": "양천구",
      "phone": "0220612061",
      "lat": 37.540793,
      "lng": 126.868729,
      "status": "OPEN",
      "isDelivery": "Y",
      "isTakeout": "Y",
      "isDineIn": "Y"
    },
    {
      "id": 192,
      "storeCd": "7997401",
      "name": "목동역점",
      "address": "서울 양천구 오목로 215-1 bhc",
      "region": "서울",
      "district": "양천구",
      "phone": "0226947272",
      "lat": 37.526064,
      "lng": 126.861283,
      "status": "OPEN",
      "isDelivery": "Y",
      "isTakeout": "Y",
      "isDineIn": "N"
    },
    {
      "id": 193,
      "storeCd": "7998301",
      "name": "양천구청점",
      "address": "서울 양천구 신목로5길 13 bhc",
      "region": "서울",
      "district": "양천구",
      "phone": "0260833330",
      "lat": 37.517657,
      "lng": 126.872532,
      "status": "OPEN",
      "isDelivery": "Y",
      "isTakeout": "Y",
      "isDineIn": "N"
    },
    {
      "id": 194,
      "storeCd": "7819001",
      "name": "신월점",
      "address": "서울 양천구 오목로 40 (신월동) Bhc",
      "region": "서울",
      "district": "양천구",
      "phone": "0226929222",
      "lat": 37.521818,
      "lng": 126.842107,
      "status": "OPEN",
      "isDelivery": "Y",
      "isTakeout": "Y",
      "isDineIn": "Y"
    },
    {
      "id": 195,
      "storeCd": "7884101",
      "name": "신월스타점",
      "address": "서울 양천구 월정로 147 (신월동)",
      "region": "서울",
      "district": "양천구",
      "phone": "0226089004",
      "lat": 37.531987,
      "lng": 126.836968,
      "status": "OPEN",
      "isDelivery": "Y",
      "isTakeout": "Y",
      "isDineIn": "Y"
    },
    {
      "id": 196,
      "storeCd": "7897501",
      "name": "신월중앙점",
      "address": "서울 양천구 화곡로 41 (신월동), 1층 105호",
      "region": "서울",
      "district": "양천구",
      "phone": "0264897377",
      "lat": 37.539556,
      "lng": 126.826504,
      "status": "OPEN",
      "isDelivery": "N",
      "isTakeout": "Y",
      "isDineIn": "N"
    },
    {
      "id": 197,
      "storeCd": "7909501",
      "name": "목동2호점(사변)",
      "address": "서울 양천구 목동중앙본로1길 47 (목동)",
      "region": "서울",
      "district": "양천구",
      "phone": "0226462233",
      "lat": 37.537254,
      "lng": 126.868566,
      "status": "OPEN",
      "isDelivery": "Y",
      "isTakeout": "Y",
      "isDineIn": "N"
    },
    {
      "id": 198,
      "storeCd": "7728301",
      "name": "신정뉴타운점",
      "address": "서울 양천구 남부순환로 585 (신월동, 유림웰스빌) 103호",
      "region": "서울",
      "district": "양천구",
      "phone": "0226071110",
      "lat": 37.516797,
      "lng": 126.839933,
      "status": "OPEN",
      "isDelivery": "Y",
      "isTakeout": "Y",
      "isDineIn": "Y"
    },
    {
      "id": 199,
      "storeCd": "7786401",
      "name": "신정네거리점",
      "address": "서울 양천구 중앙로43길 14 (신정동, 래미안 목동아델리체) bhc",
      "region": "서울",
      "district": "양천구",
      "phone": "0226988962",
      "lat": 37.517648,
      "lng": 126.853005,
      "status": "OPEN",
      "isDelivery": "Y",
      "isTakeout": "Y",
      "isDineIn": "N"
    },
    {
      "id": 200,
      "storeCd": "7613201",
      "name": "신월대박점",
      "address": "서울 양천구 지양로 87 (신월동) bhc",
      "region": "서울",
      "district": "양천구",
      "phone": "0220658892",
      "lat": 37.52283,
      "lng": 126.832311,
      "status": "OPEN",
      "isDelivery": "Y",
      "isTakeout": "Y",
      "isDineIn": "Y"
    },
    {
      "id": 201,
      "storeCd": "7222401",
      "name": "이대목동점",
      "address": "서울 양천구 목동동로 437 (목동, 향도드림네스트) bhc",
      "region": "서울",
      "district": "양천구",
      "phone": "0220627792",
      "lat": 37.537658,
      "lng": 126.884707,
      "status": "OPEN",
      "isDelivery": "Y",
      "isTakeout": "Y",
      "isDineIn": "Y"
    },
    {
      "id": 202,
      "storeCd": "7999001",
      "name": "영등포먹자골목점",
      "address": "서울 영등포구 국회대로34길 8 1층",
      "region": "서울",
      "district": "영등포구",
      "phone": "0226319991",
      "lat": 37.526817,
      "lng": 126.897382,
      "status": "OPEN",
      "isDelivery": "Y",
      "isTakeout": "Y",
      "isDineIn": "Y"
    },
    {
      "id": 203,
      "storeCd": "7999201",
      "name": "신길뉴타운점",
      "address": "서울 영등포구 도신로60길 15-2 bhc",
      "region": "서울",
      "district": "영등포구",
      "phone": "028330997",
      "lat": 37.510532,
      "lng": 126.917445,
      "status": "OPEN",
      "isDelivery": "Y",
      "isTakeout": "Y",
      "isDineIn": "N"
    },
    {
      "id": 204,
      "storeCd": "7973601",
      "name": "당산점",
      "address": "서울 영등포구 당산로49길 9 bhc",
      "region": "서울",
      "district": "영등포구",
      "phone": "0226779290",
      "lat": 37.535683,
      "lng": 126.902049,
      "status": "OPEN",
      "isDelivery": "Y",
      "isTakeout": "Y",
      "isDineIn": "Y"
    },
    {
      "id": 205,
      "storeCd": "7946501",
      "name": "양평역점",
      "address": "서울 영등포구 선유서로24길 6 (양평동1가, 영등포 중흥 S-CLASS)",
      "region": "서울",
      "district": "영등포구",
      "phone": "0226329992",
      "lat": 37.523589,
      "lng": 126.886105,
      "status": "OPEN",
      "isDelivery": "Y",
      "isTakeout": "Y",
      "isDineIn": "Y"
    },
    {
      "id": 206,
      "storeCd": "7949401",
      "name": "여의도점",
      "address": "서울 영등포구 여의대방로69길 7 (여의도동, 충무빌딩 106호, 107호, 108호)",
      "region": "서울",
      "district": "영등포구",
      "phone": "027829282",
      "lat": 37.519764,
      "lng": 126.931255,
      "status": "OPEN",
      "isDelivery": "Y",
      "isTakeout": "Y",
      "isDineIn": "Y"
    },
    {
      "id": 207,
      "storeCd": "7821101",
      "name": "영등포구청점",
      "address": "서울 영등포구 영등포로25길 28 (당산동1가)  1층",
      "region": "서울",
      "district": "영등포구",
      "phone": "0226789282",
      "lat": 37.523431,
      "lng": 126.898431,
      "status": "OPEN",
      "isDelivery": "Y",
      "isTakeout": "Y",
      "isDineIn": "N"
    },
    {
      "id": 208,
      "storeCd": "7822901",
      "name": "대림점",
      "address": "서울 영등포구 디지털로 420 (대림동, 보라매 신동아파밀리에) 상가동 지하2층 111-1호",
      "region": "서울",
      "district": "영등포구",
      "phone": "028487778",
      "lat": 37.493404,
      "lng": 126.904935,
      "status": "OPEN",
      "isDelivery": "Y",
      "isTakeout": "Y",
      "isDineIn": "N"
    },
    {
      "id": 209,
      "storeCd": "7897301",
      "name": "영등포공원점",
      "address": "서울 영등포구 신길로 250 (영등포동) 1층",
      "region": "서울",
      "district": "영등포구",
      "phone": "028459288",
      "lat": 37.513912,
      "lng": 126.911518,
      "status": "OPEN",
      "isDelivery": "N",
      "isTakeout": "Y",
      "isDineIn": "Y"
    },
    {
      "id": 210,
      "storeCd": "7929701",
      "name": "신길1호점",
      "address": "서울 영등포구 도신로 114 (신길동, 하나빌딩)",
      "region": "서울",
      "district": "영등포구",
      "phone": "028320817",
      "lat": 37.507935,
      "lng": 126.904654,
      "status": "OPEN",
      "isDelivery": "Y",
      "isTakeout": "Y",
      "isDineIn": "Y"
    },
    {
      "id": 211,
      "storeCd": "7621001",
      "name": "신풍역점",
      "address": "서울 영등포구 신길로 119 (신길동, 신길뉴타운 한화 꿈에그린) 112동 지하1층 비120호",
      "region": "서울",
      "district": "영등포구",
      "phone": "028479288",
      "lat": 37.50351,
      "lng": 126.90971,
      "status": "OPEN",
      "isDelivery": "Y",
      "isTakeout": "Y",
      "isDineIn": "Y"
    },
    {
      "id": 212,
      "storeCd": "7453502",
      "name": "여의도역점",
      "address": "서울특별시 영등포구 국제금융로2길 37 (여의도동, S-TRENUE) 3층 303호. 304-1호",
      "region": "서울",
      "district": "영등포구",
      "phone": "027613306",
      "lat": 37.522945,
      "lng": 126.924286,
      "status": "OPEN",
      "isDelivery": "N",
      "isTakeout": "Y",
      "isDineIn": "N"
    },
    {
      "id": 213,
      "storeCd": "7539901",
      "name": "영등포시장점",
      "address": "서울 영등포구 영등포동 7가 203 아크로타워 12동 2호",
      "region": "서울",
      "district": "영등포구",
      "phone": "024213392",
      "lat": 37.52438,
      "lng": 126.906871,
      "status": "OPEN",
      "isDelivery": "Y",
      "isTakeout": "Y",
      "isDineIn": "N"
    },
    {
      "id": 214,
      "storeCd": "7217701",
      "name": "문래점",
      "address": "서울특별시 영등포구 선유로13길 25 (문래동6가,에이스하이테크시티2지식산업센타) bhc",
      "region": "서울",
      "district": "영등포구",
      "phone": "0222578292",
      "lat": 37.518982,
      "lng": 126.886279,
      "status": "OPEN",
      "isDelivery": "Y",
      "isTakeout": "Y",
      "isDineIn": "Y"
    },
    {
      "id": 215,
      "storeCd": "7931301",
      "name": "효창공원역점",
      "address": "서울 용산구 새창로12길 11-7 (도원동, 제일아파트) 1층 101호",
      "region": "서울",
      "district": "용산구",
      "phone": "0220887008",
      "lat": 37.539346,
      "lng": 126.957798,
      "status": "OPEN",
      "isDelivery": "Y",
      "isTakeout": "Y",
      "isDineIn": "Y"
    },
    {
      "id": 216,
      "storeCd": "7911301",
      "name": "이촌점",
      "address": "서울 용산구 이촌로14길 11-6 (이촌동, 시범아파트) 1동 1층 102호",
      "region": "서울",
      "district": "용산구",
      "phone": "027023006",
      "lat": 37.527068,
      "lng": 126.954322,
      "status": "OPEN",
      "isDelivery": "Y",
      "isTakeout": "Y",
      "isDineIn": "N"
    },
    {
      "id": 217,
      "storeCd": "7541901",
      "name": "용산해방촌점",
      "address": "서울 용산구 용산동 2가 17-7 (신흥로 83)",
      "region": "서울",
      "district": "용산구",
      "phone": "027975595",
      "lat": 37.545428,
      "lng": 126.985868,
      "status": "OPEN",
      "isDelivery": "Y",
      "isTakeout": "Y",
      "isDineIn": "Y"
    },
    {
      "id": 218,
      "storeCd": "7307401",
      "name": "숙대점",
      "address": "서울 용산구 청파동1가 132-3 , 1층",
      "region": "서울",
      "district": "용산구",
      "phone": "027022292",
      "lat": 37.549199,
      "lng": 126.969487,
      "status": "OPEN",
      "isDelivery": "Y",
      "isTakeout": "Y",
      "isDineIn": "Y"
    },
    {
      "id": 219,
      "storeCd": "8409601",
      "name": "은평뉴타운점",
      "address": "서울 은평구 진관4로 47 1층",
      "region": "서울",
      "district": "은평구",
      "phone": "023858292",
      "lat": 37.645686,
      "lng": 126.92701,
      "status": "OPEN",
      "isDelivery": "Y",
      "isTakeout": "Y",
      "isDineIn": "Y"
    },
    {
      "id": 220,
      "storeCd": "7990601",
      "name": "갈현점",
      "address": "서울 은평구 서오릉로 232 1층 좌측",
      "region": "서울",
      "district": "은평구",
      "phone": "023836462",
      "lat": 37.615613,
      "lng": 126.908863,
      "status": "OPEN",
      "isDelivery": "Y",
      "isTakeout": "Y",
      "isDineIn": "Y"
    },
    {
      "id": 221,
      "storeCd": "7881201",
      "name": "불광힐스테이트점",
      "address": "서울 은평구 불광로 122-10 (불광동, 북한산현대힐스테이트3차아파트) 108-2호",
      "region": "서울",
      "district": "은평구",
      "phone": "023553788",
      "lat": 37.61827,
      "lng": 126.934181,
      "status": "OPEN",
      "isDelivery": "Y",
      "isTakeout": "Y",
      "isDineIn": "N"
    },
    {
      "id": 222,
      "storeCd": "7729501",
      "name": "불광점",
      "address": "서울 은평구 연서로 34길 19 (불광동)",
      "region": "서울",
      "district": "은평구",
      "phone": "023568553",
      "lat": 37.621326,
      "lng": 126.928412,
      "status": "OPEN",
      "isDelivery": "Y",
      "isTakeout": "Y",
      "isDineIn": "Y"
    },
    {
      "id": 223,
      "storeCd": "7733401",
      "name": "연신내점",
      "address": "서울 은평구  연서로29길 8-9 (갈현동)",
      "region": "서울",
      "district": "은평구 ",
      "phone": "023559285",
      "lat": 37.619184,
      "lng": 126.919482,
      "status": "OPEN",
      "isDelivery": "Y",
      "isTakeout": "Y",
      "isDineIn": "Y"
    },
    {
      "id": 224,
      "storeCd": "7749901",
      "name": "은평이마트점",
      "address": "서울 은평구 진흥로 50-8 (응암동, 역산아이지아) 1층",
      "region": "서울",
      "district": "은평구",
      "phone": "023595092",
      "lat": 37.601127,
      "lng": 126.92072,
      "status": "OPEN",
      "isDelivery": "Y",
      "isTakeout": "Y",
      "isDineIn": "Y"
    },
    {
      "id": 225,
      "storeCd": "7774001",
      "name": "녹번점",
      "address": "서울 은평구  서오릉로2길 12 (녹번동, 거장메카)",
      "region": "서울",
      "district": "은평구 ",
      "phone": "023569291",
      "lat": 37.602141,
      "lng": 126.927909,
      "status": "OPEN",
      "isDelivery": "Y",
      "isTakeout": "Y",
      "isDineIn": "Y"
    },
    {
      "id": 226,
      "storeCd": "7780101",
      "name": "대조점",
      "address": "서울 은평구  통일로 803-1 (대조동, 서부빌딩)",
      "region": "서울",
      "district": "은평구",
      "phone": "023851133",
      "lat": 37.615704,
      "lng": 126.924254,
      "status": "OPEN",
      "isDelivery": "Y",
      "isTakeout": "Y",
      "isDineIn": "N"
    },
    {
      "id": 227,
      "storeCd": "7803601",
      "name": "구파발점",
      "address": "서울 은평구 진관2로 60 (진관동, 은평뉴타운 마고정) 상가 1층",
      "region": "서울",
      "district": "은평구",
      "phone": "023860777",
      "lat": 37.633916,
      "lng": 126.922797,
      "status": "OPEN",
      "isDelivery": "Y",
      "isTakeout": "Y",
      "isDineIn": "N"
    },
    {
      "id": 228,
      "storeCd": "7625001",
      "name": "응암점",
      "address": "서울 은평구 응암로 215 (응암동, 명남더블레스아파트2차) 1층 102호",
      "region": "서울",
      "district": "은평구",
      "phone": "023738882",
      "lat": 37.591224,
      "lng": 126.917056,
      "status": "OPEN",
      "isDelivery": "Y",
      "isTakeout": "Y",
      "isDineIn": "Y"
    },
    {
      "id": 229,
      "storeCd": "7443801",
      "name": "은평증산점",
      "address": "서울 은평구  증산로17길 8-1 (신사동)",
      "region": "서울",
      "district": "은평구 ",
      "phone": "023034832",
      "lat": 37.590436,
      "lng": 126.912358,
      "status": "OPEN",
      "isDelivery": "Y",
      "isTakeout": "Y",
      "isDineIn": "Y"
    },
    {
      "id": 230,
      "storeCd": "7415401",
      "name": "응암행복점",
      "address": "서울 은평구 응암동 752-22",
      "region": "서울",
      "district": "은평구",
      "phone": "023099292",
      "lat": 37.586519,
      "lng": 126.919698,
      "status": "OPEN",
      "isDelivery": "Y",
      "isTakeout": "Y",
      "isDineIn": "N"
    },
    {
      "id": 231,
      "storeCd": "7982301",
      "name": "구산예일점",
      "address": "서울 은평구 갈현로 141 (구산동)  1층 102호 서울 은평구 갈현로 141 (구산동)  1층 102호",
      "region": "서울",
      "district": "은평구",
      "phone": "023573517",
      "lat": 37.610031,
      "lng": 126.910944,
      "status": "OPEN",
      "isDelivery": "Y",
      "isTakeout": "Y",
      "isDineIn": "Y"
    },
    {
      "id": 232,
      "storeCd": "7857901",
      "name": "종로점",
      "address": "서울 종로구 종로14길 7 (관철동) 지상 1,2,3층 (관철동)",
      "region": "서울",
      "district": "종로구",
      "phone": "027348528",
      "lat": 37.569816,
      "lng": 126.985345,
      "status": "OPEN",
      "isDelivery": "Y",
      "isTakeout": "Y",
      "isDineIn": "Y"
    },
    {
      "id": 233,
      "storeCd": "7913801",
      "name": "독립문역점",
      "address": "서울 종로구 통일로12길 10-16 (행촌동, 대신빌딩)",
      "region": "서울",
      "district": "종로구",
      "phone": "027228285",
      "lat": 37.572775,
      "lng": 126.960541,
      "status": "OPEN",
      "isDelivery": "Y",
      "isTakeout": "Y",
      "isDineIn": "Y"
    },
    {
      "id": 234,
      "storeCd": "7246101",
      "name": "종로성대점",
      "address": "서울 종로구 명륜1가 83-5 1층",
      "region": "서울",
      "district": "종로구",
      "phone": "027420100",
      "lat": 37.586351,
      "lng": 126.996922,
      "status": "OPEN",
      "isDelivery": "Y",
      "isTakeout": "Y",
      "isDineIn": "N"
    },
    {
      "id": 235,
      "storeCd": "7383801",
      "name": "종로5가광장점",
      "address": "서울 종로구 종로 31길 7 (종로구 인의동 46-1)",
      "region": "서울",
      "district": "종로구",
      "phone": "027439969",
      "lat": 37.571333,
      "lng": 126.999992,
      "status": "OPEN",
      "isDelivery": "Y",
      "isTakeout": "Y",
      "isDineIn": "Y"
    },
    {
      "id": 236,
      "storeCd": "7217101",
      "name": "대학로본점",
      "address": "서울특별시 종로구 대학로12길 13 (동숭동,2층) 2층",
      "region": "서울",
      "district": "종로구",
      "phone": "027459464",
      "lat": 37.582739,
      "lng": 127.00253,
      "status": "OPEN",
      "isDelivery": "Y",
      "isTakeout": "Y",
      "isDineIn": "Y"
    },
    {
      "id": 237,
      "storeCd": "7963101",
      "name": "서울시청점",
      "address": "서울 중구 남대문로1길 14-1  2층 201호",
      "region": "서울",
      "district": "중구",
      "phone": "0237894574",
      "lat": 37.561765,
      "lng": 126.977581,
      "status": "OPEN",
      "isDelivery": "Y",
      "isTakeout": "Y",
      "isDineIn": "Y"
    },
    {
      "id": 238,
      "storeCd": "7950101",
      "name": "충무로역점",
      "address": "서울 중구 퇴계로 210 (필동2가) 지하1층",
      "region": "서울",
      "district": "중구",
      "phone": "0222733888",
      "lat": 37.561233,
      "lng": 126.995051,
      "status": "OPEN",
      "isDelivery": "Y",
      "isTakeout": "Y",
      "isDineIn": "Y"
    },
    {
      "id": 239,
      "storeCd": "7425501",
      "name": "명동본점",
      "address": "서울 중구 명동 명동7길 21",
      "region": "서울",
      "district": "중구",
      "phone": "01020769496",
      "lat": 37.564731,
      "lng": 126.983859,
      "status": "OPEN",
      "isDelivery": "Y",
      "isTakeout": "Y",
      "isDineIn": "Y"
    },
    {
      "id": 240,
      "storeCd": "7200902",
      "name": "동대문점",
      "address": "서울 중구 을지로44길 10 (광희동1가) 2층",
      "region": "서울",
      "district": "중구",
      "phone": "0222780053",
      "lat": 37.565738,
      "lng": 127.006428,
      "status": "OPEN",
      "isDelivery": "Y",
      "isTakeout": "Y",
      "isDineIn": "Y"
    },
    {
      "id": 241,
      "storeCd": "7217402",
      "name": "왕십리점",
      "address": "서울특별시 중구 왕십리로 413 (신당동)  1층",
      "region": "서울",
      "district": "중구",
      "phone": "0222531092",
      "lat": 37.564919,
      "lng": 127.024212,
      "status": "OPEN",
      "isDelivery": "Y",
      "isTakeout": "Y",
      "isDineIn": "Y"
    },
    {
      "id": 242,
      "storeCd": "7965201",
      "name": "중화점",
      "address": "서울 중랑구 봉화산로 94 1층",
      "region": "서울",
      "district": "중랑구",
      "phone": "024399599",
      "lat": 37.602096,
      "lng": 127.084956,
      "status": "OPEN",
      "isDelivery": "Y",
      "isTakeout": "Y",
      "isDineIn": "N"
    },
    {
      "id": 243,
      "storeCd": "7935001",
      "name": "용마1호점",
      "address": "서울 중랑구 면목로29길 5 (면목동)",
      "region": "서울",
      "district": "중랑구",
      "phone": "024336894",
      "lat": 37.575784,
      "lng": 127.085462,
      "status": "OPEN",
      "isDelivery": "Y",
      "isTakeout": "Y",
      "isDineIn": "N"
    },
    {
      "id": 244,
      "storeCd": "7946801",
      "name": "중랑사랑점",
      "address": "서울 중랑구 양원역로 7 (망우동, 흥성빌딩) 1층",
      "region": "서울",
      "district": "중랑구",
      "phone": "024321212",
      "lat": 37.601356,
      "lng": 127.108087,
      "status": "OPEN",
      "isDelivery": "Y",
      "isTakeout": "Y",
      "isDineIn": "N"
    },
    {
      "id": 245,
      "storeCd": "7857801",
      "name": "사가정점",
      "address": "서울 중랑구 상봉로 7 (면목동, 서일타운), 1층 106호",
      "region": "서울",
      "district": "중랑구",
      "phone": "024331810",
      "lat": 37.586436,
      "lng": 127.094379,
      "status": "OPEN",
      "isDelivery": "Y",
      "isTakeout": "Y",
      "isDineIn": "N"
    },
    {
      "id": 246,
      "storeCd": "7865501",
      "name": "중랑역점",
      "address": "서울 중랑구 동일로109길 68 (면목동, 성은빌딩)",
      "region": "서울",
      "district": "중랑구",
      "phone": "024353338",
      "lat": 37.591279,
      "lng": 127.076336,
      "status": "OPEN",
      "isDelivery": "Y",
      "isTakeout": "Y",
      "isDineIn": "Y"
    },
    {
      "id": 247,
      "storeCd": "7912201",
      "name": "묵동먹골점",
      "address": "서울 중랑구 동일로169길 17 (묵동)",
      "region": "서울",
      "district": "중랑구",
      "phone": "029718292",
      "lat": 37.6137,
      "lng": 127.075753,
      "status": "OPEN",
      "isDelivery": "Y",
      "isTakeout": "Y",
      "isDineIn": "N"
    },
    {
      "id": 248,
      "storeCd": "7764801",
      "name": "신내점",
      "address": "서울 중랑구 용마산로 669 (신내동, 신내데시앙아파트) 상가동106호",
      "region": "서울",
      "district": "중랑구",
      "phone": "0234223800",
      "lat": 37.610923,
      "lng": 127.099458,
      "status": "OPEN",
      "isDelivery": "Y",
      "isTakeout": "Y",
      "isDineIn": "Y"
    },
    {
      "id": 249,
      "storeCd": "7657601",
      "name": "상봉점",
      "address": "서울 중랑구 용마산로115길 127 (망우동, 한일써너스빌리젠시1단지) 1층 1007호",
      "region": "서울",
      "district": "중랑구",
      "phone": "024919292",
      "lat": 37.597523,
      "lng": 127.093669,
      "status": "OPEN",
      "isDelivery": "Y",
      "isTakeout": "Y",
      "isDineIn": "Y"
    },
    {
      "id": 250,
      "storeCd": "7671801",
      "name": "망우점",
      "address": "서울 중랑구 용마산로 454 (망우동) 1층",
      "region": "서울",
      "district": "중랑구",
      "phone": "024949282",
      "lat": 37.591527,
      "lng": 127.098203,
      "status": "OPEN",
      "isDelivery": "Y",
      "isTakeout": "Y",
      "isDineIn": "Y"
    },
    {
      "id": 251,
      "storeCd": "7511901",
      "name": "면목역점",
      "address": "서울 중랑구 면목동 504-18",
      "region": "서울",
      "district": "중랑구",
      "phone": "0222079252",
      "lat": 37.585768,
      "lng": 127.087925,
      "status": "OPEN",
      "isDelivery": "Y",
      "isTakeout": "Y",
      "isDineIn": "N"
    },
    {
      "id": 252,
      "storeCd": "8405401",
      "name": "부산에코델타시티점",
      "address": "부산 강서구 에코델타스마트로2길 7 1층 BHC",
      "region": "부산",
      "district": "강서구",
      "phone": "0512011577",
      "lat": 35.131234,
      "lng": 128.912496,
      "status": "OPEN",
      "isDelivery": "Y",
      "isTakeout": "Y",
      "isDineIn": "Y"
    },
    {
      "id": 253,
      "storeCd": "7953001",
      "name": "부산범방점",
      "address": "부산 강서구 범방3로 84 (범방동)",
      "region": "부산",
      "district": "강서구",
      "phone": "0519711818",
      "lat": 35.150365,
      "lng": 128.882181,
      "status": "OPEN",
      "isDelivery": "Y",
      "isTakeout": "Y",
      "isDineIn": "Y"
    },
    {
      "id": 254,
      "storeCd": "7887401",
      "name": "부산화전점",
      "address": "부산 강서구 낙동남로 614",
      "region": "부산",
      "district": "강서구",
      "phone": "0519729288",
      "lat": 35.11413,
      "lng": 128.886455,
      "status": "OPEN",
      "isDelivery": "N",
      "isTakeout": "Y",
      "isDineIn": "N"
    },
    {
      "id": 255,
      "storeCd": "7910001",
      "name": "부산신호점",
      "address": "부산 강서구 신호산단2로 67 (신호동)",
      "region": "부산",
      "district": "강서구",
      "phone": "0519039292",
      "lat": 35.082976,
      "lng": 128.877691,
      "status": "OPEN",
      "isDelivery": "Y",
      "isTakeout": "Y",
      "isDineIn": "N"
    },
    {
      "id": 256,
      "storeCd": "7718101",
      "name": "명지오션시티점",
      "address": "부산 강서구 명지오션시티11로 51 (명지동, 영어도시 퀸덤1차) 322동 지하1층 304호",
      "region": "부산",
      "district": "강서구",
      "phone": "0512712588",
      "lat": 35.085718,
      "lng": 128.901211,
      "status": "OPEN",
      "isDelivery": "Y",
      "isTakeout": "Y",
      "isDineIn": "Y"
    },
    {
      "id": 257,
      "storeCd": "7799201",
      "name": "국제신도시점",
      "address": "부산 강서구 명지국제8로 284 (명지동) 1층 bhc",
      "region": "부산",
      "district": "강서구",
      "phone": "0512075553",
      "lat": 35.097189,
      "lng": 128.923708,
      "status": "OPEN",
      "isDelivery": "Y",
      "isTakeout": "Y",
      "isDineIn": "Y"
    },
    {
      "id": 258,
      "storeCd": "7806301",
      "name": "강서대저점",
      "address": "부산 강서구 공항로811번길 27 (대저2동) 2층",
      "region": "부산",
      "district": "강서구",
      "phone": "0519729294",
      "lat": 35.179864,
      "lng": 128.956272,
      "status": "OPEN",
      "isDelivery": "N",
      "isTakeout": "Y",
      "isDineIn": "Y"
    },
    {
      "id": 259,
      "storeCd": "7586901",
      "name": "명지국제점",
      "address": "부산 강서구 명지동 3328",
      "region": "부산",
      "district": "강서구",
      "phone": "0512023392",
      "lat": 35.106964,
      "lng": 128.921216,
      "status": "OPEN",
      "isDelivery": "Y",
      "isTakeout": "Y",
      "isDineIn": "N"
    },
    {
      "id": 260,
      "storeCd": "7228501",
      "name": "지사점",
      "address": "부산광역시 강서구 과학산단2로20번길 69 ,상가 B동 11호 (지사동) 1층",
      "region": "부산",
      "district": "강서구",
      "phone": "0513223225",
      "lat": 35.150833,
      "lng": 128.839149,
      "status": "OPEN",
      "isDelivery": "Y",
      "isTakeout": "Y",
      "isDineIn": "Y"
    },
    {
      "id": 261,
      "storeCd": "7998501",
      "name": "부산두실점",
      "address": "부산 금정구 두실로7번길 49 2층",
      "region": "부산",
      "district": "금정구",
      "phone": "0515135554",
      "lat": 35.258102,
      "lng": 129.090476,
      "status": "OPEN",
      "isDelivery": "Y",
      "isTakeout": "Y",
      "isDineIn": "Y"
    },
    {
      "id": 262,
      "storeCd": "7823501",
      "name": "금정부곡점",
      "address": "부산 금정구 중앙대로1685번길 26 (부곡동) 1층 bhc",
      "region": "부산",
      "district": "금정구",
      "phone": "0515189292",
      "lat": 35.235111,
      "lng": 129.090253,
      "status": "OPEN",
      "isDelivery": "Y",
      "isTakeout": "Y",
      "isDineIn": "Y"
    },
    {
      "id": 263,
      "storeCd": "7860101",
      "name": "부산구서점",
      "address": "부산 금정구 금정로219번길 8 (구서동)",
      "region": "부산",
      "district": "금정구",
      "phone": "0515189282",
      "lat": 35.243911,
      "lng": 129.089723,
      "status": "OPEN",
      "isDelivery": "Y",
      "isTakeout": "Y",
      "isDineIn": "Y"
    },
    {
      "id": 264,
      "storeCd": "7780901",
      "name": "청룡남산점",
      "address": "부산 금정구 금강로 699 (남산동)",
      "region": "부산",
      "district": "금정구",
      "phone": "0515168892",
      "lat": 35.269792,
      "lng": 129.08891,
      "status": "OPEN",
      "isDelivery": "Y",
      "isTakeout": "Y",
      "isDineIn": "Y"
    },
    {
      "id": 265,
      "storeCd": "7469101",
      "name": "명륜점",
      "address": "부산 금정구 부곡동 397-15, 1층",
      "region": "부산",
      "district": "금정구",
      "phone": "0515185003",
      "lat": 35.218706,
      "lng": 129.087335,
      "status": "OPEN",
      "isDelivery": "Y",
      "isTakeout": "Y",
      "isDineIn": "N"
    },
    {
      "id": 266,
      "storeCd": "7557201",
      "name": "부산대점",
      "address": "부산 금정구 장전동 334-45",
      "region": "부산",
      "district": "금정구",
      "phone": "0515159282",
      "lat": 35.228667,
      "lng": 129.084362,
      "status": "OPEN",
      "isDelivery": "Y",
      "isTakeout": "Y",
      "isDineIn": "Y"
    },
    {
      "id": 267,
      "storeCd": "7907801",
      "name": "문현로타리점",
      "address": "부산 남구 수영로 12 (문현동, 세종그랑시아아파트) , 1층 104호,105호",
      "region": "부산",
      "district": "남구",
      "phone": "0516338279",
      "lat": 35.136196,
      "lng": 129.069128,
      "status": "OPEN",
      "isDelivery": "Y",
      "isTakeout": "Y",
      "isDineIn": "Y"
    },
    {
      "id": 268,
      "storeCd": "7909801",
      "name": "대연못골점",
      "address": "부산 남구 진남로 51 (대연동), 1층",
      "region": "부산",
      "district": "남구",
      "phone": "0516279279",
      "lat": 35.137963,
      "lng": 129.089505,
      "status": "OPEN",
      "isDelivery": "Y",
      "isTakeout": "Y",
      "isDineIn": "Y"
    },
    {
      "id": 269,
      "storeCd": "7919401",
      "name": "대연경성대점",
      "address": "부산 남구 수영로322번길 46 (대연동), 1층",
      "region": "부산",
      "district": "남구",
      "phone": "0516119281",
      "lat": 35.135937,
      "lng": 129.102217,
      "status": "OPEN",
      "isDelivery": "Y",
      "isTakeout": "Y",
      "isDineIn": "Y"
    },
    {
      "id": 270,
      "storeCd": "7651301",
      "name": "부산문현점",
      "address": "부산 남구 고동골로 19 (문현동, 문현 베스티움 더 스퀘어) 상가 1층",
      "region": "부산",
      "district": "남구",
      "phone": "0516369288",
      "lat": 35.138794,
      "lng": 129.070848,
      "status": "OPEN",
      "isDelivery": "Y",
      "isTakeout": "Y",
      "isDineIn": "Y"
    },
    {
      "id": 271,
      "storeCd": "7652301",
      "name": "부산대연점",
      "address": "부산 남구 석포로 76 (대연동) 102호",
      "region": "부산",
      "district": "남구",
      "phone": "0516259288",
      "lat": 35.124465,
      "lng": 129.088636,
      "status": "OPEN",
      "isDelivery": "Y",
      "isTakeout": "Y",
      "isDineIn": "Y"
    },
    {
      "id": 272,
      "storeCd": "7452201",
      "name": "부산용호점",
      "address": "부산 남구 용호동 978 상가 1층",
      "region": "부산",
      "district": "남구",
      "phone": "0516129281",
      "lat": 35.112944,
      "lng": 129.109713,
      "status": "OPEN",
      "isDelivery": "Y",
      "isTakeout": "Y",
      "isDineIn": "N"
    },
    {
      "id": 273,
      "storeCd": "7732001",
      "name": "수정점",
      "address": "부산 동구 중앙대로 393 (수정동) 1층",
      "region": "부산",
      "district": "동구",
      "phone": "0514662266",
      "lat": 35.13017,
      "lng": 129.049874,
      "status": "OPEN",
      "isDelivery": "Y",
      "isTakeout": "Y",
      "isDineIn": "N"
    },
    {
      "id": 274,
      "storeCd": "7624501",
      "name": "부산역점",
      "address": "부산 동구 초량중로 29-2 (초량동) 1층",
      "region": "부산",
      "district": "동구",
      "phone": "0514630999",
      "lat": 35.114776,
      "lng": 129.037029,
      "status": "OPEN",
      "isDelivery": "Y",
      "isTakeout": "Y",
      "isDineIn": "Y"
    },
    {
      "id": 275,
      "storeCd": "7990301",
      "name": "부산수안낙민점",
      "address": "부산 동래구 수안로8번길 35 (수안동) 1층",
      "region": "부산",
      "district": "동래구",
      "phone": "0515556092",
      "lat": 35.194931,
      "lng": 129.089986,
      "status": "OPEN",
      "isDelivery": "Y",
      "isTakeout": "Y",
      "isDineIn": "N"
    },
    {
      "id": 276,
      "storeCd": "7815201",
      "name": "사직미남점",
      "address": "부산 동래구 여고북로123번길 6 (온천동) 부산 동래구 여고북로123번길 6 (온천동), 1층",
      "region": "부산",
      "district": "동래구",
      "phone": "0515079277",
      "lat": 35.201474,
      "lng": 129.071852,
      "status": "OPEN",
      "isDelivery": "Y",
      "isTakeout": "Y",
      "isDineIn": "N"
    },
    {
      "id": 277,
      "storeCd": "7827601",
      "name": "부산안락점",
      "address": "부산 동래구 안락로 27 (안락동) 부산 동래구 안락로 27, 2층",
      "region": "부산",
      "district": "동래구",
      "phone": "0515286969",
      "lat": 35.200635,
      "lng": 129.100016,
      "status": "OPEN",
      "isDelivery": "Y",
      "isTakeout": "Y",
      "isDineIn": "Y"
    },
    {
      "id": 278,
      "storeCd": "7851601",
      "name": "안락온천천점",
      "address": "부산 동래구 충렬대로410번길 69 (안락동) , 1층",
      "region": "부산",
      "district": "동래구",
      "phone": "0515239233",
      "lat": 35.193737,
      "lng": 129.101909,
      "status": "OPEN",
      "isDelivery": "Y",
      "isTakeout": "Y",
      "isDineIn": "Y"
    },
    {
      "id": 279,
      "storeCd": "7744801",
      "name": "온천장점",
      "address": "부산 동래구 금강공원로 34-9 (온천동) 부산 동래구 금강공원로 34-9 (온천동), 1층",
      "region": "부산",
      "district": "동래구",
      "phone": "0515579288",
      "lat": 35.219442,
      "lng": 129.080723,
      "status": "OPEN",
      "isDelivery": "Y",
      "isTakeout": "Y",
      "isDineIn": "Y"
    },
    {
      "id": 280,
      "storeCd": "7779301",
      "name": "부산미남점",
      "address": "부산 동래구 석사북로 51 (온천동) 부산 동래구 석사북로 51 (온천동), 1층",
      "region": "부산",
      "district": "동래구",
      "phone": "0515078292",
      "lat": 35.202716,
      "lng": 129.063545,
      "status": "OPEN",
      "isDelivery": "Y",
      "isTakeout": "Y",
      "isDineIn": "Y"
    },
    {
      "id": 281,
      "storeCd": "7220401",
      "name": "부산온천점",
      "address": "부산 동래구 중앙대로1367번길 70-10 (온천동) 부산 동래구 중앙대로1367번길 70-10 (온천동), 1층",
      "region": "부산",
      "district": "동래구",
      "phone": "0515526767",
      "lat": 35.210705,
      "lng": 129.07459,
      "status": "OPEN",
      "isDelivery": "Y",
      "isTakeout": "Y",
      "isDineIn": "Y"
    },
    {
      "id": 282,
      "storeCd": "7225501",
      "name": "사직점",
      "address": "부산광역시 동래구 사직북로34번길 6 (사직동) 1층",
      "region": "부산",
      "district": "동래구",
      "phone": "0515049982",
      "lat": 35.198867,
      "lng": 129.060297,
      "status": "OPEN",
      "isDelivery": "Y",
      "isTakeout": "Y",
      "isDineIn": "N"
    },
    {
      "id": 283,
      "storeCd": "8416101",
      "name": "부산범내골점",
      "address": "부산 부산진구 범일로 161-1 1층",
      "region": "부산",
      "district": "부산진구",
      "phone": "0516336624",
      "lat": 35.144555,
      "lng": 129.058891,
      "status": "OPEN",
      "isDelivery": "Y",
      "isTakeout": "Y",
      "isDineIn": "Y"
    },
    {
      "id": 284,
      "storeCd": "7991801",
      "name": "초읍연지점",
      "address": "부산 부산진구 성지로 94 (초읍동, 기업은행초읍동지점)  1층",
      "region": "부산",
      "district": "부산진구",
      "phone": "0518079202",
      "lat": 35.178963,
      "lng": 129.053385,
      "status": "OPEN",
      "isDelivery": "Y",
      "isTakeout": "Y",
      "isDineIn": "N"
    },
    {
      "id": 285,
      "storeCd": "7945701",
      "name": "당감부암점",
      "address": "부산 부산진구 당감로 108 (부암동, 협성피닉스타운) 112동 116호",
      "region": "부산",
      "district": "부산진구",
      "phone": "0519955914",
      "lat": 35.171058,
      "lng": 129.038265,
      "status": "OPEN",
      "isDelivery": "Y",
      "isTakeout": "Y",
      "isDineIn": "N"
    },
    {
      "id": 286,
      "storeCd": "7910801",
      "name": "부산양정역점",
      "address": "부산 부산진구 양지로5번길 39 (양정동) , 1층",
      "region": "부산",
      "district": "부산진구",
      "phone": "0518647771",
      "lat": 35.171294,
      "lng": 129.070694,
      "status": "OPEN",
      "isDelivery": "Y",
      "isTakeout": "Y",
      "isDineIn": "Y"
    },