{
  "meta": {
    "brand": "교촌치킨 매장",
    "totalCount": 1323,
    "extractedAt": "2026-03-17T02:30:39.538Z"
  },
  "stores": [
    {
      "id": 1,
      "shopId": "1531",
      "name": "강남역",
      "address": "서울 강남구 역삼동 619-28",
      "roadAddress": "서울 강남구 강남대로 98길 11",
      "region": "서울",
      "district": "강남구",
      "phone": "02-596-1991",
      "lat": 37.5008834513131,
      "lng": 127.027484833498
    },
    {
      "id": 2,
      "shopId": "161",
      "name": "개포1호",
      "address": "서울 강남구 개포동 1229-18",
      "roadAddress": "서울 강남구 논현로16길 5",
      "region": "서울",
      "district": "강남구",
      "phone": "02-573-5699,5499",
      "lat": 37.4762606293364,
      "lng": 127.04691282012
    },
    {
      "id": 3,
      "shopId": "1783",
      "name": "개포2호",
      "address": "서울 강남구 개포동 158-4",
      "roadAddress": "서울 강남구 선릉로6길 12(개포동)",
      "region": "서울",
      "district": "강남구",
      "phone": "02-5779667",
      "lat": 37.4827693400687,
      "lng": 127.061968372304
    },
    {
      "id": 4,
      "shopId": "605",
      "name": "논현1호(서울)",
      "address": "서울 강남구 논현동 163-13",
      "roadAddress": "서울 강남구 학동로2길 55",
      "region": "서울",
      "district": "강남구",
      "phone": "02-540-2182",
      "lat": 37.5081173128482,
      "lng": 127.02394649238
    },
    {
      "id": 5,
      "shopId": "623",
      "name": "대치2호",
      "address": "서울 강남구 대치동 989-4",
      "roadAddress": "서울 강남구 삼성로58길 7(대치동)",
      "region": "서울",
      "district": "강남구",
      "phone": "02-556-9963",
      "lat": 37.4986638278661,
      "lng": 127.06180339151
    },
    {
      "id": 6,
      "shopId": "1559",
      "name": "도곡",
      "address": "서울 강남구 도곡동 416-4",
      "roadAddress": "서울 강남구 논현로38길 30  1층",
      "region": "서울",
      "district": "강남구",
      "phone": "02-6494-0103",
      "lat": 37.4853366698159,
      "lng": 127.04411442053
    },
    {
      "id": 7,
      "shopId": "1096",
      "name": "삼성1호",
      "address": "서울 강남구 삼성동 44-18",
      "roadAddress": "서울 강남구 봉은사로 451",
      "region": "서울",
      "district": "강남구",
      "phone": "02-515-2399",
      "lat": 37.5120441649265,
      "lng": 127.049020915116
    },
    {
      "id": 8,
      "shopId": "137",
      "name": "선릉",
      "address": "서울 강남구 대치동 901-40",
      "roadAddress": "서울 강남구 삼성로81길 35",
      "region": "서울",
      "district": "강남구",
      "phone": "02-556-3599",
      "lat": 37.5037500143161,
      "lng": 127.054851659767
    },
    {
      "id": 9,
      "shopId": "1249",
      "name": "세곡",
      "address": "서울 강남구 자곡동 611",
      "roadAddress": "서울 강남구 자곡로 101 강남레미안힐즈상가 103호",
      "region": "서울",
      "district": "강남구",
      "phone": "02-2226-1991",
      "lat": 37.4741313296609,
      "lng": 127.094085247529
    },
    {
      "id": 10,
      "shopId": "365",
      "name": "압구정신사",
      "address": "서울 강남구 신사동 640-5 대성빌딩 1층 1호",
      "roadAddress": "서울 강남구 언주로172길 29, 대성빌딩 1층 1호",
      "region": "서울",
      "district": "강남구",
      "phone": "02-547-9945",
      "lat": 37.5275496166582,
      "lng": 127.036297013102
    },
    {
      "id": 11,
      "shopId": "119",
      "name": "역삼1호",
      "address": "서울 강남구 역삼동 837-15",
      "roadAddress": "서울 강남구 강남대로 66길 16 1층",
      "region": "서울",
      "district": "강남구",
      "phone": "02-566-9942",
      "lat": 37.4918998657854,
      "lng": 127.032159214307
    },
    {
      "id": 12,
      "shopId": "1579",
      "name": "일원1동",
      "address": "서울 강남구 일원동 645",
      "roadAddress": "서울 강남구 일원로9길 48(일원동)",
      "region": "서울",
      "district": "강남구",
      "phone": "02-459-1006",
      "lat": 37.4903698111867,
      "lng": 127.0854756091
    },
    {
      "id": 13,
      "shopId": "559",
      "name": "일원본동",
      "address": "서울 강남구 수서동 747 삼성아파트 상가 104호",
      "roadAddress": "서울 강남구 광평로31길 27, 삼성아파트 상가 104호",
      "region": "서울",
      "district": "강남구",
      "phone": "02-2226-4080",
      "lat": 37.4848956433554,
      "lng": 127.09067960411
    },
    {
      "id": 14,
      "shopId": "873",
      "name": "청담역",
      "address": "서울 강남구 청담동 65 진흥아파트상가",
      "roadAddress": "서울 강남구 학동로 87길 9 진흥아파트상가",
      "region": "서울",
      "district": "강남구",
      "phone": "02-515-9995,515-9975",
      "lat": 37.5201269549469,
      "lng": 127.051406246846
    },
    {
      "id": 15,
      "shopId": "1846",
      "name": "강일역",
      "address": "서울시 강동구 강일동 679-3",
      "roadAddress": "서울 강동구 아리수로 419 강일리슈빌에스 1층 101,102호",
      "region": "서울시",
      "district": "강동구",
      "phone": "02-442-1994",
      "lat": 37.5643846470445,
      "lng": 127.173726847681
    },
    {
      "id": 16,
      "shopId": "541",
      "name": "고덕1호(서울)",
      "address": "서울 강동구 고덕동 650-1",
      "roadAddress": "서울 강동구 고덕로61길 116",
      "region": "서울",
      "district": "강동구",
      "phone": "02-481-9503~4",
      "lat": 37.5598072775326,
      "lng": 127.151656564082
    },
    {
      "id": 17,
      "shopId": "783",
      "name": "고덕비즈밸리",
      "address": "서울 강동구 고덕동 343-2 A동 113,114호",
      "roadAddress": "서울특별시 고덕비즈밸리로26 A동 113,114호",
      "region": "서울",
      "district": "강동구",
      "phone": "02-426-6692,6696",
      "lat": 37.5655485350633,
      "lng": 127.160101200692
    },
    {
      "id": 18,
      "shopId": "889",
      "name": "길1호",
      "address": "서울 강동구 길동 347-31",
      "roadAddress": "서울 강동구 천중로 201",
      "region": "서울",
      "district": "강동구",
      "phone": "02-473-0092",
      "lat": 37.5411138917307,
      "lng": 127.142566565367
    },
    {
      "id": 19,
      "shopId": "1675",
      "name": "길동역",
      "address": "서울 강동구 길동 388-3",
      "roadAddress": "서울 강동구 양재대로 111길 18",
      "region": "서울",
      "district": "강동구",
      "phone": "02-478-6780",
      "lat": 37.5373854181526,
      "lng": 127.138518684767
    },
    {
      "id": 20,
      "shopId": "1457",
      "name": "둔촌1호",
      "address": "서울 강동구 둔촌동 454-5",
      "roadAddress": "서울 강동구 진황도로 168(둔촌동,예창빌딩)",
      "region": "서울",
      "district": "강동구",
      "phone": "02-475-9295",
      "lat": 37.5312071687173,
      "lng": 127.142009176436
    },
    {
      "id": 21,
      "shopId": "163",
      "name": "명일1호",
      "address": "서울 강동구 명일동 328-2",
      "roadAddress": "서울 강동구 구천면로 438",
      "region": "서울",
      "district": "강동구",
      "phone": "02-3426-9199",
      "lat": 37.5496716341099,
      "lng": 127.146928381473
    },
    {
      "id": 22,
      "shopId": "1632",
      "name": "상일",
      "address": "서울 강동구 고덕동 200-3",
      "roadAddress": "서울 강동구 상일로15길 6(고덕동,재도빌딩)",
      "region": "서울",
      "district": "강동구",
      "phone": "02-441-1991",
      "lat": 37.5584082222207,
      "lng": 127.170721118622
    },
    {
      "id": 23,
      "shopId": "1807",
      "name": "상일2호",
      "address": "서울 강동구 구천면로 640",
      "roadAddress": "서울 강동구 구천면로 640, 고덕 롯데캐슬 베네루체 상가A동 114호",
      "region": "서울",
      "district": "강동구",
      "phone": "02-428-9266",
      "lat": 37.5502858368826,
      "lng": 127.169085796412
    },
    {
      "id": 24,
      "shopId": "674",
      "name": "성내",
      "address": "서울 강동구 강동구 성내동 609",
      "roadAddress": "서울 강동구 올림픽로 610",
      "region": "서울",
      "district": "강동구",
      "phone": "02-485-9293",
      "lat": 37.5359614393341,
      "lng": 127.123185062155
    },
    {
      "id": 25,
      "shopId": "1135",
      "name": "암사1호",
      "address": "서울 강동구 암사동 504-37",
      "roadAddress": "서울 강동구 올림픽로 807",
      "region": "서울",
      "district": "강동구",
      "phone": "02-426-8533",
      "lat": 37.553127929723,
      "lng": 127.128316476572
    },
    {
      "id": 26,
      "shopId": "945",
      "name": "암사2호",
      "address": "서울 강동구 암사동 451-18",
      "roadAddress": "서울 강동구 고덕로 109,",
      "region": "서울",
      "district": "강동구",
      "phone": "02-427-9982",
      "lat": 37.5550004893973,
      "lng": 127.137506020679
    },
    {
      "id": 27,
      "shopId": "921",
      "name": "천호1호",
      "address": "서울 강동구 천호동 571",
      "roadAddress": "서울 강동구 천호대로 1077",
      "region": "서울",
      "district": "강동구",
      "phone": "02-470-9908",
      "lat": 37.5372215425851,
      "lng": 127.131974711687
    },
    {
      "id": 28,
      "shopId": "832",
      "name": "덕성여대",
      "address": "서울 강북구 우이동 72-133",
      "roadAddress": "서울 강북구 삼양로 531",
      "region": "서울",
      "district": "강북구",
      "phone": "02-900-3123",
      "lat": 37.6501952241108,
      "lng": 127.01313060536
    },
    {
      "id": 29,
      "shopId": "658",
      "name": "미아1호",
      "address": "서울 강북구 미아동 561-2 현대성우아파트 상가 104호",
      "roadAddress": "서울 삼양로 24길 19. 현대성우아파트 상가 104호",
      "region": "서울",
      "district": "강북구",
      "phone": "02-987-9280",
      "lat": 37.6172043844266,
      "lng": 127.022104374602
    },
    {
      "id": 30,
      "shopId": "1638",
      "name": "미아사거리",
      "address": "서울 강북구 미아동 49-15",
      "roadAddress": "서울 강북구 월계로 41",
      "region": "서울",
      "district": "강북구",
      "phone": "02-984-3434",
      "lat": 37.6122493565854,
      "lng": 127.032093291151
    },
    {
      "id": 31,
      "shopId": "909",
      "name": "미아역",
      "address": "서울 강북구 미아동 131-8",
      "roadAddress": "서울 강북구 도봉로 142",
      "region": "서울",
      "district": "강북구",
      "phone": "02-989-6288",
      "lat": 37.6215399454564,
      "lng": 127.028386332394
    },
    {
      "id": 32,
      "shopId": "1652",
      "name": "번동",
      "address": "서울 강북구 번동 169-1",
      "roadAddress": "서울 강북구 한천로 109길 59 일신빌딩 1층",
      "region": "서울",
      "district": "강북구",
      "phone": "02-981-0991",
      "lat": 37.6272782129773,
      "lng": 127.041041227421
    },
    {
      "id": 33,
      "shopId": "644",
      "name": "수유1호",
      "address": "서울 강북구 수유동 385-2",
      "roadAddress": "서울 강북구 삼각산로 119",
      "region": "서울",
      "district": "강북구",
      "phone": "02-994-8911~2",
      "lat": 37.6409889615725,
      "lng": 127.017385211928
    },
    {
      "id": 34,
      "shopId": "1816",
      "name": "수유2호",
      "address": "서울 강북구 수유동 57-2",
      "roadAddress": "서울 강북구 수유로 12",
      "region": "서울",
      "district": "강북구",
      "phone": "02-985-1991",
      "lat": 37.6319338778856,
      "lng": 127.018579776587
    },
    {
      "id": 35,
      "shopId": "977",
      "name": "수유역점",
      "address": "서울특별시 강북구 수유동 190-32",
      "roadAddress": "서울 강북구 한천로 1051",
      "region": "서울특별시",
      "district": "강북구",
      "phone": "02-991-1991",
      "lat": 37.6406970960545,
      "lng": 127.025515508482
    },
    {
      "id": 36,
      "shopId": "642",
      "name": "가양",
      "address": "서울 강서구 등촌동 75-1",
      "roadAddress": "서울 강서구 양천로 482 삼부르네상스 109호",
      "region": "서울",
      "district": "강서구",
      "phone": "02-3665-3433",
      "lat": 37.5612523915367,
      "lng": 126.853995081496
    },
    {
      "id": 37,
      "shopId": "884",
      "name": "강서구청",
      "address": "서울 강서구 화곡동 986-16",
      "roadAddress": "서울 강서구 화곡로 277",
      "region": "서울",
      "district": "강서구",
      "phone": "02-2699-3999",
      "lat": 37.5495850122849,
      "lng": 126.847291351308
    },
    {
      "id": 38,
      "shopId": "1277",
      "name": "까치산역",
      "address": "서울 강서구 화곡동 343-62 라인씨티 1층",
      "roadAddress": "서울 강서구 곰달래로 125, 라인씨티 1층",
      "region": "서울",
      "district": "강서구",
      "phone": "02-2602-1991",
      "lat": 37.5307750886442,
      "lng": 126.846777605195
    },
    {
      "id": 39,
      "shopId": "971",
      "name": "등촌",
      "address": "서울 강서구 등촌동 649-14",
      "roadAddress": "서울 강서구 공항대로 509",
      "region": "서울",
      "district": "강서구",
      "phone": "02-2647-2328",
      "lat": 37.5522103230909,
      "lng": 126.863306109381
    },
    {
      "id": 40,
      "shopId": "1434",
      "name": "마곡1호",
      "address": "서울 강서구 강서로 마곡동 784-11 마곡오드카운티1차 111호",
      "roadAddress": "서울 강서구 강서로 429 마곡오드카운티1차 111호",
      "region": "서울",
      "district": "강서구",
      "phone": "02-3662-5556",
      "lat": 37.5640014500247,
      "lng": 126.839510938746
    },
    {
      "id": 41,
      "shopId": "1548",
      "name": "마곡역",
      "address": "서울 강서구 마곡동 774-1",
      "roadAddress": "서울 강서구 공항대로 209",
      "region": "서울",
      "district": "강서구",
      "phone": "02-3664-1991",
      "lat": 37.5597511346403,
      "lng": 126.830891231788
    },
    {
      "id": 42,
      "shopId": "1126",
      "name": "발산",
      "address": "서울 강서구 내발산동 648-15",
      "roadAddress": "서울 강서구 공항대로42길 12",
      "region": "서울",
      "district": "강서구",
      "phone": "02-2663-6077",
      "lat": 37.5574915054029,
      "lng": 126.843758715445
    },
    {
      "id": 43,
      "shopId": "1646",
      "name": "방화1호",
      "address": "서울 강서구 방화동 571-1",
      "roadAddress": "서울 강서구 양천로 87",
      "region": "서울",
      "district": "강서구",
      "phone": "02-2661-1990",
      "lat": 37.5736279995936,
      "lng": 126.813662630224
    },
    {
      "id": 44,
      "shopId": "581",
      "name": "방화2호",
      "address": "서울 강서구 방화동 249-20",
      "roadAddress": "서울 강서구 방화동로 90",
      "region": "서울",
      "district": "강서구",
      "phone": "02-2666-9559",
      "lat": 37.5683638844818,
      "lng": 126.813056353935
    },
    {
      "id": 45,
      "shopId": "604",
      "name": "염창",
      "address": "서울 강서구 염창동 249-5",
      "roadAddress": "서울 강서구 양천로 689",
      "region": "서울",
      "district": "강서구",
      "phone": "02-3662-9238",
      "lat": 37.5505236199905,
      "lng": 126.87295544566
    },
    {
      "id": 46,
      "shopId": "883",
      "name": "화곡2호",
      "address": "서울 강서구 화곡동 400-45",
      "roadAddress": "서울 강서구 가로공원로 227",
      "region": "서울",
      "district": "강서구",
      "phone": "02-2692-9279",
      "lat": 37.5382637172118,
      "lng": 126.840960091173
    },
    {
      "id": 47,
      "shopId": "387",
      "name": "화곡4동",
      "address": "서울 강서구 곰달래로 266",
      "roadAddress": "서울 강서구 화곡동 779-6",
      "region": "서울",
      "district": "강서구",
      "phone": "02-2648-1855",
      "lat": 37.5320688133544,
      "lng": 126.862497962937
    },
    {
      "id": 48,
      "shopId": "1691",
      "name": "봉천1호",
      "address": "서울 관악구 봉천동 861-7",
      "roadAddress": "서울 관악구 봉천로 472(봉천동)",
      "region": "서울",
      "district": "관악구",
      "phone": "02-882-2999",
      "lat": 37.4818887916789,
      "lng": 126.952208106801
    },
    {
      "id": 49,
      "shopId": "372",
      "name": "봉천2호",
      "address": "서울 관악구 봉천동 1674-20",
      "roadAddress": "서울 관악구 남부순환로 1881",
      "region": "서울",
      "district": "관악구",
      "phone": "02-882-1107",
      "lat": 37.4792829105053,
      "lng": 126.958706553432
    },
    {
      "id": 50,
      "shopId": "735",
      "name": "봉천3호",
      "address": "서울 관악구 봉천동 1632-9",
      "roadAddress": "서울 관악구 봉천로 604",
      "region": "서울",
      "district": "관악구",
      "phone": "02-888-2366,887-3998",
      "lat": 37.47595093268,
      "lng": 126.964085204891
    },
    {
      "id": 51,
      "shopId": "923",
      "name": "봉천4호",
      "address": "서울 관악구 봉천동 931-12",
      "roadAddress": "서울 관악구 봉천로 374",
      "region": "서울",
      "district": "관악구",
      "phone": "02-884-9991",
      "lat": 37.4832795886899,
      "lng": 126.941220074584
    },
    {
      "id": 52,
      "shopId": "1598",
      "name": "신림1호",
      "address": "서울 관악구 신림동 518-56",
      "roadAddress": "서울 관악구 난곡로 357(신림동)",
      "region": "서울",
      "district": "관악구",
      "phone": "02-867-1192",
      "lat": 37.4859262317109,
      "lng": 126.91342466271
    },
    {
      "id": 53,
      "shopId": "888",
      "name": "신림2호",
      "address": "서울 관악구 신림동 1680-15",
      "roadAddress": "서울 관악구 난곡로 262(신림동)",
      "region": "서울",
      "district": "관악구",
      "phone": "02-857-9992,857-9799",
      "lat": 37.4772691292269,
      "lng": 126.915750023639
    },
    {
      "id": 54,
      "shopId": "944",
      "name": "신림3호",
      "address": "서울 관악구 신림동 241-66",
      "roadAddress": "서울 관악구 신림로 11길 13",
      "region": "서울",
      "district": "관악구",
      "phone": "02-877-3688",
      "lat": 37.4698774759589,
      "lng": 126.938996703722
    },
    {
      "id": 55,
      "shopId": "1740",
      "name": "신림4호",
      "address": "서울 관악구 신림동 706-6",
      "roadAddress": "서울 관악구 난곡로 189(신림동,명성빌딩)",
      "region": "서울",
      "district": "관악구",
      "phone": "02-851-0708",
      "lat": 37.4718694738169,
      "lng": 126.9193747253
    },
    {
      "id": 56,
      "shopId": "1238",
      "name": "건대",
      "address": "서울 광진구 화양동 9-18",
      "roadAddress": "서울 광진구 아차산로 31길 13",
      "region": "서울",
      "district": "광진구",
      "phone": "02-462-1991",
      "lat": 37.5416985402032,
      "lng": 127.069389679935
    },
    {
      "id": 57,
      "shopId": "483",
      "name": "광장",
      "address": "서울 광진구 광장동 530-13",
      "roadAddress": "서울 광진구 광나루로 607(광장동)",
      "region": "서울",
      "district": "광진구",
      "phone": "02-453-9292",
      "lat": 37.5419612458348,
      "lng": 127.095718349482
    },
    {
      "id": 58,
      "shopId": "924",
      "name": "구의역",
      "address": "서울 광진구 구의동 257-70",
      "roadAddress": "서울 광진구 아차산로51길 44",
      "region": "서울",
      "district": "광진구",
      "phone": "02-453-9995",
      "lat": 37.5389680420214,
      "lng": 127.085118513944
    },
    {
      "id": 59,
      "shopId": "260",
      "name": "자양1호",
      "address": "서울 광진구 자양3동 584-28",
      "roadAddress": "서울 광진구 자양번영로 15",
      "region": "서울",
      "district": "광진구",
      "phone": "02-452-8593~4",
      "lat": 37.5310490159621,
      "lng": 127.074801312089
    },
    {
      "id": 60,
      "shopId": "1430",
      "name": "자양2호",
      "address": "서울 광진구 자양동 624-42",
      "roadAddress": "서울 광진구 자양로13길 40(자양동)",
      "region": "서울",
      "district": "광진구",
      "phone": "02-458-1991",
      "lat": 37.5346482148677,
      "lng": 127.082036936595
    },
    {
      "id": 61,
      "shopId": "988",
      "name": "중곡1호",
      "address": "서울 광진구 중곡동 243-1",
      "roadAddress": "서울 광진구 긴고랑로 40",
      "region": "서울",
      "district": "광진구",
      "phone": "02-446-9908",
      "lat": 37.5626703174233,
      "lng": 127.080510238136
    },
    {
      "id": 62,
      "shopId": "1121",
      "name": "중곡2호",
      "address": "서울 광진구 중곡동 24-2",
      "roadAddress": "서울시 광진구 용마산로 109",
      "region": "서울",
      "district": "광진구",
      "phone": "02-453-9288",
      "lat": 37.5633543053926,
      "lng": 127.086686363492
    },
    {
      "id": 63,
      "shopId": "376",
      "name": "개봉1호",
      "address": "서울 구로구 개봉동 403-159",
      "roadAddress": "서울 구로구 개봉로 30-1",
      "region": "서울",
      "district": "구로구",
      "phone": "02-2066-9244~5",
      "lat": 37.4884076519628,
      "lng": 126.856475306106
    },
    {
      "id": 64,
      "shopId": "806",
      "name": "고척",
      "address": "서울 구로구 고척동 256-14",
      "roadAddress": "서울 구로구 경인로33길 89",
      "region": "서울",
      "district": "구로구",
      "phone": "02-2060-4940",
      "lat": 37.5017983833808,
      "lng": 126.850429552247
    },
    {
      "id": 65,
      "shopId": "874",
      "name": "구로2호",
      "address": "서울 구로구 구로동 74-30",
      "roadAddress": "서울 구로구 구로중앙로 18길 68",
      "region": "서울",
      "district": "구로구",
      "phone": "02-854-1004",
      "lat": 37.4961085929484,
      "lng": 126.893058972549
    },
    {
      "id": 66,
      "shopId": "701",
      "name": "구로디지털",
      "address": "서울 구로구 구로동 826-1",
      "roadAddress": "서울 구로구 디지털로 26길 110",
      "region": "서울",
      "district": "구로구",
      "phone": "02-856-5542",
      "lat": 37.4825798382715,
      "lng": 126.898007817732
    },
    {
      "id": 67,
      "shopId": "1643",
      "name": "남구로",
      "address": "서울 구로구 구로동 704-38",
      "roadAddress": "서울 구로구 가마산로 180-2",
      "region": "서울",
      "district": "구로구",
      "phone": "02-837-1999",
      "lat": 37.4916817062163,
      "lng": 126.882286556478
    },
    {
      "id": 68,
      "shopId": "1226",
      "name": "동양미래대학",
      "address": "서울특별시 구로구 고척동 52-196",
      "roadAddress": "서울시 구로구 경인로 47길 30",
      "region": "서울특별시",
      "district": "구로구",
      "phone": "02-2060-1991",
      "lat": 37.5008023053032,
      "lng": 126.866429468473
    },
    {
      "id": 69,
      "shopId": "700",
      "name": "신도림1호",
      "address": "서울 구로구 신도림동 648 신도림6차대림아파트 상가 902동 111호",
      "roadAddress": "서울 구로구 경인로59길 7 신도림6차대림아파트 상가 902동 111호",
      "region": "서울",
      "district": "구로구",
      "phone": "02-2675-9288",
      "lat": 37.5056826985762,
      "lng": 126.8828227159
    },
    {
      "id": 70,
      "shopId": "822",
      "name": "오류1호",
      "address": "서울 구로구 오류1동 10-3",
      "roadAddress": "서울 구로구 경인로 189-1",
      "region": "서울",
      "district": "구로구",
      "phone": "02-2060-9277",
      "lat": 37.4954964472945,
      "lng": 126.84209571158
    },
    {
      "id": 71,
      "shopId": "1176",
      "name": "천왕역",
      "address": "서울 구로구 오류동 203-1 1층",
      "roadAddress": "서울 구로구 서해안로 2264",
      "region": "서울",
      "district": "구로구",
      "phone": "02-2616-1991",
      "lat": 37.4894896491752,
      "lng": 126.837598979161
    },
    {
      "id": 72,
      "shopId": "1826",
      "name": "항동",
      "address": "서울특별시 구로구 연동로 233 102호",
      "roadAddress": "서울 구로구 연동로 233 102호",
      "region": "서울특별시",
      "district": "구로구",
      "phone": "02-2615-1990",
      "lat": 37.4816933475509,
      "lng": 126.820550970604
    },
    {
      "id": 73,
      "shopId": "1002",
      "name": "가산디지털",
      "address": "서울 금천구 가산동 371-6 가산비지니스센터 2층",
      "roadAddress": "서울 금천구 가산디지털1로 165 가산비지니스센터 2층",
      "region": "서울",
      "district": "금천구",
      "phone": "02-865-0865",
      "lat": 37.4801745287284,
      "lng": 126.881070224411
    },
    {
      "id": 74,
      "shopId": "989",
      "name": "독산1호",
      "address": "서울 금천구 독산동 961-10",
      "roadAddress": "서울 금천구 독산로 344",
      "region": "서울",
      "district": "금천구",
      "phone": "02-868-8788",
      "lat": 37.4773866226526,
      "lng": 126.903943505919
    },
    {
      "id": 75,
      "shopId": "1582",
      "name": "독산2동",
      "address": "서울 금천구 독산동 1059-4",
      "roadAddress": "서울 금천구 시흥대로 310",
      "region": "서울",
      "district": "금천구",
      "phone": "02-805-1991",
      "lat": 37.4612582799071,
      "lng": 126.898465172887
    },
    {
      "id": 76,
      "shopId": "645",
      "name": "시흥1호",
      "address": "서울 금천구 시흥2동 264-17",
      "roadAddress": "서울 금천구 금하로 753-1",
      "region": "서울",
      "district": "금천구",
      "phone": "02-806-9990807-9990",
      "lat": 37.450202631868,
      "lng": 126.913471500716
    },
    {
      "id": 77,
      "shopId": "882",
      "name": "시흥2호",
      "address": "서울 금천구 시흥1동 905-5",
      "roadAddress": "서울 금천구 은행나무로 12",
      "region": "서울",
      "district": "금천구",
      "phone": "02-806-9911",
      "lat": 37.4500474277027,
      "lng": 126.903847378189
    },
    {
      "id": 78,
      "shopId": "350",
      "name": "공릉1호",
      "address": "서울 노원구 공릉동 338-6",
      "roadAddress": "서울 노원구 공릉로 35길 2",
      "region": "서울",
      "district": "노원구",
      "phone": "02-974-3999",
      "lat": 37.6229728021909,
      "lng": 127.079161547735
    },
    {
      "id": 79,
      "shopId": "1347",
      "name": "공릉2호",
      "address": "서울 노원구 공릉동 461-1",
      "roadAddress": "서울 노원구 공릉로 235",
      "region": "서울",
      "district": "노원구",
      "phone": "02-975-9991",
      "lat": 37.6302369828184,
      "lng": 127.075766121192
    },
    {
      "id": 80,
      "shopId": "1781",
      "name": "공릉3호",
      "address": "서울 노원구 공릉동 568-27",
      "roadAddress": "서울 노원구 동일로 1041",
      "region": "서울",
      "district": "노원구",
      "phone": "02-973-3330",
      "lat": 37.6230902829774,
      "lng": 127.073461747285
    },
    {
      "id": 81,
      "shopId": "709",
      "name": "상계4단지",
      "address": "서울 노원구 상계동 749-5",
      "roadAddress": "서울 노원구 동일로 1362",
      "region": "서울",
      "district": "노원구",
      "phone": "02-937-4785",
      "lat": 37.6500654838418,
      "lng": 127.062217257976
    },
    {
      "id": 82,
      "shopId": "567",
      "name": "상계보람",
      "address": "서울 노원구 상계동 456-70",
      "roadAddress": "서울 노원구 노원로34길 96",
      "region": "서울",
      "district": "노원구",
      "phone": "02-952-7123",
      "lat": 37.6631612640087,
      "lng": 127.066178536257
    },
    {
      "id": 83,
      "shopId": "418",
      "name": "상계역",
      "address": "서울 노원구 중계동 137-39",
      "roadAddress": "서울 노원구 덕릉로 721",
      "region": "서울",
      "district": "노원구",
      "phone": "02-933-9829",
      "lat": 37.662034668768,
      "lng": 127.075494689438
    },
    {
      "id": 84,
      "shopId": "665",
      "name": "석계역",
      "address": "서울 노원구 월계1동 73-13",
      "roadAddress": "서울 노원구 석계로 31",
      "region": "서울",
      "district": "노원구",
      "phone": "02-909-9229,5297",
      "lat": 37.6175365013678,
      "lng": 127.063869218539
    },
    {
      "id": 85,
      "shopId": "1219",
      "name": "수락산역",
      "address": "서울 노원구 상계동 1025-20",
      "roadAddress": "서울 노원구 동일로 1640(",
      "region": "서울",
      "district": "노원구",
      "phone": "02-936-1212",
      "lat": 37.6746528926682,
      "lng": 127.055552607872
    },
    {
      "id": 86,
      "shopId": "1759",
      "name": "인덕대",
      "address": "서울 노원구 월계동 951 월계센트럴아이파크 상가동 101호",
      "roadAddress": "서울 노원구 초안산로 2라길 26. 월계센트럴아이파크 상가동 101호",
      "region": "서울",
      "district": "노원구",
      "phone": "02-908-1991",
      "lat": 37.6302464149326,
      "lng": 127.057463536772
    },
    {
      "id": 87,
      "shopId": "395",
      "name": "중계1호",
      "address": "서울 노원구 중계1동 360-9",
      "roadAddress": "서울 노원구 한글비석로 245",
      "region": "서울",
      "district": "노원구",
      "phone": "02-933-9992",
      "lat": 37.6495969425124,
      "lng": 127.076379560612
    },
    {
      "id": 88,
      "shopId": "970",
      "name": "중계역",
      "address": "서울 노원구 중계동 503",
      "roadAddress": "서울 노원구 동일로 1279, 비상가동 1층 113호",
      "region": "서울",
      "district": "노원구",
      "phone": "02-978-9255",
      "lat": 37.6420263458055,
      "lng": 127.064108404044
    },
    {
      "id": 89,
      "shopId": "624",
      "name": "하계1호",
      "address": "서울 노원구 하계1동 251 청구상가 201동 101호, 102호",
      "roadAddress": "서울시 노원구 한글비석로 89, 201동 101호, 102호",
      "region": "서울",
      "district": "노원구",
      "phone": "02-976-4882",
      "lat": 37.6393900179795,
      "lng": 127.071556102983
    },
    {
      "id": 90,
      "shopId": "603",
      "name": "도봉동",
      "address": "서울 도봉구 도봉2동 623-163",
      "roadAddress": "서울 도봉구 마들로 689",
      "region": "서울",
      "district": "도봉구",
      "phone": "02-956-8892",
      "lat": 37.6717046494467,
      "lng": 127.046296542884
    },
    {
      "id": 91,
      "shopId": "1659",
      "name": "방학",
      "address": "서울 도봉구 방학동 659-32",
      "roadAddress": "서울 도봉구 도당로 111",
      "region": "서울",
      "district": "도봉구",
      "phone": "02-956-7005",
      "lat": 37.6669900017538,
      "lng": 127.038800201279
    },
    {
      "id": 92,
      "shopId": "433",
      "name": "쌍문1호",
      "address": "서울 도봉구 방학동 263-56",
      "roadAddress": "서울특별시 도봉구 도당로 30",
      "region": "서울",
      "district": "도봉구",
      "phone": "02-955-7999",
      "lat": 37.6609471388466,
      "lng": 127.035305596485
    },
    {
      "id": 93,
      "shopId": "839",
      "name": "쌍문역",
      "address": "서울 도봉구 쌍문3동 88-127",
      "roadAddress": "서울 도봉구 도봉로 505",
      "region": "서울",
      "district": "도봉구",
      "phone": "02-905-9292,9294",
      "lat": 37.6507190959414,
      "lng": 127.035613510952
    },
    {
      "id": 94,
      "shopId": "886",
      "name": "창3동",
      "address": "서울 도봉구 창동 568-2",
      "roadAddress": "서울 도봉구 덕릉로 264",
      "region": "서울",
      "district": "도봉구",
      "phone": "02-999-5222",
      "lat": 37.6407454688827,
      "lng": 127.040390120006
    },
    {
      "id": 95,
      "shopId": "493",
      "name": "창동",
      "address": "서울 도봉구 창동 296-37",
      "roadAddress": "서울 도봉구 해등로 120",
      "region": "서울",
      "district": "도봉구",
      "phone": "02-905-8292,8290",
      "lat": 37.6542013260365,
      "lng": 127.041089017939
    },
    {
      "id": 96,
      "shopId": "1438",
      "name": "경희대",
      "address": "서울 동대문구 회기동 42-16",
      "roadAddress": "서울 동대문구 경희대로3길 20",
      "region": "서울",
      "district": "동대문구",
      "phone": "02-963-5353",
      "lat": 37.5929131099913,
      "lng": 127.051447213224
    },
    {
      "id": 97,
      "shopId": "671",
      "name": "답십리1호",
      "address": "서울 동대문구 답십리동 53-50",
      "roadAddress": "서울 동대문구 전농로81",
      "region": "서울",
      "district": "동대문구",
      "phone": "02-2214-7782",
      "lat": 37.5722777504864,
      "lng": 127.057124651132
    },
    {
      "id": 98,
      "shopId": "602",
      "name": "서울시립대",
      "address": "서울 동대문구 전농동 295-5",
      "roadAddress": "서울 동대문구 전농로 133",
      "region": "서울",
      "district": "동대문구",
      "phone": "02-2243-1560~1",
      "lat": 37.5769482070059,
      "lng": 127.057555684241
    },
    {
      "id": 99,
      "shopId": "656",
      "name": "신이문",
      "address": "서울 동대문구 이문동 255-222",
      "roadAddress": "서울 동대문구 신이문로 6-1",
      "region": "서울",
      "district": "동대문구",
      "phone": "02-963-9998",
      "lat": 37.6028163670273,
      "lng": 127.062776273894
    },
    {
      "id": 100,
      "shopId": "693",
      "name": "안암",
      "address": "서울 동대문구 제기동 142-8",
      "roadAddress": "서울 동대문구 안암로 122",
      "region": "서울",
      "district": "동대문구",
      "phone": "02-923-3363",
      "lat": 37.5861118645051,
      "lng": 127.032806559515
    },
    {
      "id": 101,
      "shopId": "1635",
      "name": "용두",
      "address": "서울 동대문구 왕산로28길 55",
      "roadAddress": "서울 동대문구 용두동 29-1",
      "region": "서울",
      "district": "동대문구",
      "phone": "02-967-1991",
      "lat": 37.5756977673929,
      "lng": 127.039180695667
    },
    {
      "id": 102,
      "shopId": "611",
      "name": "장안1호",
      "address": "서울 동대문구 전농동 1-171",
      "roadAddress": "서울 동대문구 한천로 229",
      "region": "서울",
      "district": "동대문구",
      "phone": "02-2216-0092",
      "lat": 37.5812915700481,
      "lng": 127.068156052664
    },
    {
      "id": 103,
      "shopId": "703",
      "name": "장안2호",
      "address": "서울 동대문구  장안동 375-3",
      "roadAddress": "서울 동대문구 장한로 69",
      "region": "서울",
      "district": "동대문구",
      "phone": "02-2249-9599",
      "lat": 37.5672479717211,
      "lng": 127.068113938484
    },
    {
      "id": 104,
      "shopId": "813",
      "name": "청량리역",
      "address": "서울 동대문구 청량리동 50-14",
      "roadAddress": "서울 동대문구 왕산로 249-1",
      "region": "서울",
      "district": "동대문구",
      "phone": "02-957-0001~2",
      "lat": 37.5835959365796,
      "lng": 127.049143762387
    },
    {
      "id": 105,
      "shopId": "548",
      "name": "노량진",
      "address": "서울 동작구 노량진동 37-1",
      "roadAddress": "서울 동작구 노량진로8길 55(노량진동,더클래식동작)",
      "region": "서울",
      "district": "동작구",
      "phone": "02-816-8999,9959",
      "lat": 37.5122957571674,
      "lng": 126.938699333267
    },
    {
      "id": 106,
      "shopId": "484",
      "name": "사당1호",
      "address": "서울 동작구 사당3동 155-2 1F",
      "roadAddress": "서울 동작구 사당로23길 2, 1층",
      "region": "서울",
      "district": "동작구",
      "phone": "02-3477-9945~6",
      "lat": 37.484193059937,
      "lng": 126.977413977618
    },
    {
      "id": 107,
      "shopId": "1858",
      "name": "사당2호",
      "address": "서울 동작구 사당동 708-817",
      "roadAddress": "서울 동작구 사당로17길 75",
      "region": "서울",
      "district": "동작구",
      "phone": "02-535-2209",
      "lat": 37.4863077213225,
      "lng": 126.97230793755
    },
    {
      "id": 108,
      "shopId": "1526",
      "name": "상도",
      "address": "서울 동작구 상도동 535 상도2차 두산위브트레지움아파트 상가",
      "roadAddress": "서울 동작구 상도로30길 40, 상도2차 두산위브트레지움아파트 상가",
      "region": "서울",
      "district": "동작구",
      "phone": "02-3280-1932",
      "lat": 37.5038809752107,
      "lng": 126.942773692126
    },
    {
      "id": 109,
      "shopId": "1021",
      "name": "상도중앙",
      "address": "서울 동작구 상도동 159-26",
      "roadAddress": "서울 동작구 상도로 306",
      "region": "서울",
      "district": "동작구",
      "phone": "02-815-8833",
      "lat": 37.500482685615,
      "lng": 126.949570300753
    },
    {
      "id": 110,
      "shopId": "964",
      "name": "숭실대",
      "address": "서울 동작구 상도동 489-9",
      "roadAddress": "서울 동작구 상도로 370",
      "region": "서울",
      "district": "동작구",
      "phone": "02-889-2299",
      "lat": 37.4957198665943,
      "lng": 126.953729988028
    },
    {
      "id": 111,
      "shopId": "672",
      "name": "신대방",
      "address": "서울 동작구 신대방동 607-28",
      "roadAddress": "서울 동작구 시흥대로 646",
      "region": "서울",
      "district": "동작구",
      "phone": "02-846-9992",
      "lat": 37.489474907032,
      "lng": 126.90743783699
    },
    {
      "id": 112,
      "shopId": "1411",
      "name": "신대방삼거리",
      "address": "서울 동작구 대방동 407-46",
      "roadAddress": "서울 동작구 여의대방로24길 129",
      "region": "서울",
      "district": "동작구",
      "phone": "02-823-1991",
      "lat": 37.499363759262,
      "lng": 126.927179953976
    },
    {
      "id": 113,
      "shopId": "456",
      "name": "흑석1호",
      "address": "서울 동작구 흑석동 180-6",
      "roadAddress": "서울 동작구 흑석로 116",
      "region": "서울",
      "district": "동작구",
      "phone": "02-814-3377",
      "lat": 37.5086963803633,
      "lng": 126.961667220241
    },
    {
      "id": 114,
      "shopId": "233",
      "name": "도화(서울)",
      "address": "서울 마포구 도화동 55",
      "roadAddress": "서울 마포구 마포대로4길 30-3",
      "region": "서울",
      "district": "마포구",
      "phone": "02-715-9987",
      "lat": 37.5382972994254,
      "lng": 126.946422881654
    },
    {
      "id": 115,
      "shopId": "643",
      "name": "망원2동",
      "address": "서울 마포구 망원동 482-9",
      "roadAddress": "서울 마포구 월드컵로 111",
      "region": "서울",
      "district": "마포구",
      "phone": "02-3143-5575",
      "lat": 37.5581854330997,
      "lng": 126.907796225083
    },
    {
      "id": 116,
      "shopId": "1076",
      "name": "상암",
      "address": "서울 마포구 상암동 34-45",
      "roadAddress": "서울 마포구 월드컵북로 48길 14",
      "region": "서울",
      "district": "마포구",
      "phone": "02-309-2500",
      "lat": 37.576727828664,
      "lng": 126.894555830195
    },
    {
      "id": 117,
      "shopId": "691",
      "name": "성산2동",
      "address": "서울 마포구 성산동 592",
      "roadAddress": "서울 마포구 월드컵로 190",
      "region": "서울",
      "district": "마포구",
      "phone": "02-373-9909",
      "lat": 37.5634258633541,
      "lng": 126.903357766726
    },
    {
      "id": 118,
      "shopId": "690",
      "name": "신공덕",
      "address": "서울 마포구 신공덕동 159(신공덕 래미안상가 1동109호)",
      "roadAddress": "서울 마포구 만리재로 74, 1동 109호",
      "region": "서울",
      "district": "마포구",
      "phone": "02-703-9919",
      "lat": 37.5463786459557,
      "lng": 126.958031350919
    },
    {
      "id": 119,
      "shopId": "774",
      "name": "신수",
      "address": "서울 마포구 신수동 451번지 세양청마루아파트 상가 101호",
      "roadAddress": "서울 마포구 독막로 209(신수동,세양청마루아파트)",
      "region": "서울",
      "district": "마포구",
      "phone": "02-704-6364",
      "lat": 37.5477891200048,
      "lng": 126.936715409695
    },
    {
      "id": 120,
      "shopId": "1222",
      "name": "아현",
      "address": "서울 마포구 아현동 774(마포래미안 푸르지오 101동 상가 115호)",
      "roadAddress": "서울 마포구 마포대로 195 (마포래미안 푸르지오 101동 상가 115호)",
      "region": "서울",
      "district": "마포구",
      "phone": "02-363-9993",
      "lat": 37.5527449529781,
      "lng": 126.952862736041
    },
    {
      "id": 121,
      "shopId": "1195",
      "name": "연남",
      "address": "서울 마포구 연남동 369-20",
      "roadAddress": "서울 마포구 연남로 45",
      "region": "서울",
      "district": "마포구",
      "phone": "02-323-1997",
      "lat": 37.5634099823492,
      "lng": 126.920743059838
    },
    {
      "id": 122,
      "shopId": "1728",
      "name": "용강(서울)",
      "address": "서울 마포구 대흥동 500-10",
      "roadAddress": "서울 마포구 토정로31길 67",
      "region": "서울",
      "district": "마포구",
      "phone": "02-711-9993",
      "lat": 37.5436538878204,
      "lng": 126.944397412133
    },
    {
      "id": 123,
      "shopId": "1095",
      "name": "홍대",
      "address": "서울 마포구 서교동 371-3",
      "roadAddress": "서울 마포구 양화로16길 6",
      "region": "서울",
      "district": "마포구",
      "phone": "02-338-1300",
      "lat": 37.5535959126381,
      "lng": 126.920133279708
    },
    {
      "id": 124,
      "shopId": "953",
      "name": "독립문",
      "address": "서울 서대문구 냉천동 226",
      "roadAddress": "서울 서대문구 통일로 151",
      "region": "서울",
      "district": "서대문구",
      "phone": "02-392-6668",
      "lat": 37.5676243952638,
      "lng": 126.964505661858
    },
    {
      "id": 125,
      "shopId": "759",
      "name": "명지대",
      "address": "서울 서대문구 남가좌동 344-7",
      "roadAddress": "서울 서대문구 거북골로 57-1",
      "region": "서울",
      "district": "서대문구",
      "phone": "02-305-9996",
      "lat": 37.5780321558453,
      "lng": 126.921981902823
    },
    {
      "id": 126,
      "shopId": "775",
      "name": "북가좌1호",
      "address": "서울 서대문구 북가좌동 385-8",
      "roadAddress": "서울 서대문구 응암로 11",
      "region": "서울",
      "district": "서대문구",
      "phone": "02-304-3003,3053",
      "lat": 37.575294773203,
      "lng": 126.90684494192
    },
    {
      "id": 127,
      "shopId": "875",
      "name": "북아현1호",
      "address": "서울 서대문구 북아현동 1006",
      "roadAddress": "서울 서대문구 북아현로 40",
      "region": "서울",
      "district": "서대문구",
      "phone": "02-393-5393",
      "lat": 37.560934562008,
      "lng": 126.956361680898
    },
    {
      "id": 128,
      "shopId": "1239",
      "name": "신촌",
      "address": "서울 서대문구 창천동 41-14",
      "roadAddress": "서울 서대문구 명물길 21",
      "region": "서울",
      "district": "서대문구",
      "phone": "02-312-1991",
      "lat": 37.5581294871725,
      "lng": 126.93768451827
    },
    {
      "id": 129,
      "shopId": "910",
      "name": "연희(서울)",
      "address": "서울 서대문구 연희동 188-15",
      "roadAddress": "서울 서대문구 연희로 81-30",
      "region": "서울",
      "district": "서대문구",
      "phone": "02-334-7999",
      "lat": 37.5660179875175,
      "lng": 126.929222817891
    },
    {
      "id": 130,
      "shopId": "911",
      "name": "홍은1호",
      "address": "서울 서대문구 홍제동 279-52",
      "roadAddress": "서울 서대문구 세검정로 89",
      "region": "서울",
      "district": "서대문구",
      "phone": "02-396-0111",
      "lat": 37.5958431732303,
      "lng": 126.94864135716
    },
    {
      "id": 131,
      "shopId": "861",
      "name": "홍은사거리",
      "address": "서울 서대문구 홍제동 326-20",
      "roadAddress": "서울 서대문구 통일로 473",
      "region": "서울",
      "district": "서대문구",
      "phone": "02-3216-9989",
      "lat": 37.5902791691259,
      "lng": 126.941987487983
    },
    {
      "id": 132,
      "shopId": "505",
      "name": "반포1호",
      "address": "서울 서초구 반포동 94-7",
      "roadAddress": "서울 서초구 서래로43",
      "region": "서울",
      "district": "서초구",
      "phone": "02-533-9279,9179",
      "lat": 37.4989132512891,
      "lng": 126.998199752407
    },
    {
      "id": 133,
      "shopId": "1553",
      "name": "반포삼호가든",
      "address": "서울 서초구 반포동 53-7",
      "roadAddress": "서울 서초구 서초중앙로 33길 8",
      "region": "서울",
      "district": "서초구",
      "phone": "02-591-9901",
      "lat": 37.5012958144771,
      "lng": 127.011101069056
    },
    {
      "id": 134,
      "shopId": "1426",
      "name": "방배1호",
      "address": "서울 서초구 방배동 769-9",
      "roadAddress": "서울 서초구 방배중앙로 176",
      "region": "서울",
      "district": "서초구",
      "phone": "02-535-1991",
      "lat": 37.4948418945575,
      "lng": 126.98622731002
    },
    {
      "id": 135,
      "shopId": "590",
      "name": "방배2호",
      "address": "서울특별시 서초구 방배동 924-8 상아빌딩1층",
      "roadAddress": "서울 서초구 효령로31길 48 상아빌딩1층",
      "region": "서울특별시",
      "district": "서초구",
      "phone": "02-523-9956",
      "lat": 37.4833664829011,
      "lng": 126.995700494509
    },
    {
      "id": 136,
      "shopId": "608",
      "name": "서초1호",
      "address": "서울 서초구 서초동 1357-56",
      "roadAddress": "서울 서초구 강남대로 43길 22-1 1층",
      "region": "서울",
      "district": "서초구",
      "phone": "02-581-9949",
      "lat": 37.4875068766319,
      "lng": 127.030945212271
    },
    {
      "id": 137,
      "shopId": "694",
      "name": "서초2호",
      "address": "서울 서초구 서초동 1669-15",
      "roadAddress": "서울 서초구 서초대로56길 22",
      "region": "서울",
      "district": "서초구",
      "phone": "02-588-9905",
      "lat": 37.4934887743943,
      "lng": 127.017124805319
    },
    {
      "id": 138,
      "shopId": "696",
      "name": "서초3호",
      "address": "서울 서초구 서초동 1579-5",
      "roadAddress": "서울 서초구 사임당로 31",
      "region": "서울",
      "district": "서초구",
      "phone": "02-582-9233",
      "lat": 37.4882561940276,
      "lng": 127.013487218015
    },
    {
      "id": 139,
      "shopId": "1124",
      "name": "양재1호",
      "address": "서울특별시 서초구 양재동 319-1",
      "roadAddress": "서울 서초구 강남대로 16길 14-2",
      "region": "서울특별시",
      "district": "서초구",
      "phone": "02-579-9245",
      "lat": 37.4706954584219,
      "lng": 127.039766678223
    },
    {
      "id": 140,
      "shopId": "1592",
      "name": "우면",
      "address": "서울 서초구 우면동 720",
      "roadAddress": "서울 서초구 태봉로2길 65",
      "region": "서울",
      "district": "서초구",
      "phone": "02-577-9288",
      "lat": 37.4636344096655,
      "lng": 127.02623346136
    },
    {
      "id": 141,
      "shopId": "922",
      "name": "잠원1호",
      "address": "서울 서초구 잠원동 15-4",
      "roadAddress": "서울 서초구 나루터로 69",
      "region": "서울",
      "district": "서초구",
      "phone": "02-532-9992",
      "lat": 37.5157507816091,
      "lng": 127.017360642274
    },
    {
      "id": 142,
      "shopId": "626",
      "name": "금호역",
      "address": "서울 성동구 금호동4가 1380",
      "roadAddress": "서울 성동구 장터길 26",
      "region": "서울",
      "district": "성동구",
      "phone": "02-2296-5992",
      "lat": 37.5481685992726,
      "lng": 127.018712526658
    },
    {
      "id": 143,
      "shopId": "773",
      "name": "성수1호",
      "address": "서울 성동구 성수동2가 235-1",
      "roadAddress": "서울 성동구 동일로 41",
      "region": "서울",
      "district": "성동구",
      "phone": "02-464-9992",
      "lat": 37.5370325286674,
      "lng": 127.060727462158
    },
    {
      "id": 144,
      "shopId": "1225",
      "name": "성수역",
      "address": "서울 성동구 성수동2가 289-251",
      "roadAddress": "서울 성동구 아차산로 7길 10-1",
      "region": "서울",
      "district": "성동구",
      "phone": "02-497-1991",
      "lat": 37.5461103780497,
      "lng": 127.054624227129
    },
    {
      "id": 145,
      "shopId": "1017",
      "name": "왕십리1호",
      "address": "서울 성동구 하왕십리동 946-15",
      "roadAddress": "서울 성동구 왕십리로 363",
      "region": "서울",
      "district": "성동구",
      "phone": "02-2293-9985",
      "lat": 37.5639554353539,
      "lng": 127.029668373843
    },
    {
      "id": 146,
      "shopId": "1200",
      "name": "왕십리도선",
      "address": "서울 성동구 홍익동 131-1",
      "roadAddress": "서울 성동구 고산자로281 1층",
      "region": "서울",
      "district": "성동구",
      "phone": "02-2292-1991",
      "lat": 37.5648618640432,
      "lng": 127.036047986165
    },
    {
      "id": 147,
      "shopId": "1746",
      "name": "용답",
      "address": "서울 성동구 용답동 60-18",
      "roadAddress": "서울 성동구 용답중앙13길 6-1",
      "region": "서울",
      "district": "성동구",
      "phone": "02-2215-1993",
      "lat": 37.5647572175527,
      "lng": 127.052495541133
    },
    {
      "id": 148,
      "shopId": "522",
      "name": "응봉",
      "address": "서울 성동구 응봉동 100",
      "roadAddress": "서울 성동구 독서당로 398",
      "region": "서울",
      "district": "성동구",
      "phone": "02-2299-9965",
      "lat": 37.5519307590448,
      "lng": 127.033264500403
    },
    {
      "id": 149,
      "shopId": "1610",
      "name": "한양대",
      "address": "서울 성동구 행당동 3-29",
      "roadAddress": "서울 성동구 마조로 31",
      "region": "서울",
      "district": "성동구",
      "phone": "02-2291-1992",
      "lat": 37.5604959808139,
      "lng": 127.041059347701
    },
    {
      "id": 150,
      "shopId": "1730",
      "name": "길음뉴타운",
      "address": "서울 성북구 길음동 1284-17",
      "roadAddress": "서울 성북구 길음로 33",
      "region": "서울",
      "district": "성북구",
      "phone": "02-909-1997",
      "lat": 37.6062696127752,
      "lng": 127.021664784961
    },
    {
      "id": 151,
      "shopId": "495",
      "name": "동소문",
      "address": "서울 성북구 동선동5가 147-13",
      "roadAddress": "서울 성북구 아리랑로 48",
      "region": "서울",
      "district": "성북구",
      "phone": "02-953-9922",
      "lat": 37.5970433932828,
      "lng": 127.015235608359
    },
    {
      "id": 152,
      "shopId": "999",
      "name": "보문",
      "address": "서울 성북구 보문동7가 99",
      "roadAddress": "서울 성북구 보문로47",
      "region": "서울",
      "district": "성북구",
      "phone": "02-921-3292",
      "lat": 37.5796517898894,
      "lng": 127.022148740986
    },
    {
      "id": 153,
      "shopId": "887",
      "name": "석관장위",
      "address": "서울 성북구 장위동 50-46",
      "roadAddress": "서울 성북구 화랑로 265",
      "region": "서울",
      "district": "성북구",
      "phone": "02-918-9925",
      "lat": 37.6119166231453,
      "lng": 127.058406241068
    },
    {
      "id": 154,
      "shopId": "509",
      "name": "월곡",
      "address": "서울특별시 성북구 하월곡동 76-27",
      "roadAddress": "서울특별시 성북구 오패산로 69",
      "region": "서울특별시",
      "district": "성북구",
      "phone": "02-913-8292",
      "lat": 37.6081980121297,
      "lng": 127.036001731439
    },
    {
      "id": 155,
      "shopId": "687",
      "name": "정릉1호",
      "address": "서울 성북구 정릉동 285-11",
      "roadAddress": "서울 성북구 보국문로 72",
      "region": "서울",
      "district": "성북구",
      "phone": "02-909-3311,9282",
      "lat": 37.6108494426592,
      "lng": 127.009175197012
    },
    {
      "id": 156,
      "shopId": "998",
      "name": "정릉중앙",
      "address": "서울 성북구 정릉동 227-74",
      "roadAddress": "서울 성북구 서경로 75",
      "region": "서울",
      "district": "성북구",
      "phone": "02-999-1991",
      "lat": 37.6099540023734,
      "lng": 127.014851132946
    },
    {
      "id": 157,
      "shopId": "1666",
      "name": "종암",
      "address": "서울 성북구 종암동 3-544",
      "roadAddress": "서울 성북구 종암로 27길 18",
      "region": "서울",
      "district": "성북구",
      "phone": "02-921-1112",
      "lat": 37.6028880962242,
      "lng": 127.031678642195
    },
    {
      "id": 158,
      "shopId": "597",
      "name": "가락2호",
      "address": "서울 송파구 가락동 75-7",
      "roadAddress": "서울 송파구 양재대로 62길 35 다우빌딩 1층",
      "region": "서울",
      "district": "송파구",
      "phone": "02-448-9005,9045",
      "lat": 37.4970150470846,
      "lng": 127.120028523398
    },
    {
      "id": 159,
      "shopId": "943",
      "name": "거여가락1호",
      "address": "서울 송파구 가락동 180-9",
      "roadAddress": "서울 송파구 문정로 143",
      "region": "서울",
      "district": "송파구",
      "phone": "02-406-9282",
      "lat": 37.492511221009,
      "lng": 127.135571837513
    },
    {
      "id": 160,
      "shopId": "442",
      "name": "마천1호",
      "address": "서울 송파구 거여동 32-6",
      "roadAddress": "서울 송파구 오금로 544 1층",
      "region": "서울",
      "district": "송파구",
      "phone": "02-404-9907~8",
      "lat": 37.4926931654285,
      "lng": 127.149082787019
    },
    {
      "id": 161,
      "shopId": "1175",
      "name": "문정법조",
      "address": "서울 송파구 문정동 620 송파푸르지오시티 B09호",
      "roadAddress": "서울 송파구 새말로 62(문정동)",
      "region": "서울",
      "district": "송파구",
      "phone": "02-3012-1992",
      "lat": 37.4807632360361,
      "lng": 127.121246188872
    },
    {
      "id": 162,
      "shopId": "712",
      "name": "방이2호",
      "address": "서울 송파구 방이동 69-4",
      "roadAddress": "서울 송파구 올림픽로32길 32, 1,2층",
      "region": "서울",
      "district": "송파구",
      "phone": "02-420-0495",
      "lat": 37.5132431589164,
      "lng": 127.109623432063
    },
    {
      "id": 163,
      "shopId": "165",
      "name": "방이역",
      "address": "서울 송파구 오금동 41-23 성암빌딩 1층",
      "roadAddress": "서울 송파구 마천로 76 성암빌딩 1층",
      "region": "서울",
      "district": "송파구",
      "phone": "02-418-9599,9569",
      "lat": 37.5073495916431,
      "lng": 127.128577380286
    },
    {
      "id": 164,
      "shopId": "794",
      "name": "석촌",
      "address": "서울 송파구 석촌동 163-1",
      "roadAddress": "서울 송파구 백제고분로 39길 29",
      "region": "서울",
      "district": "송파구",
      "phone": "02-412-0799",
      "lat": 37.5067146869636,
      "lng": 127.103504352304
    },
    {
      "id": 165,
      "shopId": "413",
      "name": "송파1호",
      "address": "서울 송파구 송파동 147",
      "roadAddress": "서울 송파구 가락로 212",
      "region": "서울",
      "district": "송파구",
      "phone": "02-418-8892",
      "lat": 37.507163803165,
      "lng": 127.116597471538
    },
    {
      "id": 166,
      "shopId": "723",
      "name": "올림픽공원",
      "address": "서울 송파구 풍납동 401-4",
      "roadAddress": "서울 송파구 올림픽로 505",
      "region": "서울",
      "district": "송파구",
      "phone": "02-478-5844~5",
      "lat": 37.5273313862439,
      "lng": 127.118336337706
    },
    {
      "id": 167,
      "shopId": "1341",
      "name": "위례송파",
      "address": "서울 송파구 장지동 897",
      "roadAddress": "서울 송파구 위례광장로 120 148,149호",
      "region": "서울",
      "district": "송파구",
      "phone": "02-2043-1991",
      "lat": 37.474605333209,
      "lng": 127.141544657341
    },
    {
      "id": 168,
      "shopId": "167",
      "name": "잠실1호",
      "address": "서울 송파구 잠실동 177-3",
      "roadAddress": "서울 송파구 백제고분로7길 9",
      "region": "서울",
      "district": "송파구",
      "phone": "02-416-9939",
      "lat": 37.5105978145428,
      "lng": 127.079849385969
    },
    {
      "id": 169,
      "shopId": "1109",
      "name": "잠실2호",
      "address": "서울 송파구 신천동 7",
      "roadAddress": "서울 송파구 올림픽로35길 112",
      "region": "서울",
      "district": "송파구",
      "phone": "02-417-9225",
      "lat": 37.5188849274204,
      "lng": 127.099280476931
    },
    {
      "id": 170,
      "shopId": "902",
      "name": "장지",
      "address": "서울 송파구 문정동 102-1",
      "roadAddress": "서울 송파구 새말로 167",
      "region": "서울",
      "district": "송파구",
      "phone": "02-403-9225,9222",
      "lat": 37.4854737449635,
      "lng": 127.131325867192
    },
    {
      "id": 171,
      "shopId": "1584",
      "name": "헬리오시티",
      "address": "서울 송파구 가락동 913 헬리오시티 상가 3A동 01호",
      "roadAddress": "서울 송파구 송파대로 345, 헬리오시티 상가 3A동 01호",
      "region": "서울",
      "district": "송파구",
      "phone": "02-406-1991",
      "lat": 37.4974199508211,
      "lng": 127.107103026758
    },
    {
      "id": 172,
      "shopId": "1657",
      "name": "목3동",
      "address": "서울 양천구 목동 722-8 호성빌딩",
      "roadAddress": "서울 양천구 등촌로 102 호성빌딩 1층",
      "region": "서울",
      "district": "양천구",
      "phone": "02-2655-0027",
      "lat": 37.5390242655337,
      "lng": 126.863978185433
    },
    {
      "id": 173,
      "shopId": "628",
      "name": "목동2호",
      "address": "서울 양천구 목동 909-8 이화프라자 1층 101호",
      "roadAddress": "서울 양천구 목동동로 423, 이화프라자 1층 101호",
      "region": "서울",
      "district": "양천구",
      "phone": "02-2643-9339,2643-9329",
      "lat": 37.5368898789213,
      "lng": 126.88361423173
    },
    {
      "id": 174,
      "shopId": "782",
      "name": "목동오거리",
      "address": "서울 양천구 목동 940 현대아이파크상가 102",
      "roadAddress": "서울 양천구 목동로 230, 목동2차아이파크 상가 102호",
      "region": "서울",
      "district": "양천구",
      "phone": "02-2647-0092",
      "lat": 37.5289917139437,
      "lng": 126.864995711742
    },
    {
      "id": 175,
      "shopId": "1750",
      "name": "목동파크자이",
      "address": "서울 양천구 신정동 171-68",
      "roadAddress": "서울 양천구 목동남로4길 80",
      "region": "서울",
      "district": "양천구",
      "phone": "02-2039-0447",
      "lat": 37.5085476906359,
      "lng": 126.868993160186
    },
    {
      "id": 176,
      "shopId": "1583",
      "name": "신월1호",
      "address": "서울 양천구 신월동 602-8",
      "roadAddress": "서울 양천구 신월로 200",
      "region": "서울",
      "district": "양천구",
      "phone": "02-2606-1992",
      "lat": 37.5200830807285,
      "lng": 126.84491025722
    },
    {
      "id": 177,
      "shopId": "896",
      "name": "신월2호",
      "address": "서울 양천구 신월7동 972-6",
      "roadAddress": "서울 양천구 지양로 52",
      "region": "서울",
      "district": "양천구",
      "phone": "02-2697-7272",
      "lat": 37.5205201388765,
      "lng": 126.834925453109
    },
    {
      "id": 178,
      "shopId": "1719",
      "name": "신월사거리",
      "address": "서울 양천구 신월동 166-5",
      "roadAddress": "서울 양천구 남부순환로 360",
      "region": "서울",
      "district": "양천구",
      "phone": "02-2601-9992",
      "lat": 37.5349086720191,
      "lng": 126.828600209012
    },
    {
      "id": 179,
      "shopId": "361",
      "name": "신정1호",
      "address": "서울 양천구 신정동 1022-5",
      "roadAddress": "서울 양천구 중앙로 32길 51",
      "region": "서울",
      "district": "양천구",
      "phone": "02-2649-9282",
      "lat": 37.519676109041,
      "lng": 126.859083918703
    },
    {
      "id": 180,
      "shopId": "610",
      "name": "신트리",
      "address": "서울 양천구 신정동 1267 목동뉴프라자",
      "roadAddress": "서울 양천구 신정로 312, 목동뉴프라자",
      "region": "서울",
      "district": "양천구",
      "phone": "02-2605-7892",
      "lat": 37.5132382179747,
      "lng": 126.855540992075
    },
    {
      "id": 181,
      "shopId": "389",
      "name": "오목교",
      "address": "서울 양천구 신정동 1296 아이파크 상가 1층",
      "roadAddress": "서울 양천구 목동동로 180, 아이파크아파트 상가 1층",
      "region": "서울",
      "district": "양천구",
      "phone": "02-2654-0833",
      "lat": 37.5216475157313,
      "lng": 126.872162794181
    },
    {
      "id": 182,
      "shopId": "308",
      "name": "화곡1호",
      "address": "서울 양천구 신월동 23-17",
      "roadAddress": "서울 양천구 화곡로 103",
      "region": "서울",
      "district": "양천구",
      "phone": "02-2606-9961~2",
      "lat": 37.5399758670859,
      "lng": 126.833302998667
    },
    {
      "id": 183,
      "shopId": "870",
      "name": "당산",
      "address": "서울 영등포구 영등포동8가 35-1",
      "roadAddress": "서울 영등포구 영중로 119, 108호",
      "region": "서울",
      "district": "영등포구",
      "phone": "02-2672-9995",
      "lat": 37.5267498125371,
      "lng": 126.905036547682
    },
    {
      "id": 184,
      "shopId": "967",
      "name": "대림2호",
      "address": "서울 영등포구 대림동 783-1",
      "roadAddress": "서울 영등포구 대림로 247",
      "region": "서울",
      "district": "영등포구",
      "phone": "02-847-9939",
      "lat": 37.5025266968388,
      "lng": 126.896257599918
    },
    {
      "id": 185,
      "shopId": "756",
      "name": "문래",
      "address": "서울 영등포구 문래동3가 77-34",
      "roadAddress": "서울 영등포구 선유로 62",
      "region": "서울",
      "district": "영등포구",
      "phone": "02-2672-7676",
      "lat": 37.5193801261739,
      "lng": 126.889564333848
    },
    {
      "id": 186,
      "shopId": "1595",
      "name": "선유도역",
      "address": "서울 영등포구 양평동4가 147-3",
      "roadAddress": "서울 영등포구 양평로 108",
      "region": "서울",
      "district": "영등포구",
      "phone": "02-2069-1991",
      "lat": 37.5372296129649,
      "lng": 126.895628426331
    },
    {
      "id": 187,
      "shopId": "730",
      "name": "신길1호",
      "address": "서울 영등포구 신길동 296-14",
      "roadAddress": "서울 영등포구 도신로 108",
      "region": "서울",
      "district": "영등포구",
      "phone": "02-833-6016",
      "lat": 37.5076833556693,
      "lng": 126.90407208842
    },
    {
      "id": 188,
      "shopId": "926",
      "name": "신길2호",
      "address": "서울 영등포구 신길7동 674",
      "roadAddress": "서울 영등포구 여의대방로 177",
      "region": "서울",
      "district": "영등포구",
      "phone": "02-849-0033",
      "lat": 37.5029314877119,
      "lng": 126.921168934896
    },
    {
      "id": 189,
      "shopId": "1565",
      "name": "신풍역",
      "address": "서울 영등포구 신길동 445-2",
      "roadAddress": "서울 영등포구 신길로 67(신길동)",
      "region": "서울",
      "district": "영등포구",
      "phone": "02-835-1223",
      "lat": 37.4988566743976,
      "lng": 126.908059549938
    },
    {
      "id": 190,
      "shopId": "1010",
      "name": "여의도",
      "address": "서울 영등포구 여의도동 44-31",
      "roadAddress": "서울 영등포구 여의대방로 67길 11",
      "region": "서울",
      "district": "영등포구",
      "phone": "02-769-1555",
      "lat": 37.5197859965277,
      "lng": 126.930282208957
    },
    {
      "id": 191,
      "shopId": "708",
      "name": "영등포1호",
      "address": "서울 영등포구 신길동 232-42",
      "roadAddress": "서울 영등포구 신길로 167",
      "region": "서울",
      "district": "영등포구",
      "phone": "02-841-7282",
      "lat": 37.5070288628978,
      "lng": 126.910734866125
    },
    {
      "id": 192,
      "shopId": "1636",
      "name": "영등포역",
      "address": "서울 영등포구 영등포동3가 21-10",
      "roadAddress": "서울 영등포구 영중로6길 16-1",
      "region": "서울",
      "district": "영등포구",
      "phone": "02-2632-1992",
      "lat": 37.5177411915579,
      "lng": 126.907715927092
    },
    {
      "id": 193,
      "shopId": "743",
      "name": "동부이촌",
      "address": "서울 용산구 이촌1동 301-153 오성상가 103",
      "roadAddress": "서울 용산구 이촌로75길 22  오성상가 103 (이촌동)",
      "region": "서울",
      "district": "용산구",
      "phone": "02-795-4747",
      "lat": 37.5207552983188,
      "lng": 126.97458851238
    },
    {
      "id": 194,
      "shopId": "1208",
      "name": "보광",
      "address": "서울 용산구 보광동 217-13",
      "roadAddress": "서울 용산구 장문로 81",
      "region": "서울",
      "district": "용산구",
      "phone": "02-3785-1991",
      "lat": 37.5261964760828,
      "lng": 126.998696752134
    },
    {
      "id": 195,
      "shopId": "1545",
      "name": "숙대",
      "address": "서울 용산구 청파동2가 90-11",
      "roadAddress": "서울 용산구 청파로 47길 14",
      "region": "서울",
      "district": "용산구",
      "phone": "02-707-2577",
      "lat": 37.5449874621639,
      "lng": 126.969669252109
    },
    {
      "id": 196,
      "shopId": "1578",
      "name": "신용산역",
      "address": "서울 용산구 한강로2가 122-5",
      "roadAddress": "서울 용산구 한강대로40길 13",
      "region": "서울",
      "district": "용산구",
      "phone": "02-792-8722",
      "lat": 37.5304219129306,
      "lng": 126.970109139045
    },
    {
      "id": 197,
      "shopId": "769",
      "name": "용문",
      "address": "서울 용산구 용문동 28-26",
      "roadAddress": "서울 용산구 새창로 108",
      "region": "서울",
      "district": "용산구",
      "phone": "02-702-2858",
      "lat": 37.537783786742,
      "lng": 126.959982290799
    },
    {
      "id": 198,
      "shopId": "1007",
      "name": "후암",
      "address": "서울 용산구 후암동 244-59",
      "roadAddress": "서울 용산구 후암로 28-1",
      "region": "서울",
      "district": "용산구",
      "phone": "02-757-3535",
      "lat": 37.5485176185605,
      "lng": 126.977992083053
    },
    {
      "id": 199,
      "shopId": "618",
      "name": "구산역",
      "address": "서울 은평구 갈현동 464-14",
      "roadAddress": "서울 은평구 연서로 157",
      "region": "서울",
      "district": "은평구",
      "phone": "02-352-9949",
      "lat": 37.6128763938806,
      "lng": 126.917250875964
    },
    {
      "id": 200,
      "shopId": "1570",
      "name": "녹번",
      "address": "서울 은평구 녹번동 82-47",
      "roadAddress": "서울 은평구 서오릉로 26",
      "region": "서울",
      "district": "은평구",
      "phone": "02-359-9200",
      "lat": 37.6034750182875,
      "lng": 126.925783055997
    },
    {
      "id": 201,
      "shopId": "749",
      "name": "대조",
      "address": "서울특별시 은평구 대조동 231",
      "roadAddress": "서울 은평구 서오릉로 94",
      "region": "서울특별시",
      "district": "은평구",
      "phone": "02-355-6173~4",
      "lat": 37.609031353119,
      "lng": 126.9217710449
    },
    {
      "id": 202,
      "shopId": "1201",
      "name": "불광1동",
      "address": "서울 은평구 불광동 554-1 라비앙프라자1층 101호",
      "roadAddress": "서울 은평구 불광로 60 (불광동,라비앙프라자1층 101호)",
      "region": "서울",
      "district": "은평구",
      "phone": "02-354-8592",
      "lat": 37.6123769978684,
      "lng": 126.932107684448
    },
    {
      "id": 203,
      "shopId": "985",
      "name": "신사1동",
      "address": "서울 은평구 신사동 29-13",
      "roadAddress": "서울 은평구 은평로 22",
      "region": "서울",
      "district": "은평구",
      "phone": "02-375-8295",
      "lat": 37.5977377755288,
      "lng": 126.910569654841
    },
    {
      "id": 204,
      "shopId": "752",
      "name": "역촌1호",
      "address": "서울 은평구 역촌동 55-1",
      "roadAddress": "서울 은평구 역말로 8",
      "region": "서울",
      "district": "은평구",
      "phone": "02-356-4326~7",
      "lat": 37.6053569840705,
      "lng": 126.911144898302
    },
    {
      "id": 205,
      "shopId": "1191",
      "name": "연신내",
      "address": "서울 은평구 불광동 484-72",
      "roadAddress": "서울 은평구 통일로 866-1",
      "region": "서울",
      "district": "은평구",
      "phone": "02-382-1990",
      "lat": 37.6204534089883,
      "lng": 126.92049224652
    },
    {
      "id": 206,
      "shopId": "1119",
      "name": "은평뉴타운",
      "address": "서울 은평구 진관동 22 은평뉴타운상가 914-103호",
      "roadAddress": "서울특별시 은평구 진관3로 67 (진관동,은평뉴타운상가 914-103호)",
      "region": "서울",
      "district": "은평구",
      "phone": "02-359-9288",
      "lat": 37.6427418080124,
      "lng": 126.920884329286
    },
    {
      "id": 207,
      "shopId": "799",
      "name": "응암1동",
      "address": "서울 은평구 응암동 236-33",
      "roadAddress": "서울 은평구 백련산로 85(응암동)",
      "region": "서울",
      "district": "은평구",
      "phone": "02-389-9327",
      "lat": 37.5932379279702,
      "lng": 126.922921697141
    },
    {
      "id": 208,
      "shopId": "1689",
      "name": "응암오거리",
      "address": "서울 은평구 응암동 595-51",
      "roadAddress": "서울 은평구 응암로9길 13-1",
      "region": "서울",
      "district": "은평구",
      "phone": "02-303-6882",
      "lat": 37.587484012627,
      "lng": 126.914795926658
    },
    {
      "id": 209,
      "shopId": "275",
      "name": "증산(서울)",
      "address": "서울 은평구 증산동 209-18",
      "roadAddress": "서울 은평구 증산서길 65",
      "region": "서울",
      "district": "은평구",
      "phone": "02-376-9999",
      "lat": 37.5826404088071,
      "lng": 126.905502123367
    },
    {
      "id": 210,
      "shopId": "724",
      "name": "대학로",
      "address": "서울 종로구 명륜동4가 113-1",
      "roadAddress": "서울특별시 종로구 대학로11길 23",
      "region": "서울",
      "district": "종로구",
      "phone": "02-3672-9292",
      "lat": 37.5820799726622,
      "lng": 127.000480025927
    },
    {
      "id": 211,
      "shopId": "984",
      "name": "숭인",
      "address": "서울 종로구 숭인2동 183-13",
      "roadAddress": "서울 종로구 종로 385",
      "region": "서울",
      "district": "종로구",
      "phone": "02-765-5800",
      "lat": 37.574610826853,
      "lng": 127.020077569319
    },
    {
      "id": 212,
      "shopId": "1611",
      "name": "안국",
      "address": "서울 종로구 화동 138-7",
      "roadAddress": "서울 종로구 북촌로5길 43",
      "region": "서울",
      "district": "종로구",
      "phone": "02-734-9992",
      "lat": 37.5793394819854,
      "lng": 126.98254592351
    },
    {
      "id": 213,
      "shopId": "1532",
      "name": "종로1호",
      "address": "서울 종로구 관철동 13-13",
      "roadAddress": "서울 종로구 종로12길 15",
      "region": "서울",
      "district": "종로구",
      "phone": "02-737-9292",
      "lat": 37.5693679178965,
      "lng": 126.986045392158
    },
    {
      "id": 214,
      "shopId": "1690",
      "name": "평창",
      "address": "서울 종로구 평창동 158-1",
      "roadAddress": "서울 종로구 평창문화로 75",
      "region": "서울",
      "district": "종로구",
      "phone": "02-396-7942",
      "lat": 37.6068210649059,
      "lng": 126.9692177715
    },
    {
      "id": 215,
      "shopId": "508",
      "name": "동대문1호",
      "address": "서울 중구 창신동 464-6",
      "roadAddress": "서울 종로구 종로 294",
      "region": "서울",
      "district": "중구",
      "phone": "02-2231-9337",
      "lat": 37.5712639503972,
      "lng": 127.010717519182
    },
    {
      "id": 216,
      "shopId": "1527",
      "name": "서울시청",
      "address": "서울 중구 태평로2가 55",
      "roadAddress": "서울 중구 세종대로 18길 6",
      "region": "서울",
      "district": "중구",
      "phone": "02-318-1992",
      "lat": 37.5637371471553,
      "lng": 126.977349238217
    },
    {
      "id": 217,
      "shopId": "750",
      "name": "신당1호",
      "address": "서울 중구 신당동 846",
      "roadAddress": "서울 중구 다산로 42나길 46",
      "region": "서울",
      "district": "중구",
      "phone": "02-2237-9952~3",
      "lat": 37.5623973725096,
      "lng": 127.017280913393
    },
    {
      "id": 218,
      "shopId": "1493",
      "name": "약수",
      "address": "서울 중구 신당동 374-14",
      "roadAddress": "서울 중구 다산로 137-1",
      "region": "서울",
      "district": "중구",
      "phone": "02-2233-9917",
      "lat": 37.5561812284644,
      "lng": 127.011177110521
    },
    {
      "id": 219,
      "shopId": "1259",
      "name": "망우본동",
      "address": "서울 중랑구 망우동 251-2",
      "roadAddress": "서울 중랑구 양원역로 78",
      "region": "서울",
      "district": "중랑구",
      "phone": "02-433-1993",
      "lat": 37.6070805411035,
      "lng": 127.10593060852
    },
    {
      "id": 220,
      "shopId": "681",
      "name": "면목1호",
      "address": "서울 중랑구 면목동 103-6",
      "roadAddress": "서울 중랑구 겸재로 201",
      "region": "서울",
      "district": "중랑구",
      "phone": "02-494-9962~3",
      "lat": 37.5891537351856,
      "lng": 127.089935697107
    },
    {
      "id": 221,
      "shopId": "818",
      "name": "면목2호",
      "address": "서울 중랑구 면목2동 191-126",
      "roadAddress": "서울 중랑구 중랑천로 50",
      "region": "서울",
      "district": "중랑구",
      "phone": "02-494-6282,496-6282",
      "lat": 37.589711834897,
      "lng": 127.073646207506
    },
    {
      "id": 222,
      "shopId": "1159",
      "name": "묵동",
      "address": "서울 중랑구 묵동 175-2",
      "roadAddress": "서울 중랑구 동일로 920",
      "region": "서울",
      "district": "중랑구",
      "phone": "02-948-1992",
      "lat": 37.6125944730494,
      "lng": 127.077578498306
    },
    {
      "id": 223,
      "shopId": "942",
      "name": "사가정역",
      "address": "서울 중랑구 면목동 496-14",
      "roadAddress": "서울 중랑구 면목로 45길3-4",
      "region": "서울",
      "district": "중랑구",
      "phone": "02-2207-6543",
      "lat": 37.5815202015687,
      "lng": 127.088214170534
    },
    {
      "id": 224,
      "shopId": "121",
      "name": "상봉1호",
      "address": "서울 중랑구 상봉동 91-1",
      "roadAddress": "서울시 중랑구 망우로 326",
      "region": "서울",
      "district": "중랑구",
      "phone": "02-491-9738,9",
      "lat": 37.5967813322755,
      "lng": 127.088649118365
    },
    {
      "id": 225,
      "shopId": "410",
      "name": "신내1호",
      "address": "서울 중랑구 신내동 797",
      "roadAddress": "서울 중랑구 신내로14길 21",
      "region": "서울",
      "district": "중랑구",
      "phone": "02-2209-9980",
      "lat": 37.6060544878653,
      "lng": 127.097141297689
    },
    {
      "id": 226,
      "shopId": "1560",
      "name": "중화",
      "address": "서울 중랑구 중화동 304-34",
      "roadAddress": "서울 중랑구 동일로 129길 16",
      "region": "서울",
      "district": "중랑구",
      "phone": "02-433-1992",
      "lat": 37.5995869817655,
      "lng": 127.078792513755
    },
    {
      "id": 227,
      "shopId": "1388",
      "name": "국제신도시",
      "address": "부산 강서구 명지동 3412-6",
      "roadAddress": "부산 강서구 명지국제8로 246",
      "region": "부산",
      "district": "강서구",
      "phone": "051-291-9993",
      "lat": 35.0977305030311,
      "lng": 128.919624650676
    },
    {
      "id": 228,
      "shopId": "1656",
      "name": "명지법원네오",
      "address": "부산 강서구 명지동 3432-1 2동 102호",
      "roadAddress": "부산 강서구 명제국제2로 28번길 23, 2동 102호",
      "region": "부산",
      "district": "강서구",
      "phone": "051-201-1991",
      "lat": 35.0935623455617,
      "lng": 128.910260416124
    },
    {
      "id": 229,
      "shopId": "1145",
      "name": "명지신도시",
      "address": "부산 강서구 명지동 3256-5",
      "roadAddress": "부산 강서구 명지오션시티8로30번길 26",
      "region": "부산",
      "district": "강서구",
      "phone": "051-271-7725",
      "lat": 35.0858859037317,
      "lng": 128.909764727715
    },
    {
      "id": 230,
      "shopId": "1417",
      "name": "신호",
      "address": "부산 강서구 신호동 317-15",
      "roadAddress": "부산 강서구 신호산단1로 76",
      "region": "부산",
      "district": "강서구",
      "phone": "051-941-9207",
      "lat": 35.082148707396,
      "lng": 128.872731448036
    },
    {
      "id": 231,
      "shopId": "1857",
      "name": "에코델타시티1호",
      "address": "부산 강서구 강동동 4998-4",
      "roadAddress": "부산 강서구 에코델타1로 24",
      "region": "부산",
      "district": "강서구",
      "phone": "051-973-7835",
      "lat": 35.1423918766982,
      "lng": 128.915038508784
    },
    {
      "id": 232,
      "shopId": "1448",
      "name": "지사",
      "address": "부산 강서구 지사동 1191-5",
      "roadAddress": "부산 강서구 과학산단로 334번길 8",
      "region": "부산",
      "district": "강서구",
      "phone": "051-831-6880",
      "lat": 35.1494876861787,
      "lng": 128.83306566741
    },
    {
      "id": 233,
      "shopId": "261",
      "name": "구서1호",
      "address": "부산 금정구 구서2동 1024-1",
      "roadAddress": "부산 금정구 금강로565번길 25",
      "region": "부산",
      "district": "금정구",
      "phone": "051-516-8600",
      "lat": 35.2580102333053,
      "lng": 129.08624653278
    },
    {
      "id": 234,
      "shopId": "1775",
      "name": "구서역",
      "address": "부산 금정구 구서동 457-23",
      "roadAddress": "부산 금정구 금강로 420",
      "region": "부산",
      "district": "금정구",
      "phone": "051-583-2661",
      "lat": 35.2449934011511,
      "lng": 129.088751704006
    },
    {
      "id": 235,
      "shopId": "229",
      "name": "남산1호",
      "address": "부산 금정구 남산동 99-6",
      "roadAddress": "부산 금정구 금강로 678-1",
      "region": "부산",
      "district": "금정구",
      "phone": "051-581-9968,9264",
      "lat": 35.2679748294539,
      "lng": 129.089288572208
    },
    {
      "id": 236,
      "shopId": "253",
      "name": "부곡1호",
      "address": "부산 금정구 부곡동 23-15",
      "roadAddress": "부산 금정구 무학송로 127",
      "region": "부산",
      "district": "금정구",
      "phone": "051-517-3009",
      "lat": 35.2424368471745,
      "lng": 129.093641932234
    },
    {
      "id": 237,
      "shopId": "1090",
      "name": "부곡2호",
      "address": "부산 금정구 부곡1동 324-20",
      "roadAddress": "부산 금정구 부곡로 92",
      "region": "부산",
      "district": "금정구",
      "phone": "051-516-0111",
      "lat": 35.2240127446509,
      "lng": 129.091411302966
    },
    {
      "id": 238,
      "shopId": "1337",
      "name": "부산대",
      "address": "부산 금정구 금강로 장전동 418-13",
      "roadAddress": "부산 금정구 금강로 270",
      "region": "부산",
      "district": "금정구",
      "phone": "051-582-8588",
      "lat": 35.2320892819705,
      "lng": 129.085433047253
    },
    {
      "id": 239,
      "shopId": "427",
      "name": "서동1호",
      "address": "부산 금정구 서동 210-6",
      "roadAddress": "부산 금정구 서동로 182",
      "region": "부산",
      "district": "금정구",
      "phone": "051-526-8292",
      "lat": 35.2142229131685,
      "lng": 129.106361526688
    },
    {
      "id": 240,
      "shopId": "325",
      "name": "장전1호",
      "address": "부산 금정구 장전동 134-19",
      "roadAddress": "부산 금정구 금강로 335번길 48",
      "region": "부산",
      "district": "금정구",
      "phone": "051-514-8200",
      "lat": 35.2379572404486,
      "lng": 129.083777572101
    },
    {
      "id": 241,
      "shopId": "296",
      "name": "기장",
      "address": "부산 기장군 기장읍 동부리 134-2",
      "roadAddress": "부산 기장군 기장읍 차성로338번길 1층",
      "region": "부산",
      "district": "기장군",
      "phone": "051-722-9945",
      "lat": 35.2475908725016,
      "lng": 129.214318446814
    },
    {
      "id": 242,
      "shopId": "1702",
      "name": "일광신도시",
      "address": "부산 기장군 일광면 삼성리 833-4",
      "roadAddress": "부산 기장군 일광면 해빛6로 43-19",
      "region": "부산",
      "district": "기장군",
      "phone": "051-721-9400",
      "lat": 35.2647785682542,
      "lng": 129.225382665588
    },
    {
      "id": 243,
      "shopId": "1148",
      "name": "정관1호",
      "address": "부산 기장군 정관읍 매학리 751-1",
      "roadAddress": "부산 기장군 정관읍 구연로 22",
      "region": "부산",
      "district": "기장군",
      "phone": "051-728-9233",
      "lat": 35.321662311398,
      "lng": 129.181680251199
    },
    {
      "id": 244,
      "shopId": "1390",
      "name": "정관2호",
      "address": "부산 기장군 모전리 747-7",
      "roadAddress": "부산 기장군 정관읍 모전3길 2",
      "region": "부산",
      "district": "기장군",
      "phone": "051-728-5399",
      "lat": 35.3347614639483,
      "lng": 129.168384443279
    },
    {
      "id": 245,
      "shopId": "211",
      "name": "대연1호",
      "address": "부산 남구 대연동 1013-8",
      "roadAddress": "부산 남구 유엔로 126-1",
      "region": "부산",
      "district": "남구",
      "phone": "051-639-9292",
      "lat": 35.1300073604968,
      "lng": 129.089986778463
    },
    {
      "id": 246,
      "shopId": "238",
      "name": "대연2호",
      "address": "부산 남구 대연동 52-7",
      "roadAddress": "부산 남구 용소로 13번길 26",
      "region": "부산",
      "district": "남구",
      "phone": "051-621-4800",
      "lat": 35.1366685584378,
      "lng": 129.102079379174
    },
    {
      "id": 247,
      "shopId": "1572",
      "name": "대연3호",
      "address": "부산 남구 대연동 1161-9",
      "roadAddress": "부산 남구 석포로 83",
      "region": "부산",
      "district": "남구",
      "phone": "051-622-1991",
      "lat": 35.1254619304902,
      "lng": 129.088940465975
    },
    {
      "id": 248,
      "shopId": "1421",
      "name": "못골",
      "address": "부산 남구 대연동 1543-33",
      "roadAddress": "부산 남구 진남로 78",
      "region": "부산",
      "district": "남구",
      "phone": "051-637-7733",
      "lat": 35.1382119318583,
      "lng": 129.08682645764
    },
    {
      "id": 249,
      "shopId": "1549",
      "name": "문현1호",
      "address": "부산 남구 문현동 359-5",
      "roadAddress": "부산 남구 수영로 30-1",
      "region": "부산",
      "district": "남구",
      "phone": "051-634-8292",
      "lat": 35.1364003532844,
      "lng": 129.071404512855
    },
    {
      "id": 250,
      "shopId": "499",
      "name": "용호1호",
      "address": "부산 남구 용호동 555-19",
      "roadAddress": "부산 남구 용호로 244-1",
      "region": "부산",
      "district": "남구",
      "phone": "051-626-3999",
      "lat": 35.1103764056037,
      "lng": 129.11099284067
    },
    {
      "id": 251,
      "shopId": "1774",
      "name": "용호2호",
      "address": "부산 남구 동명로 126",
      "roadAddress": "부산 남구 동명로 126",
      "region": "부산",
      "district": "남구",
      "phone": "051-715-7542",
      "lat": 35.1197848496929,
      "lng": 129.11073955864
    },
    {
      "id": 252,
      "shopId": "1770",
      "name": "용호2호",
      "address": "부산 남구 용호동 396-1",
      "roadAddress": "부산 남구 동명로 126",
      "region": "부산",
      "district": "남구",
      "phone": "051-715-7542",
      "lat": 35.1197355518418,
      "lng": 129.110708783127
    },
    {
      "id": 253,
      "shopId": "268",
      "name": "범일1호",
      "address": "부산 동구 범일동 833-2",
      "roadAddress": "부산 동구 조방로 49번길 10",
      "region": "부산",
      "district": "동구",
      "phone": "051-642-8558",
      "lat": 35.1399340661182,
      "lng": 129.059922265936
    },
    {
      "id": 254,
      "shopId": "212",
      "name": "수정1호",
      "address": "부산 동구 수정동 844-25",
      "roadAddress": "부산 동구 수정로 20-2",
      "region": "부산",
      "district": "동구",
      "phone": "051-469-8880",
      "lat": 35.1281958839396,
      "lng": 129.044860732407
    },
    {
      "id": 255,
      "shopId": "912",
      "name": "초량",
      "address": "부산 동구 초량동 132-1",
      "roadAddress": "부산 동구 초량상로 102",
      "region": "부산",
      "district": "동구",
      "phone": "051-441-9994",
      "lat": 35.1205880024867,
      "lng": 129.039408805259
    },
    {
      "id": 256,
      "shopId": "458",
      "name": "명륜(부산)",
      "address": "부산 동래구 명륜동 644-9",
      "roadAddress": "부산 동래구 동래로 79번길 15",
      "region": "부산",
      "district": "동래구",
      "phone": "051-555-9224",
      "lat": 35.2089640566714,
      "lng": 129.081466658808
    },
    {
      "id": 257,
      "shopId": "217",
      "name": "명장1호",
      "address": "부산 동래구 명장동 26-24번지 국제아파트 상가 106호",
      "roadAddress": "부산 동래구 충렬사로 81, 국제파크 상가 106호",
      "region": "부산",
      "district": "동래구",
      "phone": "051-525-9233,9345",
      "lat": 35.2055749284023,
      "lng": 129.099756884897
    },
    {
      "id": 258,
      "shopId": "907",
      "name": "복천",
      "address": "부산 동래구 복천동 476-1",
      "roadAddress": "부산 동래구 동래로 128",
      "region": "부산",
      "district": "동래구",
      "phone": "051-555-8592,556-8592",
      "lat": 35.2058516073186,
      "lng": 129.085631301199
    },
    {
      "id": 259,
      "shopId": "208",
      "name": "사직1호(부산)",
      "address": "부산 동래구 사직동 137-26",
      "roadAddress": "부산 동래구 미남로 64",
      "region": "부산",
      "district": "동래구",
      "phone": "051-505-9289",
      "lat": 35.1998551156556,
      "lng": 129.070375048759
    },
    {
      "id": 260,
      "shopId": "551",
      "name": "사직2호",
      "address": "부산 동래구 사직동 89-16",
      "roadAddress": "부산 동래구 사직로 60",
      "region": "부산",
      "district": "동래구",
      "phone": "051-501-9995",
      "lat": 35.1956263436798,
      "lng": 129.059255125254
    },
    {
      "id": 261,
      "shopId": "1462",
      "name": "수안",
      "address": "부산 동래구 수안동 192-4",
      "roadAddress": "부산 동래구 명륜로 78-1",
      "region": "부산",
      "district": "동래구",
      "phone": "051-557-1990",
      "lat": 35.201010569352,
      "lng": 129.084378862652
    },
    {
      "id": 262,
      "shopId": "362",
      "name": "안락2호",
      "address": "부산 동래구 안락동 599-36",
      "roadAddress": "부산 동래구 충렬대로428번길 39",
      "region": "부산",
      "district": "동래구",
      "phone": "051-526-7171",
      "lat": 35.1946676919207,
      "lng": 129.104458269596
    },
    {
      "id": 263,
      "shopId": "236",
      "name": "온천1호",
      "address": "부산 동래구 온천동 210-46",
      "roadAddress": "부산 동래구 금강공원로 29-2",
      "region": "부산",
      "district": "동래구",
      "phone": "051-555-2016,2017",
      "lat": 35.2188463854207,
      "lng": 129.081223344019
    },
    {
      "id": 264,
      "shopId": "447",
      "name": "온천2호",
      "address": "부산 동래구 온천동 1411-47",
      "roadAddress": "부산 동래구 아시아드대로 212-1",
      "region": "부산",
      "district": "동래구",
      "phone": "051-506-4949",
      "lat": 35.2029725947381,
      "lng": 129.066656092979
    },
    {
      "id": 265,
      "shopId": "1009",
      "name": "가야",
      "address": "부산 부산진구 가야동 478",
      "roadAddress": "부산 부산진구 엄광로 143",
      "region": "부산",
      "district": "부산진구",
      "phone": "051-894-9909",
      "lat": 35.1476908266723,
      "lng": 129.030704862534
    },
    {
      "id": 266,
      "shopId": "204",
      "name": "개금1호",
      "address": "부산 부산진구 개금동 2-1",
      "roadAddress": "부산 부산진구 백양대로 208번길 90",
      "region": "부산",
      "district": "부산진구",
      "phone": "051-894-6071,6072",
      "lat": 35.1616134289451,
      "lng": 129.025889000325
    },
    {
      "id": 267,
      "shopId": "542",
      "name": "개금역",
      "address": "부산 부산진구 개금동 523-17",
      "roadAddress": "부산 부산진구 복지로 22-2",
      "region": "부산",
      "district": "부산진구",
      "phone": "051-894-8292",
      "lat": 35.1513247004189,
      "lng": 129.020002231846
    },
    {
      "id": 268,
      "shopId": "477",
      "name": "당감",
      "address": "부산 부산진구 당감동 411-1",
      "roadAddress": "부산 부산진구 동평로77",
      "region": "부산",
      "district": "부산진구",
      "phone": "051-891-9979,9980",
      "lat": 35.1654806404905,
      "lng": 129.037912165293
    },
    {
      "id": 269,
      "shopId": "1241",
      "name": "범천",
      "address": "부산 부산진구 범천동 1278-11",
      "roadAddress": "부산 부산진구 신암로 55-1",
      "region": "부산",
      "district": "부산진구",
      "phone": "051-637-9982",
      "lat": 35.1467703576102,
      "lng": 129.055144225679
    },
    {
      "id": 270,
      "shopId": "1571",
      "name": "부암1호",
      "address": "부산 부산진구 부암동 301-33",
      "roadAddress": "부산 부산진구 동평로 184",
      "region": "부산",
      "district": "부산진구",
      "phone": "051-808-6060",
      "lat": 35.1668402255992,
      "lng": 129.049025181543
    },
    {
      "id": 271,
      "shopId": "1092",
      "name": "서면",
      "address": "부산 부산진구 부전동 266-24",
      "roadAddress": "부산 부산진구 중앙대로 745-1",
      "region": "부산",
      "district": "부산진구",
      "phone": "051-808-9981",
      "lat": 35.1592799291573,
      "lng": 129.059940412523
    },
    {
      "id": 272,
      "shopId": "54",
      "name": "양정",
      "address": "부산 부산진구 양정동 310-6",
      "roadAddress": "부산 부산진구 연수로 13-1",
      "region": "부산",
      "district": "부산진구",
      "phone": "051-853-5458",
      "lat": 35.1737057856019,
      "lng": 129.072820438401
    },
    {
      "id": 273,
      "shopId": "347",
      "name": "연지",
      "address": "부산 부산진구 연지동 40-12",
      "roadAddress": "부산 부산진구 동평로 299",
      "region": "부산",
      "district": "부산진구",
      "phone": "051-807-7701~2",
      "lat": 35.1723177122873,
      "lng": 129.059359738516
    },
    {
      "id": 274,
      "shopId": "1705",
      "name": "전포1호",
      "address": "부산 부산진구 전포동 337-20",
      "roadAddress": "부산 부산진구 전포대로 200번길 43",
      "region": "부산",
      "district": "부산진구",
      "phone": "051-808-5592",
      "lat": 35.1546429125205,
      "lng": 129.067930245502
    },
    {
      "id": 275,
      "shopId": "316",
      "name": "초읍대공원",
      "address": "부산 부산진구 초읍동 288-6",
      "roadAddress": "부산 부산진구 새싹로 274-1",
      "region": "부산",
      "district": "부산진구",
      "phone": "051-807-3492,3498",
      "lat": 35.180582016589,
      "lng": 129.0474822473
    },
    {
      "id": 276,
      "shopId": "357",
      "name": "구포1호",
      "address": "부산 북구 구포3동 1228-1",
      "roadAddress": "부산 북구 시랑로101번길 38, A동 100호",
      "region": "부산",
      "district": "북구",
      "phone": "051-363-9992,5793",
      "lat": 35.1983475582151,
      "lng": 129.008427296128
    },
    {
      "id": 277,
      "shopId": "1738",
      "name": "구포2호",
      "address": "부산 북구 구포동 932-35",
      "roadAddress": "부산 북구 백양대로 1061",
      "region": "부산",
      "district": "북구",
      "phone": "051-341-1992",
      "lat": 35.2000429692594,
      "lng": 128.997051927961
    },
    {
      "id": 278,
      "shopId": "1621",
      "name": "금곡(부산)",
      "address": "부산 북구 금곡동 57-6",
      "roadAddress": "부산 북구 효열로 228",
      "region": "부산",
      "district": "북구",
      "phone": "051-365-1991",
      "lat": 35.2640595163269,
      "lng": 129.020049673781
    },
    {
      "id": 279,
      "shopId": "1008",
      "name": "덕천2호",
      "address": "부산 북구 덕천3동 781-2",
      "roadAddress": "부산 북구 덕천로 135",
      "region": "부산",
      "district": "북구",
      "phone": "051-331-3179,343-3171",
      "lat": 35.2107596265309,
      "lng": 129.019186255273
    },
    {
      "id": 280,
      "shopId": "1515",
      "name": "덕천역",
      "address": "부산 북구 덕천동 402-12",
      "roadAddress": "부산 북구 덕천2길 41",
      "region": "부산",
      "district": "북구",
      "phone": "051-336-1991",
      "lat": 35.2096052127254,
      "lng": 129.007540706087
    },
    {
      "id": 281,
      "shopId": "1602",
      "name": "만덕1호",
      "address": "부산 북구 만덕동 294",
      "roadAddress": "부산 북구 만덕2로 3",
      "region": "부산",
      "district": "북구",
      "phone": "051-341-7771",
      "lat": 35.21227069738,
      "lng": 129.036488224391
    },
    {
      "id": 282,
      "shopId": "959",
      "name": "만덕2호",
      "address": "부산 북구 만덕3동 915-6",
      "roadAddress": "부산 북구 만덕3로 44-1",
      "region": "부산",
      "district": "북구",
      "phone": "051-337-4300",
      "lat": 35.2116124261132,
      "lng": 129.028545074003
    },
    {
      "id": 283,
      "shopId": "203",
      "name": "화명1호",
      "address": "부산 북구 화명동 749",
      "roadAddress": "부산 북구 화명대로 108",
      "region": "부산",
      "district": "북구",
      "phone": "051-338-9933",
      "lat": 35.2348586252776,
      "lng": 129.020646052987
    },
    {
      "id": 284,
      "shopId": "851",
      "name": "화명3호",
      "address": "부산 북구 화명동 182-5(2층)",
      "roadAddress": "부산 북구 금곡대로 414, 2층",
      "region": "부산",
      "district": "북구",
      "phone": "051-362-7770",
      "lat": 35.2452281166683,
      "lng": 129.013076298967
    },
    {
      "id": 285,
      "shopId": "432",
      "name": "화명신도시",
      "address": "부산 북구 화명동 2266-1",
      "roadAddress": "부산 북구 금곡대로 303번길 94",
      "region": "부산",
      "district": "북구",
      "phone": "051-342-9282",
      "lat": 35.2362318328097,
      "lng": 129.008684493937
    },
    {
      "id": 286,
      "shopId": "534",
      "name": "괘법",
      "address": "부산 사상구 괘법동 516-1",
      "roadAddress": "부산 사상구 운산로 36",
      "region": "부산",
      "district": "사상구",
      "phone": "051-325-0090",
      "lat": 35.1677708208443,
      "lng": 128.980528328819
    },
    {
      "id": 287,
      "shopId": "424",
      "name": "덕포",
      "address": "부산 사상구 덕포동 767-10",
      "roadAddress": "부산 사상구 백양대로 770-1",
      "region": "부산",
      "district": "사상구",
      "phone": "051-303-5592",
      "lat": 35.1757189389617,
      "lng": 128.988680664709
    },
    {
      "id": 288,
      "shopId": "1425",
      "name": "동서대",
      "address": "부산 사상구 주례동 55-176",
      "roadAddress": "부산 사상구 냉정로 125",
      "region": "부산",
      "district": "사상구",
      "phone": "051-325-2827",
      "lat": 35.1497663834574,
      "lng": 129.013692742718
    },
    {
      "id": 289,
      "shopId": "469",
      "name": "모라",
      "address": "부산 사상구 모라동 1349-4",
      "roadAddress": "부산 사상구 백양대로 937",
      "region": "부산",
      "district": "사상구",
      "phone": "051-322-9998",
      "lat": 35.189951017072,
      "lng": 128.991325880772
    },
    {
      "id": 290,
      "shopId": "317",
      "name": "신주례",
      "address": "부산 사상구 주례2동 3-17",
      "roadAddress": "부산 사상구 백양대로 328",
      "region": "부산",
      "district": "사상구",
      "phone": "051-315-9977,324-2626",
      "lat": 35.1538862641214,
      "lng": 129.015659632523
    },
    {
      "id": 291,
      "shopId": "360",
      "name": "엄궁",
      "address": "부산 사상구 엄궁동 40-94",
      "roadAddress": "부산 사상구 엄궁북로 39",
      "region": "부산",
      "district": "사상구",
      "phone": "051-311-7599,7598",
      "lat": 35.1282998823493,
      "lng": 128.974745401148
    },
    {
      "id": 292,
      "shopId": "318",
      "name": "학장",
      "address": "부산 사상구 학장동 산149-16",
      "roadAddress": "부산 사상구 대동로 69",
      "region": "부산",
      "district": "사상구",
      "phone": "051-313-9925",
      "lat": 35.1368859737854,
      "lng": 128.976171495261
    },
    {
      "id": 293,
      "shopId": "282",
      "name": "괴정1호",
      "address": "부산 사하구 괴정동 487-24",
      "roadAddress": "부산 사하구 괴정로 288",
      "region": "부산",
      "district": "사하구",
      "phone": "051-202-9951",
      "lat": 35.0963634478415,
      "lng": 128.992711675452
    },
    {
      "id": 294,
      "shopId": "174",
      "name": "다대1호",
      "address": "부산 사하구 다대동 926-7",
      "roadAddress": "부산 사하구 윤공단로 140",
      "region": "부산",
      "district": "사하구",
      "phone": "051-265-4446",
      "lat": 35.0610327194194,
      "lng": 128.973621352445
    },
    {
      "id": 295,
      "shopId": "322",
      "name": "다대2호",
      "address": "부산 사하구 다대동 1014",
      "roadAddress": "부산 사하구 윤공단로75번길 43 102호",
      "region": "부산",
      "district": "사하구",
      "phone": "051-266-8806",
      "lat": 35.0586297357103,
      "lng": 128.965946245842
    },
    {
      "id": 296,
      "shopId": "412",
      "name": "당리괴정2호",
      "address": "부산 사하구 괴정동 577-42",
      "roadAddress": "부산 사하구 낙동대로 310",
      "region": "부산",
      "district": "사하구",
      "phone": "051-207-9242",
      "lat": 35.0999991427388,
      "lng": 128.983352365139
    },
    {
      "id": 297,
      "shopId": "397",
      "name": "신평1호",
      "address": "부산 사하구 신평동 262-20",
      "roadAddress": "부산 사하구 장평로 282",
      "region": "부산",
      "district": "사하구",
      "phone": "051-294-8853~4",
      "lat": 35.0914149370322,
      "lng": 128.973495291673
    },
    {
      "id": 298,
      "shopId": "445",
      "name": "장림",
      "address": "부산 사하구 장림동 590",
      "roadAddress": "부산 사하구 장평로 111",
      "region": "부산",
      "district": "사하구",
      "phone": "051-266-1182",
      "lat": 35.0759782535466,
      "lng": 128.972457440266
    },
    {
      "id": 299,
      "shopId": "256",
      "name": "하단1호",
      "address": "부산 사하구 하단동 505-8",
      "roadAddress": "부산 사하구 낙동대로 511",
      "region": "부산",
      "district": "사하구",
      "phone": "051-202-4780~1",
      "lat": 35.110058256289,
      "lng": 128.966202794194
    },
    {
      "id": 300,
      "shopId": "353",
      "name": "하단2호",
      "address": "부산 사하구 하단동 605-42",
      "roadAddress": "부산 사하구 동매로 31-1",
      "region": "부산",
      "district": "사하구",
      "phone": "051-292-8592",
      "lat": 35.1037149185344,
      "lng": 128.961914030464
    },
    {
      "id": 301,
      "shopId": "506",
      "name": "남부민",
      "address": "부산 서구 충무동2가 3-1",
      "roadAddress": "부산 서구 천마로 224",
      "region": "부산",
      "district": "서구",
      "phone": "051-247-9282",
      "lat": 35.0954581982202,
      "lng": 129.022553298626
    },
    {
      "id": 302,
      "shopId": "501",
      "name": "대신",
      "address": "부산 서구 서대신동1가 163-1",
      "roadAddress": "부산 서구 대영로 30",
      "region": "부산",
      "district": "서구",
      "phone": "051-231-9992~3",
      "lat": 35.1093913110355,
      "lng": 129.014772676247
    },
    {
      "id": 303,
      "shopId": "464",
      "name": "송도감천",
      "address": "부산 서구 암남동 64-2 상가동 108호,109호(암남동)",
      "roadAddress": "부산 서구 감천로 271, 상가동 108호,109호(암남동)",
      "region": "부산",
      "district": "서구",
      "phone": "051-231-9292",
      "lat": 35.0812584009957,
      "lng": 129.017194801219
    },
    {
      "id": 304,
      "shopId": "1045",
      "name": "아미부민",
      "address": "부산 서구 부민동1가 11-3",
      "roadAddress": "부산 서구 보수대로 99",
      "region": "부산",
      "district": "서구",
      "phone": "051-242-3651",
      "lat": 35.1045812582619,
      "lng": 129.021068036677
    },
    {
      "id": 305,
      "shopId": "1764",
      "name": "광안1호",
      "address": "부산 수영구 광안동 120-13",
      "roadAddress": "부산 수영구 무학로 30-4",
      "region": "부산",
      "district": "수영구",
      "phone": "051-754-9210",
      "lat": 35.1613620506096,
      "lng": 129.117006408145
    },
    {
      "id": 306,
      "shopId": "492",
      "name": "광안2호",
      "address": "부산 수영구 광안동 168-3",
      "roadAddress": "부산 수영구 수영로 538",
      "region": "부산",
      "district": "수영구",
      "phone": "051-754-2092,756-2092",
      "lat": 35.1537013361814,
      "lng": 129.112383922428
    },
    {
      "id": 307,
      "shopId": "1832",
      "name": "남천",
      "address": "부산 수영구 남천동 17-12",
      "roadAddress": "부산 수영구 남천동로 10번길 15",
      "region": "부산",
      "district": "수영구",
      "phone": "051-611-9289",
      "lat": 35.1422721850921,
      "lng": 129.109473024325
    },
    {
      "id": 308,
      "shopId": "311",
      "name": "망미1호",
      "address": "부산 수영구 망미동 419-31",
      "roadAddress": "부산 수영구 과정로 30",
      "region": "부산",
      "district": "수영구",
      "phone": "051-759-9925",
      "lat": 35.1740334339106,
      "lng": 129.108280757764
    },
    {
      "id": 309,
      "shopId": "382",
      "name": "민락(부산)",
      "address": "부산 수영구 민락동 165-15",
      "roadAddress": "부산 수영구 광남로 196-1",
      "region": "부산",
      "district": "수영구",
      "phone": "051-757-9294",
      "lat": 35.1582142986308,
      "lng": 129.120840072495
    },
    {
      "id": 310,
      "shopId": "582",
      "name": "수영",
      "address": "부산 수영구 수영동 503-23",
      "roadAddress": "부산 수영구 수영로 735",
      "region": "부산",
      "district": "수영구",
      "phone": "051-761-4992",
      "lat": 35.1685707134231,
      "lng": 129.119787749713
    },
    {
      "id": 311,
      "shopId": "453",
      "name": "거제법조",
      "address": "부산 연제구 거제동 891-14",
      "roadAddress": "부산 연제구 아시아드대로 95",
      "region": "부산",
      "district": "연제구",
      "phone": "051-505-5511",
      "lat": 35.1931568098938,
      "lng": 129.066563261964
    },
    {
      "id": 312,
      "shopId": "371",
      "name": "시청(부산)",
      "address": "부산 연제구 거제3동 34-19",
      "roadAddress": "부산 연제구 거제천로 147",
      "region": "부산",
      "district": "연제구",
      "phone": "051-851-9945",
      "lat": 35.1868514347402,
      "lng": 129.076421073279
    },
    {
      "id": 313,
      "shopId": "1568",
      "name": "연산1호",
      "address": "부산 연제구 연산동 479-9",
      "roadAddress": "부산 연제구 과정로 133  1층",
      "region": "부산",
      "district": "연제구",
      "phone": "051-757-3532",
      "lat": 35.1833483619466,
      "lng": 129.106846294249
    },
    {
      "id": 314,
      "shopId": "454",
      "name": "연산2호",
      "address": "부산광역시 연제구 연산동 586-1",
      "roadAddress": "부산광역시 연제구 중앙대로1150번길 26",
      "region": "부산광역시",
      "district": "연제구",
      "phone": "051-853-9980~1",
      "lat": 35.1901505043658,
      "lng": 129.082274176639
    },
    {
      "id": 315,
      "shopId": "470",
      "name": "연산3호",
      "address": "부산 연제구 연산동 2133-48",
      "roadAddress": "부산 연제구 연수로 199 1층",
      "region": "부산",
      "district": "연제구",
      "phone": "051-851-7211~2",
      "lat": 35.1740309420569,
      "lng": 129.092684946915
    },
    {
      "id": 316,
      "shopId": "579",
      "name": "대교남항",
      "address": "부산 영도구 남항동1가 82",
      "roadAddress": "부산 영도구 절영로 50",
      "region": "부산",
      "district": "영도구",
      "phone": "051-417-9999",
      "lat": 35.0901783326449,
      "lng": 129.03839339113
    },
    {
      "id": 317,
      "shopId": "471",
      "name": "동삼",
      "address": "부산 영도구 동삼동 219-146",
      "roadAddress": "부산 영도구 동삼로 105 1층",
      "region": "부산",
      "district": "영도구",
      "phone": "051-405-9995",
      "lat": 35.0828291038755,
      "lng": 129.071118798869
    },
    {
      "id": 318,
      "shopId": "1051",
      "name": "봉래영선",
      "address": "부산 영도구 영선동1가 12-10",
      "roadAddress": "부산 영도구 태종로 125-2",
      "region": "부산",
      "district": "영도구",
      "phone": "051-417-9288",
      "lat": 35.0913099594508,
      "lng": 129.043610011763
    },
    {
      "id": 319,
      "shopId": "414",
      "name": "청학",
      "address": "부산 영도구 청학동 8-11",
      "roadAddress": "부산 영도구 태종로 354",
      "region": "부산",
      "district": "영도구",
      "phone": "051-417-9996",
      "lat": 35.0951164245314,
      "lng": 129.063777185019
    },
    {
      "id": 320,
      "shopId": "1520",
      "name": "남포부평",
      "address": "부산 중구 중앙동1가 23-6",
      "roadAddress": "부산 중구 해관로 17-1",
      "region": "부산",
      "district": "중구",
      "phone": "051-253-7942",
      "lat": 35.1004479337156,
      "lng": 129.035637675604
    },
    {
      "id": 321,
      "shopId": "592",
      "name": "영주대청",
      "address": "부산 중구 대청동4가 82-13",
      "roadAddress": "부산 중구 중구로 70-1",
      "region": "부산",
      "district": "중구",
      "phone": "051-441-4942",
      "lat": 35.1037235215851,
      "lng": 129.029038761401
    },
    {
      "id": 322,
      "shopId": "1625",
      "name": "마린시티",
      "address": "부산 해운대구 우동 1434-2",
      "roadAddress": "부산 해운대구 마린시티1로 155(우동,해운대현대하이페리온)",
      "region": "부산",
      "district": "해운대구",
      "phone": "051-731-1929",
      "lat": 35.1572363816251,
      "lng": 129.148268445559
    },
    {
      "id": 323,
      "shopId": "337",
      "name": "반송(부산)",
      "address": "부산 해운대구 반송2동 216-150",
      "roadAddress": "부산 해운대구 윗반송로 51",
      "region": "부산",
      "district": "해운대구",
      "phone": "051-545-9289",
      "lat": 35.2296792929201,
      "lng": 129.154877833618
    },
    {
      "id": 324,
      "shopId": "227",
      "name": "반여1호",
      "address": "부산 해운대구 반여동 1628-5",
      "roadAddress": "부산 해운대구 반여로 108",
      "region": "부산",
      "district": "해운대구",
      "phone": "051-524-1991,1221",
      "lat": 35.2011168533375,
      "lng": 129.123676737229
    },
    {
      "id": 325,
      "shopId": "1817",
      "name": "센텀파크",
      "address": "부산 해운대구 센텀동로 102 117호",
      "roadAddress": "부산 해운대구 센텀동로 102 117호",
      "region": "부산",
      "district": "해운대구",
      "phone": "051-781-7999",
      "lat": 35.1765866865981,
      "lng": 129.126489620138
    },
    {
      "id": 326,
      "shopId": "497",
      "name": "송정(부산)",
      "address": "부산 해운대구 송정동 227-7",
      "roadAddress": "부산 해운대구 송정중앙로 34",
      "region": "부산",
      "district": "해운대구",
      "phone": "051-702-5006",
      "lat": 35.1821953725628,
      "lng": 129.20399874301
    },
    {
      "id": 327,
      "shopId": "274",
      "name": "우동벡스코",
      "address": "부산 해운대구 우동 1090-13",
      "roadAddress": "부산 해운대구 해운대로 381-3",
      "region": "부산",
      "district": "해운대구",
      "phone": "051-744-2474~5",
      "lat": 35.1694583585361,
      "lng": 129.13859462993
    },
    {
      "id": 328,
      "shopId": "283",
      "name": "재송1호",
      "address": "부산 해운대구 반여동 1291-1019",
      "roadAddress": "부산 해운대구 재반로 188",
      "region": "부산",
      "district": "해운대구",
      "phone": "051-782-9989",
      "lat": 35.1940593272009,
      "lng": 129.130637291665
    },
    {
      "id": 329,
      "shopId": "565",
      "name": "재송2호",
      "address": "부산 해운대구 재송동 1083-10",
      "roadAddress": "부산 해운대구 재송1로 77",
      "region": "부산",
      "district": "해운대구",
      "phone": "051-784-9992",
      "lat": 35.1874928847377,
      "lng": 129.125002063554
    },
    {
      "id": 330,
      "shopId": "189",
      "name": "좌동1호",
      "address": "부산 해운대구 좌동 970",
      "roadAddress": "부산 해운대구 세실로 104",
      "region": "부산",
      "district": "해운대구",
      "phone": "051-703-9917",
      "lat": 35.1738292543327,
      "lng": 129.175901046329
    },
    {
      "id": 331,
      "shopId": "1528",
      "name": "좌동2호",
      "address": "부산 해운대구 좌동 1341-8",
      "roadAddress": "부산 해운대구 좌동순환로 57",
      "region": "부산",
      "district": "해운대구",
      "phone": "051-743-1995",
      "lat": 35.1716633133236,
      "lng": 129.166431475256
    },
    {
      "id": 332,
      "shopId": "291",
      "name": "좌동3호",
      "address": "부산 해운대구 좌동 1484-1",
      "roadAddress": "부산 해운대구 세실로 45",
      "region": "부산",
      "district": "해운대구",
      "phone": "051-704-9399,9599",
      "lat": 35.1690025360276,
      "lng": 129.178284184642
    },
    {
      "id": 333,
      "shopId": "356",
      "name": "해운대역",
      "address": "부산 해운대구 우동 639-4",
      "roadAddress": "부산 해운대구 해운대로 604",
      "region": "부산",
      "district": "해운대구",
      "phone": "051-746-9288",
      "lat": 35.162436880869,
      "lng": 129.157276272164
    },
    {
      "id": 334,
      "shopId": "47",
      "name": "계명",
      "address": "대구시 남구 양지로 107",
      "roadAddress": "대구 남구 양지로 107(대명동)",
      "region": "대구시",
      "district": "남구",
      "phone": "053-626-9992",
      "lat": 35.8516988125357,
      "lng": 128.57951959617
    },
    {
      "id": 335,
      "shopId": "48",
      "name": "대명1호",
      "address": "대구 남구 대명동 1098-4",
      "roadAddress": "대구 남구 대명로 60-1",
      "region": "대구",
      "district": "남구",
      "phone": "053-629-9994",
      "lat": 35.838926622593,
      "lng": 128.564175134155
    },
    {
      "id": 336,
      "shopId": "12",
      "name": "봉덕",
      "address": "대구 남구 봉덕동 687-32",
      "roadAddress": "대구 남구 중앙대로 22길 119-2",
      "region": "대구",
      "district": "남구",
      "phone": "053-471-1222",
      "lat": 35.8426335386331,
      "lng": 128.597220685368
    },
    {
      "id": 337,
      "shopId": "25",
      "name": "앞산",
      "address": "대구 남구 대명동 336-11",
      "roadAddress": "대구 남구 대명로 208",
      "region": "대구",
      "district": "남구",
      "phone": "053-657-9999",
      "lat": 35.8401158174026,
      "lng": 128.580375696145
    },
    {
      "id": 338,
      "shopId": "11",
      "name": "이천대봉",
      "address": "대구 남구 이천동 184-9",
      "roadAddress": "대구 남구 대봉로38길 18",
      "region": "대구",
      "district": "남구",
      "phone": "053-476-5800",
      "lat": 35.8545634919237,
      "lng": 128.60353481283
    },