{
  "meta": {
    "brand_id": "77c5ea6d029242839766fc57d47be76c",
    "brand_name": "메가MGC커피",
    "totalCount": 4136,
    "extractedAt": "2026-03-17T07:26:24.000Z",
    "sourceUrl": "https://www.mega-mgccoffee.com/store/find/"
  },
  "stores": [
    {
      "name": "메가MGC커피 강남역점",
      "address": "서울특별시 강남구 테헤란로 101 (역삼동, 이즈타워)지하상가 E-35",
      "contact": "02-567-5424",
      "lat": "37.4986232309429",
      "lng": "127.028065727387",
      "region": "서울특별시",
      "district": "강남구",
      "id": 1
    },
    {
      "name": "메가MGC커피 강남CGV점",
      "address": "서울특별시 강남구 강남대로 438 스타플렉스",
      "contact": "02-555-0656",
      "lat": "37.5016428104731",
      "lng": "127.026336096148",
      "region": "서울특별시",
      "district": "강남구",
      "id": 2
    },
    {
      "name": "메가MGC커피 강남로데오점",
      "address": "서울특별시 강남구 강남대로78길 12 (역삼동, 예미프레스티지)",
      "contact": "02-557-1341",
      "lat": "37.4948475341971",
      "lng": "127.030367339339",
      "region": "서울특별시",
      "district": "강남구",
      "id": 3
    },
    {
      "name": "메가MGC커피 한티역점",
      "address": "서울특별시 강남구 도곡로 405 105호 (대치동 , 삼환아르누보2)",
      "contact": "02-6013-5234",
      "lat": "37.4973689050395",
      "lng": "127.054668203745",
      "region": "서울특별시",
      "district": "강남구",
      "id": 4
    },
    {
      "name": "메가MGC커피 개포동역점",
      "address": "서울특별시 강남구 개포로82길 13-9 101~102호 (개포동 , 세종빌딩)",
      "contact": "02-2226-0085",
      "lat": "37.4886594787069",
      "lng": "127.067752825553",
      "region": "서울특별시",
      "district": "강남구",
      "id": 5
    },
    {
      "name": "메가MGC커피 압구정역점",
      "address": "서울특별시 강남구 압구정로28길 25 1층 2호 (신사동 , 동심빌딩)",
      "contact": "02-511-1533",
      "lat": "37.5248243999828",
      "lng": "127.027837746706",
      "region": "서울특별시",
      "district": "강남구",
      "id": 6
    },
    {
      "name": "메가MGC커피 선릉점",
      "address": "서울특별시 강남구 선릉로86길 16 1층 (대치동)",
      "contact": "02-556-1341",
      "lat": "37.5032622144877",
      "lng": "127.051021356675",
      "region": "서울특별시",
      "district": "강남구",
      "id": 7
    },
    {
      "name": "메가MGC커피 강남포이점",
      "address": "서울특별시 강남구 개포로 2211층(개포동)",
      "contact": "02-572-0777",
      "lat": "37.4789198822892",
      "lng": "127.047105097994",
      "region": "서울특별시",
      "district": "강남구",
      "id": 8
    },
    {
      "name": "메가MGC커피 대치학원가점",
      "address": "서울특별시 강남구 도곡로77길 6 102호(대치동)",
      "contact": "02-6747-7070",
      "lat": "37.4987709871278",
      "lng": "127.058743212182",
      "region": "서울특별시",
      "district": "강남구",
      "id": 9
    },
    {
      "name": "메가MGC커피 대치역점",
      "address": "서울특별시 강남구 삼성로 155 116호(대치동 , 대치퍼스트빌딩)",
      "contact": "070-8282-6769",
      "lat": "37.4938813994708",
      "lng": "127.062951852624",
      "region": "서울특별시",
      "district": "강남구",
      "id": 10
    },
    {
      "name": "메가MGC커피 강남구청역점",
      "address": "서울특별시 강남구 학동로 3421층 106호(논현동 , 에스케이허브블루)",
      "contact": "02-515-0656",
      "lat": "37.5167560126387",
      "lng": "127.040841265738",
      "region": "서울특별시",
      "district": "강남구",
      "id": 11
    },
    {
      "name": "메가MGC커피 디에이치자이개포점",
      "address": "서울특별시 강남구 영동대로 22830동 지하1층 S5B1-0510호(일원동 , 디에이치자이개포)",
      "contact": "02-451-1777",
      "lat": "37.4910941147932",
      "lng": "127.074163955752",
      "region": "서울특별시",
      "district": "강남구",
      "id": 12
    },
    {
      "name": "메가MGC커피 논현아크로힐스점",
      "address": "서울특별시 강남구 언주로 604지하1층 109호(논현동 , ACROHILLS논현)",
      "contact": "02-545-0656",
      "lat": "37.5095303215604",
      "lng": "127.038421201117",
      "region": "서울특별시",
      "district": "강남구",
      "id": 13
    },
    {
      "name": "메가MGC커피 강남세곡점",
      "address": "서울특별시 강남구 헌릉로569길 13지상1층 110호(세곡동 , 라온프라이빗시티)",
      "contact": "02-2226-1116",
      "lat": "37.4668160016853",
      "lng": "127.100039368895",
      "region": "서울특별시",
      "district": "강남구",
      "id": 14
    },
    {
      "name": "메가MGC커피 삼성중앙역점",
      "address": "서울특별시 강남구 봉은사로 4781층 102호(삼성동)",
      "contact": "02-566-1070",
      "lat": "37.5126363099479",
      "lng": "127.052772890864",
      "region": "서울특별시",
      "district": "강남구",
      "id": 15
    },
    {
      "name": "메가MGC커피 대치사거리점",
      "address": "서울특별시 강남구 삼성로 349우진빌딩 지상1층(대치동)",
      "contact": "02-555-8677",
      "lat": "37.5026839034347",
      "lng": "127.058505388195",
      "region": "서울특별시",
      "district": "강남구",
      "id": 16
    },
    {
      "name": "메가MGC커피 역삼중앙점",
      "address": "서울 강남구 논현로76길 10 (역삼동)지상1층 101호",
      "contact": "02-567-2257",
      "lat": "37.496866422702",
      "lng": "127.039767659821",
      "region": "서울",
      "district": "강남구",
      "id": 17
    },
    {
      "name": "메가MGC커피 강남구청점",
      "address": "서울 강남구 학동로68길 7 (삼성동, 삼성동힐스테이트)상가동 지상 1층 102호",
      "contact": "02-512-0656",
      "lat": "37.5176166251155",
      "lng": "127.046743685239",
      "region": "서울",
      "district": "강남구",
      "id": 18
    },
    {
      "name": "메가MGC커피 삼성중앙점",
      "address": "서울 강남구 영동대로85길 28 (대치동, 성원타워Ⅰ)지상1층",
      "contact": "02-555-5869",
      "lat": "37.5068583110751",
      "lng": "127.061250301689",
      "region": "서울",
      "district": "강남구",
      "id": 19
    },
    {
      "name": "메가MGC커피 신논현역점",
      "address": "서울 강남구 강남대로 480 (논현동)지상1층",
      "contact": "02-518-0656",
      "lat": "37.5052902844477",
      "lng": "127.024555185432",
      "region": "서울",
      "district": "강남구",
      "id": 20
    },
    {
      "name": "메가MGC커피 대치중앙점",
      "address": "서울 강남구 역삼로 416 (대치동, 태양빌딩)지상1층",
      "contact": "02-556-0656",
      "lat": "37.500963594534",
      "lng": "127.052605894724",
      "region": "서울",
      "district": "강남구",
      "id": 21
    },
    {
      "name": "메가MGC커피 역삼대로점",
      "address": "서울 강남구 테헤란로 216 (역삼동, 신웅타워)1층",
      "contact": "02-558-8111",
      "lat": "37.5014432260166",
      "lng": "127.040146004168",
      "region": "서울",
      "district": "강남구",
      "id": 22
    },
    {
      "name": "메가MGC커피 강남자곡점",
      "address": "서울 강남구 자곡로 202 (자곡동, 강남힐스테이트에코)지상1층 101호",
      "contact": "02-3411-1003",
      "lat": "37.4747691320118",
      "lng": "127.105019940623",
      "region": "서울",
      "district": "강남구",
      "id": 23
    },
    {
      "name": "메가MGC커피 역삼역점",
      "address": "서울 강남구 테헤란로25길 15 (역삼동)지상 1층",
      "contact": "02-554-9887",
      "lat": "37.5016021207755",
      "lng": "127.035193902283",
      "region": "서울",
      "district": "강남구",
      "id": 24
    },
    {
      "name": "메가MGC커피 매봉역점",
      "address": "서울 강남구 남부순환로378길 12 (도곡동)",
      "contact": "02-578-3768",
      "lat": "37.485422501853",
      "lng": "127.045860235286",
      "region": "서울",
      "district": "강남구",
      "id": 25
    },
    {
      "name": "메가MGC커피 압구정로데오역점",
      "address": "서울 강남구 압구정로 338 (신사동)",
      "contact": "02-516-5112",
      "lat": "37.5279245130015",
      "lng": "127.038877956425",
      "region": "서울",
      "district": "강남구",
      "id": 26
    },
    {
      "name": "메가MGC커피 일원맛의거리점",
      "address": "서울 강남구 일원로9길 7 (일원동)",
      "contact": "02-451-5559",
      "lat": "37.4896233204893",
      "lng": "127.082182610612",
      "region": "서울",
      "district": "강남구",
      "id": 27
    },
    {
      "name": "메가MGC커피 강남못골도서관점",
      "address": "서울 강남구 자곡로 114 (자곡동, 서강플라자)",
      "contact": "02-445-1007",
      "lat": "37.472056996722",
      "lng": "127.096024011591",
      "region": "서울",
      "district": "강남구",
      "id": 28
    },
    {
      "name": "메가MGC커피 수서역점",
      "address": "서울 강남구 광평로 280 (수서동, 로즈데일오피스텔)",
      "contact": "02-451-1215",
      "lat": "37.4873191631489",
      "lng": "127.103108072457",
      "region": "서울",
      "district": "강남구",
      "id": 29
    },
    {
      "name": "메가MGC커피 역삼테헤란로점",
      "address": "서울 강남구 논현로85길 52 (역삼동, 역삼 푸르지오 시티)",
      "contact": "02-501-9007",
      "lat": "37.4981873504904",
      "lng": "127.033813318195",
      "region": "서울",
      "district": "강남구",
      "id": 30
    },
    {
      "name": "메가MGC커피 강남역삼점",
      "address": "서울 강남구 역삼로 156 (역삼동, 태광빌딩)",
      "contact": "02-566-1003",
      "lat": "37.4947636235131",
      "lng": "127.036217927404",
      "region": "서울",
      "district": "강남구",
      "id": 31
    },
    {
      "name": "메가MGC커피 역삼GFC점",
      "address": "서울 강남구 논현로 429 (역삼동, C and C빌딩)",
      "contact": "02-501-0656",
      "lat": "37.4991406996959",
      "lng": "127.037417985908",
      "region": "서울",
      "district": "강남구",
      "id": 32
    },
    {
      "name": "메가MGC커피 논현가구거리점",
      "address": "서울 강남구 학동로4길 8 (논현동)",
      "contact": "02-540-5677",
      "lat": "37.5109176662295",
      "lng": "127.0228813621",
      "region": "서울",
      "district": "강남구",
      "id": 33
    },
    {
      "name": "메가MGC커피 수서중앙점",
      "address": "서울 강남구 광평로51길 8 (수서동, 로얄프라자)",
      "contact": "02-451-0214",
      "lat": "37.488369646965",
      "lng": "127.102487846211",
      "region": "서울",
      "district": "강남구",
      "id": 34
    },
    {
      "name": "메가MGC커피 가로수길점",
      "address": "서울 강남구 가로수길 19 (신사동)",
      "contact": "02-540-1041",
      "lat": "37.5191885880699",
      "lng": "127.02299870277",
      "region": "서울",
      "district": "강남구",
      "id": 35
    },
    {
      "name": "메가MGC커피 언주역점",
      "address": "서울 강남구 논현로 561 (역삼동)",
      "contact": "02-508-0656",
      "lat": "37.5061371187148",
      "lng": "127.034077257047",
      "region": "서울",
      "district": "강남구",
      "id": 36
    },
    {
      "name": "메가MGC커피 래미안대치팰리스점",
      "address": "서울 강남구 남부순환로 2917 (대치동, 청실종합상가)",
      "contact": "02-555-2184",
      "lat": "37.4931666957307",
      "lng": "127.059164905458",
      "region": "서울",
      "district": "강남구",
      "id": 37
    },
    {
      "name": "메가MGC커피 양재역점",
      "address": "서울 강남구 남부순환로 2615 (도곡동, 극동스타클래스)",
      "contact": "02-571-5558",
      "lat": "37.4851852937745",
      "lng": "127.035883711966",
      "region": "서울",
      "district": "강남구",
      "id": 38
    },
    {
      "name": "메가MGC커피 강남면허시험장점",
      "address": "서울 강남구 테헤란로114길 16 (대치동, 동남빌딩)",
      "contact": "02-552-5679",
      "lat": "37.50857753579",
      "lng": "127.06654795913",
      "region": "서울",
      "district": "강남구",
      "id": 39
    },
    {
      "name": "메가MGC커피 개포아이파크점",
      "address": "서울 강남구 선릉로 28 (개포동, 일영빌딩)",
      "contact": "02-494-1001",
      "lat": "37.4823218659331",
      "lng": "127.061341407851",
      "region": "서울",
      "district": "강남구",
      "id": 40
    },
    {
      "name": "메가MGC커피 역삼상록점",
      "address": "서울 강남구 테헤란로43길 18 (역삼동, SC빌딩)",
      "contact": "02-553-3365",
      "lat": "37.50443389001",
      "lng": "127.044061189914",
      "region": "서울",
      "district": "강남구",
      "id": 41
    },
    {
      "name": "메가MGC커피 선릉한신인터밸리점",
      "address": "서울 강남구 테헤란로 322 (역삼동, 한신인터밸리24)",
      "contact": "02-2183-0909",
      "lat": "37.5032355765545",
      "lng": "127.046582379785",
      "region": "서울",
      "district": "강남구",
      "id": 42
    },
    {
      "name": "메가MGC커피 압구정현대점",
      "address": "서울 강남구 압구정로 214 (신사동, 현대종합상가빌딩)",
      "contact": "02-513-1000",
      "lat": "37.5279935871042",
      "lng": "127.030734534472",
      "region": "서울",
      "district": "강남구",
      "id": 43
    },
    {
      "name": "메가MGC커피 역삼초교교차로점",
      "address": "서울 강남구 역삼로 120 (역삼동, 성보역삼빌딩)",
      "contact": "02-565-7505",
      "lat": "37.4936151530608",
      "lng": "127.032670618986",
      "region": "서울",
      "district": "강남구",
      "id": 44
    },
    {
      "name": "메가MGC커피 대치포스코점",
      "address": "서울 강남구 테헤란로78길 16 (대치동, 노벨과개미)",
      "contact": "02-552-5551",
      "lat": "37.5050615609923",
      "lng": "127.05533837197",
      "region": "서울",
      "district": "강남구",
      "id": 45
    },
    {
      "name": "메가MGC커피 역삼와이즈플레이스점",
      "address": "서울 강남구 강남대로66길 14 (역삼동, 강남역 와이즈 플레이스)",
      "contact": "02-566-3059",
      "lat": "37.4916753819252",
      "lng": "127.03198543169",
      "region": "서울",
      "district": "강남구",
      "id": 46
    },
    {
      "name": "메가MGC커피 선릉샹제리제점",
      "address": "서울 강남구 테헤란로 406 (대치동, 샹제리제센터)",
      "contact": "02-501-4580",
      "lat": "37.5043809944112",
      "lng": "127.049963989803",
      "region": "서울",
      "district": "강남구",
      "id": 47
    },
    {
      "name": "메가MGC커피 학동사거리점",
      "address": "서울 강남구 선릉로 752 (청담동, 태성빌딩)",
      "contact": "02-540-5553",
      "lat": "37.5218653296706",
      "lng": "127.039789295382",
      "region": "서울",
      "district": "강남구",
      "id": 48
    },
    {
      "name": "메가MGC커피 논현동현점",
      "address": "서울 강남구 도산대로50길 8 (논현동)",
      "contact": "02-540-0627",
      "lat": "37.5218435196536",
      "lng": "127.037322872282",
      "region": "서울",
      "district": "강남구",
      "id": 49
    },
    {
      "name": "메가MGC커피 역삼래미안점",
      "address": "서울 강남구 언주로 314 (역삼동, 강남프라자)",
      "contact": "02-567-0656",
      "lat": "37.4958917878081",
      "lng": "127.046476269108",
      "region": "서울",
      "district": "강남구",
      "id": 50
    },
    {
      "name": "메가MGC커피 압구정카페골목점",
      "address": "서울 강남구 선릉로 815 (신사동, 신한양빌딩)",
      "contact": "02-540-4446",
      "lat": "37.5248658226122",
      "lng": "127.03932763326",
      "region": "서울",
      "district": "강남구",
      "id": 51
    },
    {
      "name": "메가MGC커피 역삼e편한세상점",
      "address": "서울 강남구 선릉로 325 (역삼동, 중앙빌딩)",
      "contact": "02-566-5919",
      "lat": "37.4985922447348",
      "lng": "127.051565861863",
      "region": "서울",
      "district": "강남구",
      "id": 52
    },
    {
      "name": "메가MGC커피 국악고점",
      "address": "서울 강남구 논현로12길 33 (개포동)",
      "contact": "02-572-5559",
      "lat": "37.4757120078088",
      "lng": "127.050193840604",
      "region": "서울",
      "district": "강남구",
      "id": 53
    },
    {
      "name": "메가MGC커피 대치은마점",
      "address": "서울 강남구 도곡로 510 (대치동)",
      "contact": "02-6941-0655",
      "lat": "37.4990204274664",
      "lng": "127.062182304456",
      "region": "서울",
      "district": "강남구",
      "id": 54
    },
    {
      "name": "메가MGC커피 강남해링턴타워점",
      "address": "서울 강남구 강남대로84길 15 (역삼동)",
      "contact": "02-6953-0657",
      "lat": "37.4970034183304",
      "lng": "127.02983569457",
      "region": "서울",
      "district": "강남구",
      "id": 55
    },
    {
      "name": "메가MGC커피 역삼럭키점",
      "address": "서울 강남구 도곡로 175 (역삼동, 창림빌딩)",
      "contact": "02-556-4515",
      "lat": "37.4919384954051",
      "lng": "127.03855986743",
      "region": "서울",
      "district": "강남구",
      "id": 56
    },
    {
      "name": "메가MGC커피 논현개나리점",
      "address": "서울 강남구 학동로20길 16 (논현동)",
      "contact": "02-6952-9476",
      "lat": "37.5121260127092",
      "lng": "127.028249040707",
      "region": "서울",
      "district": "강남구",
      "id": 57
    },
    {
      "name": "메가MGC커피 삼성리저브점",
      "address": "서울 강남구 삼성로 517 (삼성동, 채널리저브)",
      "contact": "02-6953-7249",
      "lat": "37.5079854660981",
      "lng": "127.055223583203",
      "region": "서울",
      "district": "강남구",
      "id": 58
    },
    {
      "name": "메가MGC커피 학여울역점",
      "address": "서울 강남구 영동대로 219 (대치동)",
      "contact": "070-4794-8062",
      "lat": "37.4983618218985",
      "lng": "127.068326460722",
      "region": "서울",
      "district": "강남구",
      "id": 59
    },
    {
      "name": "메가MGC커피 신사동고개점",
      "address": "서울 강남구 도산대로 158 (논현동, 세양 APEX TOWER)",
      "contact": "02-511-6358",
      "lat": "37.5184655294401",
      "lng": "127.026053105285",
      "region": "서울",
      "district": "강남구",
      "id": 60
    },
    {
      "name": "메가MGC커피 선정릉역점",
      "address": "서울 강남구 봉은사로48길 37 (역삼동)",
      "contact": "02-6949-0654",
      "lat": "37.5075778749171",
      "lng": "127.042538435667",
      "region": "서울",
      "district": "강남구",
      "id": 61
    },
    {
      "name": "메가MGC커피 백암아트홀점",
      "address": "서울 강남구 테헤란로113길 7 (삼성동, 백암아트센터)",
      "contact": "02-565-9704",
      "lat": "37.5106711243034",
      "lng": "127.065879214112",
      "region": "서울",
      "district": "강남구",
      "id": 62
    },
    {
      "name": "메가MGC커피 대치하이스턴점",
      "address": "서울 강남구 도곡로93길 12 (대치동, 래미안 대치 하이스턴)",
      "contact": "070-7776-3929",
      "lat": "37.5015123626981",
      "lng": "127.065474666225",
      "region": "서울",
      "district": "강남구",
      "id": 63
    },
    {
      "name": "메가MGC커피 역삼자이점",
      "address": "서울 강남구 언주로81길 6 (역삼동)",
      "contact": "02-555-8175",
      "lat": "37.5003600931959",
      "lng": "127.043055799448",
      "region": "서울",
      "district": "강남구",
      "id": 64
    },
    {
      "name": "메가MGC커피 청담동주민센터점",
      "address": "서울 강남구 압구정로79길 47 (청담동)",
      "contact": "02-6953-0659",
      "lat": "37.525542611473",
      "lng": "127.050989239115",
      "region": "서울",
      "district": "강남구",
      "id": 65
    },
    {
      "name": "메가MGC커피  선릉역점",
      "address": "서울 강남구 선릉로93길 26 (역삼동, 우리빌딩)",
      "contact": "02-566-6552",
      "lat": "37.5048317668179",
      "lng": "127.046432160962",
      "region": "서울",
      "district": "강남구",
      "id": 66
    },
    {
      "name": "메가MGC커피 압구정동양빌딩점",
      "address": "서울 강남구 논현로 824 (신사동, 동양빌딩)",
      "contact": "02-2135-2211",
      "lat": "37.5219903085592",
      "lng": "127.028542466859",
      "region": "서울",
      "district": "강남구",
      "id": 67
    },
    {
      "name": "메가MGC커피 논현힐탑점",
      "address": "서울 강남구 논현로 639 (논현동)",
      "contact": "02-6958-7656",
      "lat": "37.5105705406578",
      "lng": "127.032046539306",
      "region": "서울",
      "district": "강남구",
      "id": 68
    },
    {
      "name": "메가MGC커피 강남역신분당선점",
      "address": "서울 강남구 강남대로 지하 396 (역삼동, 강남역)",
      "contact": "02-6952-4888",
      "lat": "37.4981646510326",
      "lng": "127.028307900881",
      "region": "서울",
      "district": "강남구",
      "id": 69
    },
    {
      "name": "메가MGC커피 서울논현초점",
      "address": "서울 강남구 학동로6길 50 (논현동)",
      "contact": "02-6949-1656",
      "lat": "37.509231699695",
      "lng": "127.026371335948",
      "region": "서울",
      "district": "강남구",
      "id": 70
    },
    {
      "name": "메가MGC커피 언주KTS빌딩점",
      "address": "서울 강남구 봉은사로 215 (논현동, KTS빌딩)",
      "contact": "070-4155-7249",
      "lat": "37.5080879867462",
      "lng": "127.035564754127",
      "region": "서울",
      "district": "강남구",
      "id": 71
    },
    {
      "name": "메가MGC커피 역삼문화공원점",
      "address": "서울 강남구 강남대로94길 75 (역삼동)",
      "contact": "02-2282-5679",
      "lat": "37.500741728986",
      "lng": "127.033405194664",
      "region": "서울",
      "district": "강남구",
      "id": 72
    },
    {
      "name": "메가MGC커피 서울신구초점",
      "address": "서울 강남구 압구정로14길 6 (신사동)",
      "contact": "02-515-1602",
      "lat": "37.523858489259",
      "lng": "127.022980226111",
      "region": "서울",
      "district": "강남구",
      "id": 73
    },
    {
      "name": "메가MGC커피 역삼센터필드점",
      "address": "서울 강남구 언주로93길 20 (역삼동)",
      "contact": "02-6953-9000",
      "lat": "37.5036079268378",
      "lng": "127.040308776063",
      "region": "서울",
      "district": "강남구",
      "id": 74
    },
    {
      "name": "메가MGC커피 포스코사거리점",
      "address": "서울 강남구 삼성로 436 (대치동)",
      "contact": "02-569-5558",
      "lat": "37.5058661701287",
      "lng": "127.057576505718",
      "region": "서울",
      "district": "강남구",
      "id": 75
    },
    {
      "name": "메가MGC커피 영동2교교차로점",
      "address": "서울 강남구 논현로28길 9 (도곡동, 유진빌딩)",
      "contact": "02-575-5065",
      "lat": "37.4827271767229",
      "lng": "127.043363387843",
      "region": "서울",
      "district": "강남구",
      "id": 76
    },
    {
      "name": "메가MGC커피 서울언주초교점",
      "address": "서울 강남구 남부순환로363길 12-29 (도곡동)",
      "contact": "070-4027-0971",
      "lat": "37.4864629686999",
      "lng": "127.038598662438",
      "region": "서울",
      "district": "강남구",
      "id": 77
    },
    {
      "name": "메가MGC커피  강남보건소점",
      "address": "서울 강남구 선릉로 660 (삼성동, 브라운스톤 레전드)",
      "contact": "02-514-1218",
      "lat": "37.5155511161052",
      "lng": "127.042332457469",
      "region": "서울",
      "district": "강남구",
      "id": 78
    },
    {
      "name": "메가MGC커피 봉은사역점",
      "address": "서울 강남구 봉은사로 541 (삼성동)",
      "contact": "02-6953-7656",
      "lat": "37.5143456496078",
      "lng": "127.059144067617",
      "region": "서울",
      "district": "강남구",
      "id": 79
    },
    {
      "name": "메가MGC커피 선릉세웅타워점",
      "address": "서울 강남구 선릉로94길 12 (삼성동, 세웅타워)",
      "contact": "02-566-5513",
      "lat": "37.5058068260964",
      "lng": "127.049557899004",
      "region": "서울",
      "district": "강남구",
      "id": 80
    },
    {
      "name": "메가MGC커피 신사사거리점",
      "address": "서울 강남구 강남대로 594 (논현동, 대림빌딩)",
      "contact": "070-4010-4352",
      "lat": "37.5147931715982",
      "lng": "127.020329608826",
      "region": "서울",
      "district": "강남구",
      "id": 81
    },
    {
      "name": "메가MGC커피 신사강남시장점",
      "address": "서울 강남구 압구정로2길 46 (신사동, ---------)",
      "contact": "02-512-9290",
      "lat": "37.5187672551656",
      "lng": "127.020691646267",
      "region": "서울",
      "district": "강남구",
      "id": 82
    },
    {
      "name": "메가MGC커피 선릉대우아이빌점",
      "address": "서울 강남구 삼성로85길 42 (대치동, 대치동대우아이빌멤버스)",
      "contact": "02-552-5557",
      "lat": "37.5045490585229",
      "lng": "127.053801125765",
      "region": "서울",
      "district": "강남구",
      "id": 83
    },
    {
      "name": "메가MGC커피 천호로데오점",
      "address": "서울특별시 강동구 천호대로157길 23 (천호동) ",
      "contact": "02-475-6969",
      "lat": "37.5388691449287",
      "lng": "127.127180922879",
      "region": "서울특별시",
      "district": "강동구",
      "id": 84
    },
    {
      "name": "메가MGC커피 천호공원점",
      "address": "서울특별시 강동구 올림픽로 715 1층 ",
      "contact": "02-487-0055",
      "lat": "37.5452866674524",
      "lng": "127.125519124034",
      "region": "서울특별시",
      "district": "강동구",
      "id": 85
    },
    {
      "name": "메가MGC커피 고덕그라시움점",
      "address": "서울특별시 강동구 고덕로79길 291층 107, 108호(고덕동, 고덕그라시움(제2상가))",
      "contact": "02-2242-5555",
      "lat": "37.5580697745547",
      "lng": "127.164719125459",
      "region": "서울특별시",
      "district": "강동구",
      "id": 86
    },
    {
      "name": "메가MGC커피 강일리버파크점",
      "address": "서울특별시 강동구 아리수로93길 9102호(강일동 , 골드프라자)",
      "contact": "02-481-1008",
      "lat": "37.5652410196081",
      "lng": "127.174353860744",
      "region": "서울특별시",
      "district": "강동구",
      "id": 87
    },
    {
      "name": "메가MGC커피 암사점",
      "address": "서울특별시 강동구 고덕로 95 1층 (암사동)",
      "contact": "02-428-2587",
      "lat": "37.5549212409258",
      "lng": "127.135837486371",
      "region": "서울특별시",
      "district": "강동구",
      "id": 88
    },
    {
      "name": "메가MGC커피 명일역점",
      "address": "서울특별시 강동구 양재대로 16411층 4호(명일동)",
      "contact": "02-429-9004",
      "lat": "37.5520908128356",
      "lng": "127.143854955739",
      "region": "서울특별시",
      "district": "강동구",
      "id": 89
    },
    {
      "name": "메가MGC커피 천호초교사거리점",
      "address": "서울특별시 강동구 구천면로 305 덕송빌딩 1층 (천호동)",
      "contact": "02-470-0831",
      "lat": "37.5469886729228",
      "lng": "127.134344875218",
      "region": "서울특별시",
      "district": "강동구",
      "id": 90
    },
    {
      "name": "메가MGC커피 강일2지구점",
      "address": "서울특별시 강동구 아리수로93나길 381층(강일동)",
      "contact": "02-429-0414",
      "lat": "37.5719495468616",
      "lng": "127.173931648055",
      "region": "서울특별시",
      "district": "강동구",
      "id": 91
    },
    {
      "name": "메가MGC커피 굽은다리역점",
      "address": "서울특별시 강동구 양재대로 15661층(명일동)",
      "contact": "02-441-5919",
      "lat": "37.5452239578819",
      "lng": "127.143178881084",
      "region": "서울특별시",
      "district": "강동구",
      "id": 92
    },
    {
      "name": "메가MGC커피 둔촌동역점",
      "address": "서울특별시 강동구 양재대로 13551층(성내동)",
      "contact": "02-486-8881",
      "lat": "37.5273952498819",
      "lng": "127.135616051172",
      "region": "서울특별시",
      "district": "강동구",
      "id": 93
    },
    {
      "name": "메가MGC커피 고덕래미안점",
      "address": "서울특별시 강동구 아리수로50길 501층(고덕동)",
      "contact": "02-427-8587",
      "lat": "37.5576891371776",
      "lng": "127.148600236458",
      "region": "서울특별시",
      "district": "강동구",
      "id": 94
    },
    {
      "name": "메가MGC커피 강동구청점",
      "address": "서울특별시 강동구 성내로 11105호(성내동)",
      "contact": "02-477-0365",
      "lat": "37.5305063973591",
      "lng": "127.122167825834",
      "region": "서울특별시",
      "district": "강동구",
      "id": 95
    },
    {
      "name": "메가MGC커피 암사역점",
      "address": "서울특별시 강동구 올림픽로 783 102호(암사동)",
      "contact": "02-442-8222",
      "lat": "37.5511436157073",
      "lng": "127.127611666932",
      "region": "서울특별시",
      "district": "강동구",
      "id": 96
    },
    {
      "name": "메가MGC커피 고덕역점",
      "address": "서울특별시 강동구 동남로75길 13-15 1층(명일동)",
      "contact": "02-427-0177",
      "lat": "37.5536236877644",
      "lng": "127.155504731039",
      "region": "서울특별시",
      "district": "강동구",
      "id": 97
    },
    {
      "name": "메가MGC커피 천호역점",
      "address": "서울특별시 강동구 천호대로 997 1층 107호 (천호동 , 신라빌딩)",
      "contact": "02-474-7748",
      "lat": "37.5393391659214",
      "lng": "127.123301730964",
      "region": "서울특별시",
      "district": "강동구",
      "id": 98
    },
    {
      "name": "메가MGC커피 길동역점",
      "address": "서울특별시 강동구 양재대로 1465 105호 (길동 , 마루홈타운)",
      "contact": "02-410-3865",
      "lat": "37.5368399179472",
      "lng": "127.139314330701",
      "region": "서울특별시",
      "district": "강동구",
      "id": 99
    },
    {
      "name": "메가MGC커피 상일고덕점",
      "address": "서울특별시 강동구 상일로 55108호(상일동 , 고덕자이)",
      "contact": "02-441-1025",
      "lat": "37.5533182082692",
      "lng": "127.168788219773",
      "region": "서울특별시",
      "district": "강동구",
      "id": 100
    },
    {
      "name": "메가MGC커피 올림픽공원북문점",
      "address": "서울특별시 강동구 성안로 91층 103호(성내동)",
      "contact": "02-487-7117",
      "lat": "37.5248440990661",
      "lng": "127.128989542034",
      "region": "서울특별시",
      "district": "강동구",
      "id": 101
    },
    {
      "name": "메가MGC커피 둔촌고사거리점",
      "address": "서울특별시 강동구 천호대로 12001층 104호(둔촌동)",
      "contact": "02-485-4591",
      "lat": "37.5345568374059",
      "lng": "127.144665419318",
      "region": "서울특별시",
      "district": "강동구",
      "id": 102
    },
    {
      "name": "메가MGC커피 길동초점",
      "address": "서울특별시 강동구 명일로 2101층 1호(길동 , 동인빌딩)",
      "contact": "02-477-8115",
      "lat": "37.5372967238805",
      "lng": "127.14609997028",
      "region": "서울특별시",
      "district": "강동구",
      "id": 103
    },
    {
      "name": "메가MGC커피 암사브라운스톤점",
      "address": "서울특별시 강동구 상암로 54상가동 1층 6호(천호동 , 브라운스톤암사아파트)",
      "contact": "02-477-6455",
      "lat": "37.5491960606802",
      "lng": "127.129312254407",
      "region": "서울특별시",
      "district": "강동구",
      "id": 104
    },
    {
      "name": "메가MGC커피 강동역점",
      "address": "서울특별시 강동구 천호대로 11071층 101-1호(길동 , 강동역에스케이허브)",
      "contact": "02-477-1803",
      "lat": "37.5355802857957",
      "lng": "127.134841810959",
      "region": "서울특별시",
      "district": "강동구",
      "id": 105
    },
    {
      "name": "메가MGC커피 강동성내점",
      "address": "서울 강동구 천호대로 1078 (성내동, 씨제이나인파크)1층 105호",
      "contact": "02-980-1007",
      "lat": "37.5359460061913",
      "lng": "127.131238839368",
      "region": "서울",
      "district": "강동구",
      "id": 106
    },
    {
      "name": "메가MGC커피 강동보훈사거리점",
      "address": "서울 강동구 진황도로 190 (둔촌동)1층 105호",
      "contact": "02-477-5298",
      "lat": "37.5292613524201",
      "lng": "127.142992352633",
      "region": "서울",
      "district": "강동구",
      "id": 107
    },
    {
      "name": "메가MGC커피 길동복조리시장점",
      "address": "서울 강동구 천중로 213 (길동)",
      "contact": "02-475-7170",
      "lat": "37.5410020774233",
      "lng": "127.143977803391",
      "region": "서울",
      "district": "강동구",
      "id": 108
    },
    {
      "name": "메가MGC커피 강동U1센터점",
      "address": "서울 강동구 고덕비즈밸리로 26 (고덕동, 강동U1센터)",
      "contact": "02-6072-0789",
      "lat": "37.5653492474605",
      "lng": "127.160158386991",
      "region": "서울",
      "district": "강동구",
      "id": 109
    },
    {
      "name": "메가MGC커피 천호시장점",
      "address": "서울 강동구 구천면로 252 (천호동)",
      "contact": "02-477-0519",
      "lat": "37.5427120739459",
      "lng": "127.131551914654",
      "region": "서울",
      "district": "강동구",
      "id": 110
    },
    {
      "name": "메가MGC커피 고덕베네루체점",
      "address": "서울 강동구 구천면로 636 (상일동, 고덕 롯데캐슬 베네루체(상가B동))",
      "contact": "02-427-1007",
      "lat": "37.550181416374",
      "lng": "127.168388688799",
      "region": "서울",
      "district": "강동구",
      "id": 111
    },
    {
      "name": "메가MGC커피 성내동농협교차로점",
      "address": "서울 강동구 성안로 71 (성내동, 아이앤티(강동))",
      "contact": "02-477-8590",
      "lat": "37.529997886178",
      "lng": "127.13154949367",
      "region": "서울",
      "district": "강동구",
      "id": 112
    },
    {
      "name": "메가MGC커피 명일솔베뉴점",
      "address": "서울 강동구 구천면로 429 (명일동)",
      "contact": "02-428-0222",
      "lat": "37.550398832671",
      "lng": "127.146490613144",
      "region": "서울",
      "district": "강동구",
      "id": 113
    },
    {
      "name": "메가MGC커피 선사사거리점",
      "address": "서울 강동구 올림픽로 816 (암사동)",
      "contact": "02-442-0502",
      "lat": "37.5536902024317",
      "lng": "127.129096846716",
      "region": "서울",
      "district": "강동구",
      "id": 114
    },
    {
      "name": "메가MGC커피 강동헤리티지점",
      "address": "서울 강동구 천중로 264 (길동, 강동 헤리티지 자이)",
      "contact": "02-6958-6875",
      "lat": "37.5396196848963",
      "lng": "127.149551483961",
      "region": "서울",
      "district": "강동구",
      "id": 115
    },
    {
      "name": "메가MGC커피 고덕아주점",
      "address": "서울 강동구 고덕비즈밸리로6길 10 (고덕동)",
      "contact": "02-6414-0110",
      "lat": "37.5679106188659",
      "lng": "127.158673583831",
      "region": "서울",
      "district": "강동구",
      "id": 116
    },
    {
      "name": "메가MGC커피 둔촌오륜포레온점",
      "address": "서울 강동구 양재대로 1300 (둔촌동, 올림픽파크포레온)",
      "contact": "02-6952-6952",
      "lat": "37.5249677176279",
      "lng": "127.140290598327",
      "region": "서울",
      "district": "강동구",
      "id": 117
    },
    {
      "name": "메가MGC커피 암사롯데캐슬점",
      "address": "서울 강동구 고덕로 133 (암사동, 강동롯데캐슬퍼스트아파트)",
      "contact": "02-6949-0345",
      "lat": "37.5552528493133",
      "lng": "127.140347239304",
      "region": "서울",
      "district": "강동구",
      "id": 118
    },
    {
      "name": "메가MGC커피 강동첨단업무단지점",
      "address": "서울 강동구 상일로6길 39 (상일동, 강동타워)",
      "contact": "070-8680-9658",
      "lat": "37.5498036802654",
      "lng": "127.175347693962",
      "region": "서울",
      "district": "강동구",
      "id": 119
    },
    {
      "name": "메가MGC커피 서울천동초점",
      "address": "서울 강동구 성안로 194 (길동)",
      "contact": "02-488-0516",
      "lat": "37.540131370417",
      "lng": "127.136839072343",
      "region": "서울",
      "district": "강동구",
      "id": 120
    },
    {
      "name": "메가MGC커피 강동중흥S클래스점",
      "address": "서울 강동구 올림픽로78길 60 (천호동, 강동 밀레니얼 중흥S-클래스)",
      "contact": "02-2135-3915",
      "lat": "37.5409734434557",
      "lng": "127.128499316444",
      "region": "서울",
      "district": "강동구",
      "id": 121
    },
    {
      "name": "메가MGC커피 둔촌한산중점",
      "address": "서울 강동구 풍성로 245 (둔촌동)",
      "contact": "02-477-0619",
      "lat": "37.5282605735741",
      "lng": "127.139023801648",
      "region": "서울",
      "district": "강동구",
      "id": 122
    },
    {
      "name": "메가MGC커피 굽은다리사거리점",
      "address": "서울 강동구 양재대로 1595 (천호동)",
      "contact": "02-6952-5911",
      "lat": "37.5479683170985",
      "lng": "127.143171795493",
      "region": "서울",
      "district": "강동구",
      "id": 123
    },
    {
      "name": "메가MGC커피 천호마에스트로점",
      "address": "서울 강동구 올림픽로 691 (천호동)",
      "contact": "02-6953-1108",
      "lat": "37.5431272162068",
      "lng": "127.124694566501",
      "region": "서울",
      "district": "강동구",
      "id": 124
    },
    {
      "name": "메가MGC커피 서울대명초점",
      "address": "서울 강동구 구천면로 502 (명일동)",
      "contact": "02-6952-8921",
      "lat": "37.5490441881457",
      "lng": "127.153992291367",
      "region": "서울",
      "district": "강동구",
      "id": 125
    },
    {
      "name": "메가MGC커피 천호주꾸미골목점",
      "address": "서울 강동구 천호옛14길 27 (성내동)",
      "contact": "02-477-6485",
      "lat": "37.5361348920172",
      "lng": "127.12700305558",
      "region": "서울",
      "district": "강동구",
      "id": 126
    },
    {
      "name": "메가MGC커피 미아수유시장점",
      "address": "서울특별시 강북구 솔매로45길 95",
      "contact": "02-946-1238",
      "lat": "37.6301576507572",
      "lng": "127.023733985727",
      "region": "서울특별시",
      "district": "강북구",
      "id": 127
    },
    {
      "name": "메가MGC커피 강북북부시장점",
      "address": "서울특별시 강북구 한천로 981 (번동)",
      "contact": "02-906-9616",
      "lat": "37.6366531842572",
      "lng": "127.031563360793",
      "region": "서울특별시",
      "district": "강북구",
      "id": 128
    },
    {
      "name": "메가MGC커피 미아영훈초점",
      "address": "서울특별시 강북구 숭인로 39111호(미아동 , 송천센트레빌)",
      "contact": "02-988-2340",
      "lat": "37.6127409579107",
      "lng": "127.026965197297",
      "region": "서울특별시",
      "district": "강북구",
      "id": 129
    },
    {
      "name": "메가MGC커피 강북시장점",
      "address": "서울특별시 강북구 한천로 1059-1 1층(수유동)",
      "contact": "02-908-2325",
      "lat": "37.6412278508238",
      "lng": "127.024740921646",
      "region": "서울특별시",
      "district": "강북구",
      "id": 130
    },
    {
      "name": "메가MGC커피 419사거리점",
      "address": "서울특별시 강북구 삼양로 5101층 (수유동)",
      "contact": "02-900-1288",
      "lat": "37.6486262922504",
      "lng": "127.014331803826",
      "region": "서울특별시",
      "district": "강북구",
      "id": 131
    },
    {
      "name": "메가MGC커피 화계역점",
      "address": "서울특별시 강북구 덕릉로 30 1층 (수유동)",
      "contact": "02-983-8777",
      "lat": "37.6339981103914",
      "lng": "127.01688781565",
      "region": "서울특별시",
      "district": "강북구",
      "id": 132
    },
    {
      "name": "메가MGC커피 수유사거리점",
      "address": "서울특별시 강북구 도봉로 2891층 (수유동)",
      "contact": "02-989-7748",
      "lat": "37.6341908698333",
      "lng": "127.023048148391",
      "region": "서울특별시",
      "district": "강북구",
      "id": 133
    },
    {
      "name": "메가MGC커피 삼양시장점",
      "address": "서울특별시 강북구 삼양로54길 21층 (미아동)",
      "contact": "02-988-9583",
      "lat": "37.6246812983406",
      "lng": "127.018571854259",
      "region": "서울특별시",
      "district": "강북구",
      "id": 134
    },
    {
      "name": "메가MGC커피 가오리역점",
      "address": "서울특별시 강북구 삼양로 4231층(수유동)",
      "contact": "02-905-0000",
      "lat": "37.6412513516267",
      "lng": "127.016597361265",
      "region": "서울특별시",
      "district": "강북구",
      "id": 135
    },
    {
      "name": "메가MGC커피 우이동점",
      "address": "서울특별시 강북구 삼양로149길 10 1층 (우이동 , 다우에코빌)",
      "contact": "02-999-1507",
      "lat": "37.654094776204",
      "lng": "127.01221496296",
      "region": "서울특별시",
      "district": "강북구",
      "id": 136
    },
    {
      "name": "메가MGC커피 미아역점",
      "address": "서울특별시 강북구 도봉로 201-2 1층(미아동)",
      "contact": "02-988-9729",
      "lat": "37.6266697186241",
      "lng": "127.025616857199",
      "region": "서울특별시",
      "district": "강북구",
      "id": 137
    },
    {
      "name": "메가MGC커피 미아롯데점",
      "address": "서울특별시 강북구 도봉로10길 38 1층(미아동)",
      "contact": "02-980-6679",
      "lat": "37.6143770545102",
      "lng": "127.031034180833",
      "region": "서울특별시",
      "district": "강북구",
      "id": 138
    },
    {
      "name": "메가MGC커피 수유점",
      "address": "서울특별시 강북구 도봉로 379 1층 (수유동)",
      "contact": "02-996-7103",
      "lat": "37.6410380802142",
      "lng": "127.028441903472",
      "region": "서울특별시",
      "district": "강북구",
      "id": 139
    },
    {
      "name": "메가MGC커피 삼양점",
      "address": "서울특별시 강북구 솔샘로 213-2 1층 (미아동)",
      "contact": "02-982-9240",
      "lat": "37.6202164047082",
      "lng": "127.01648688841",
      "region": "서울특별시",
      "district": "강북구",
      "id": 140
    },
    {
      "name": "메가MGC커피 수유역점",
      "address": "서울특별시 강북구 오패산로 4131층(번동)",
      "contact": "02-992-2089",
      "lat": "37.6374380944199",
      "lng": "127.026152712658",
      "region": "서울특별시",
      "district": "강북구",
      "id": 141
    },
    {
      "name": "메가MGC커피 삼양사거리점",
      "address": "서울특별시 강북구 솔샘로 2511층(미아동)",
      "contact": "02-988-5688",
      "lat": "37.6197487724887",
      "lng": "127.020622413695",
      "region": "서울특별시",
      "district": "강북구",
      "id": 142
    },
    {
      "name": "메가MGC커피 강북번동점",
      "address": "서울특별시 강북구 한천로109가길 41층 코너(번동 , 광덕빌딩)",
      "contact": "02-980-9889",
      "lat": "37.6278633878214",
      "lng": "127.042109242048",
      "region": "서울특별시",
      "district": "강북구",
      "id": 143
    },
    {
      "name": "메가MGC커피 수유중앙점",
      "address": "서울특별시 강북구 삼양로 3081층(수유동 , 진주빌딩)",
      "contact": "02-983-9080",
      "lat": "37.6309118862839",
      "lng": "127.018019314499",
      "region": "서울특별시",
      "district": "강북구",
      "id": 144
    },
    {
      "name": "메가MGC커피 미아삼각산점",
      "address": "서울 강북구 삼양로19길 74 (미아동, 삼각산아이원아파트)제 402동 제2층 제102, 103호",
      "contact": "02-989-0688",
      "lat": "37.6163962808066",
      "lng": "127.019045509248",
      "region": "서울",
      "district": "강북구",
      "id": 145
    },
    {
      "name": "메가MGC커피 강북우이시장점",
      "address": "서울 강북구 한천로 1130 (수유동)1층 일부",
      "contact": "02-906-6566",
      "lat": "37.6457469582138",
      "lng": "127.019197584751",
      "region": "서울",
      "district": "강북구",
      "id": 146
    },
    {
      "name": "메가MGC커피 미아솔샘점",
      "address": "서울 강북구 솔샘로 315 (미아동, 대오빌딩)1층",
      "contact": "02-988-8748",
      "lat": "37.6173990785125",
      "lng": "127.027313137218",
      "region": "서울",
      "district": "강북구",
      "id": 147
    },
    {
      "name": "메가MGC커피 미아중앙점",
      "address": "서울 강북구 도봉로 174 (미아동)1층 104호",
      "contact": "02-980-9888",
      "lat": "37.6243888632451",
      "lng": "127.027256903319",
      "region": "서울",
      "district": "강북구",
      "id": 148
    },
    {
      "name": "메가MGC커피 북한산우이역점",
      "address": "서울 강북구 삼양로173길 26 (우이동)",
      "contact": "02-999-1278",
      "lat": "37.6628728042916",
      "lng": "127.010972422497",
      "region": "서울",
      "district": "강북구",
      "id": 149
    },
    {
      "name": "메가MGC커피 광산사거리점",
      "address": "서울 강북구 노해로 87 (수유동, 광산빌딩)",
      "contact": "02-6338-7748",
      "lat": "37.6435875655366",
      "lng": "127.022296540436",
      "region": "서울",
      "district": "강북구",
      "id": 150
    },
    {
      "name": "메가MGC커피 강북구청점",
      "address": "서울 강북구 한천로139길 39 (수유동)",
      "contact": "02-6949-4210",
      "lat": "37.6386367858644",
      "lng": "127.025228609531",
      "region": "서울",
      "district": "강북구",
      "id": 151
    },
    {
      "name": "메가MGC커피 수유대한병원점",
      "address": "서울 강북구 노해로 11 (수유동)",
      "contact": "02-2039-0998",
      "lat": "37.6366169181804",
      "lng": "127.022764410603",
      "region": "서울",
      "district": "강북구",
      "id": 152
    },
    {
      "name": "메가MGC커피 마곡유림점",
      "address": "서울특별시 강서구 강서로 4191층(마곡동)",
      "contact": "02-2668-2004",
      "lat": "37.5629853472673",
      "lng": "126.839209217691",
      "region": "서울특별시",
      "district": "강서구",
      "id": 153
    },
    {
      "name": "메가MGC커피 마곡나루역점",
      "address": "서울특별시 강서구 마곡중앙5로 1길 201층 113호",
      "contact": "02-2093-6511",
      "lat": "37.5686664592954",
      "lng": "126.826712019131",
      "region": "서울특별시",
      "district": "강서구",
      "id": 154
    },
    {
      "name": "메가MGC커피 우장산역점",
      "address": "서울특별시 강서구 강서로45길 6 (내발산동)1층",
      "contact": "02-2695-2323",
      "lat": "37.5481028817244",
      "lng": "126.835817470595",
      "region": "서울특별시",
      "district": "강서구",
      "id": 155
    },
    {
      "name": "메가MGC커피 가양역점",
      "address": "서울특별시 강서구 양천로 492 (등촌동, 길훈엔트런스빌)1층 105호",
      "contact": "02-3665-6635",
      "lat": "37.560875023018",
      "lng": "126.854626804611",
      "region": "서울특별시",
      "district": "강서구",
      "id": 156
    },
    {
      "name": "메가MGC커피 발산역점",
      "address": "서울특별시 강서구 강서로 380 (등촌동, 세민빌딩)102호",
      "contact": "02-2658-4192",
      "lat": "37.5594884014712",
      "lng": "126.83887821316",
      "region": "서울특별시",
      "district": "강서구",
      "id": 157
    },
    {
      "name": "메가MGC커피 부산명지점",
      "address": "부산광역시 강서구 명지1동 3511-4",
      "contact": "051-202-3030",
      "lat": "35.1052382813183",
      "lng": "128.924289551577",
      "region": "부산광역시",
      "district": "강서구",
      "id": 158
    },
    {
      "name": "메가MGC커피 까치산역점",
      "address": "서울특별시 강서구 강서로 33",
      "contact": "02-2697-0010",
      "lat": "37.5307303901082",
      "lng": "126.847048770243",
      "region": "서울특별시",
      "district": "강서구",
      "id": 159
    },
    {
      "name": "메가MGC커피 강서한강자이타워점",
      "address": "서울특별시 강서구 양천로 401 (가양동, 강서한강자이타워)",
      "contact": "02-2638-5475",
      "lat": "37.5657010514328",
      "lng": "126.84764409296",
      "region": "서울특별시",
      "district": "강서구",
      "id": 160
    },
    {
      "name": "메가MGC커피 지사동점",
      "address": "부산광역시 강서구 과학산단로 3491층",
      "contact": "051-972-4666",
      "lat": "35.148663647653",
      "lng": "128.831181342465",
      "region": "부산광역시",
      "district": "강서구",
      "id": 161
    },
    {
      "name": "메가MGC커피 부산명지더샵점",
      "address": "부산광역시 강서구 명지국제7로 37판매시설동 105호 일부(명지동 , 더샵 명지퍼스트월드 2단지)",
      "contact": "051-208-6268",
      "lat": "35.0975218758561",
      "lng": "128.905203069718",
      "region": "부산광역시",
      "district": "강서구",
      "id": 162
    },
    {
      "name": "메가MGC커피 염창역점",
      "address": "서울특별시 강서구 공항대로 629 102호 (염창동)",
      "contact": "02-3665-7089",
      "lat": "37.5472459349377",
      "lng": "126.87486403523",
      "region": "서울특별시",
      "district": "강서구",
      "id": 163
    },
    {
      "name": "메가MGC커피 목동사거리점",
      "address": "서울특별시 강서구 곰달래로 272 102호 (화곡동)",
      "contact": "02-2062-7844",
      "lat": "37.5321869103468",
      "lng": "126.863175330319",
      "region": "서울특별시",
      "district": "강서구",
      "id": 164
    },
    {
      "name": "메가MGC커피 이대서울병원점",
      "address": "서울특별시 강서구 강서로 349 1층 (내발산동)",
      "contact": "02-6407-1711",
      "lat": "37.5568874407015",
      "lng": "126.837392387854",
      "region": "서울특별시",
      "district": "강서구",
      "id": 165
    },
    {
      "name": "메가MGC커피 강서구청점",
      "address": "서울특별시 강서구 화곡로 326 1-2층 (화곡동)",
      "contact": "02-2602-7834",
      "lat": "37.5528039945261",
      "lng": "126.850806271393",
      "region": "서울특별시",
      "district": "강서구",
      "id": 166
    },
    {
      "name": "메가MGC커피 방화사거리점",
      "address": "서울특별시 강서구 양천로 731층 (방화동)",
      "contact": "02-2661-9880",
      "lat": "37.5737251867757",
      "lng": "126.811826043779",
      "region": "서울특별시",
      "district": "강서구",
      "id": 167
    },
    {
      "name": "메가MGC커피 염창점",
      "address": "서울특별시 강서구 양천로 6581층 101호(염창동 , 양화진빌딩)",
      "contact": "02-3661-2918",
      "lat": "37.5523079799238",
      "lng": "126.86991587864",
      "region": "서울특별시",
      "district": "강서구",
      "id": 168
    },
    {
      "name": "메가MGC커피 화곡본동시장점",
      "address": "서울특별시 강서구 까치산로4길 31층(화곡동)",
      "contact": "02-2603-3222",
      "lat": "37.5424936410225",
      "lng": "126.844138758277",
      "region": "서울특별시",
      "district": "강서구",
      "id": 169
    },
    {
      "name": "메가MGC커피 마곡수명산점",
      "address": "서울특별시 강서구 수명로 68-351층(내발산동)",
      "contact": "02-2667-1042",
      "lat": "37.5529862473925",
      "lng": "126.82677164429",
      "region": "서울특별시",
      "district": "강서구",
      "id": 170
    },
    {
      "name": "메가MGC커피 까치산시장점",
      "address": "서울특별시 강서구 강서로18나길 11층(화곡동)",
      "contact": "02-2691-1110",
      "lat": "37.5341860558435",
      "lng": "126.847233713621",
      "region": "서울특별시",
      "district": "강서구",
      "id": 171
    },
    {
      "name": "메가MGC커피 화곡남부시장점",
      "address": "서울특별시 강서구 곰달래로49길 111층(화곡동)",
      "contact": "02-2699-5088",
      "lat": "37.5322212753215",
      "lng": "126.857567234879",
      "region": "서울특별시",
      "district": "강서구",
      "id": 172
    },
    {
      "name": "메가MGC커피 가양중앙점",
      "address": "서울특별시 강서구 양천로 4611층(가양동)",
      "contact": "02-2668-7528",
      "lat": "37.5630457825024",
      "lng": "126.852223862157",
      "region": "서울특별시",
      "district": "강서구",
      "id": 173
    },
    {
      "name": "메가MGC커피 가양초점",
      "address": "서울특별시 강서구 허준로 1981층(가양동)",
      "contact": "02-3663-7448",
      "lat": "37.5612915907155",
      "lng": "126.860254088709",
      "region": "서울특별시",
      "district": "강서구",
      "id": 174
    },
    {
      "name": "메가MGC커피 마곡역점",
      "address": "서울특별시 강서구 공항대로 1901층(마곡동)",
      "contact": "02-6465-8864",
      "lat": "37.5590423146669",
      "lng": "126.828637182941",
      "region": "서울특별시",
      "district": "강서구",
      "id": 175
    },
    {
      "name": "메가MGC커피 강서등촌점",
      "address": "서울특별시 강서구 공항대로61길 221층(염창동)",
      "contact": "02-2659-0002",
      "lat": "37.5519544383823",
      "lng": "126.865897784304",
      "region": "서울특별시",
      "district": "강서구",
      "id": 176
    },
    {
      "name": "메가MGC커피 화곡역점",
      "address": "서울특별시 강서구 화곡로 1601층(화곡동)",
      "contact": "02-2065-3722",
      "lat": "37.541170815534",
      "lng": "126.83944684943",
      "region": "서울특별시",
      "district": "강서구",
      "id": 177
    },
    {
      "name": "메가MGC커피 방화역점",
      "address": "서울특별시 강서구 금낭화로 1461층 107호(방화동 , 오피앙)",
      "contact": "02-2662-1599",
      "lat": "37.5781901549032",
      "lng": "126.813305186149",
      "region": "서울특별시",
      "district": "강서구",
      "id": 178
    },
    {
      "name": "메가MGC커피 등촌성당점",
      "address": "서울특별시 강서구 공항대로41길 43 103호 (등촌동 , 새한프라자)",
      "contact": "02-2659-7659",
      "lat": "37.5599073490843",
      "lng": "126.845540896294",
      "region": "서울특별시",
      "district": "강서구",
      "id": 179
    },
    {
      "name": "메가MGC커피 신방화역점",
      "address": "서울특별시 강서구 마곡중앙5로 87 101호(마곡동 , 우성르보아투)",
      "contact": "02-2662-7755",
      "lat": "37.5671748308356",
      "lng": "126.817774634056",
      "region": "서울특별시",
      "district": "강서구",
      "id": 180
    },
    {
      "name": "메가MGC커피 마곡중앙점",
      "address": "서울특별시 강서구 마곡동로 62 111호(마곡동 , 마곡사이언스타워)",
      "contact": "02-2659-9007",
      "lat": "37.5605537644679",
      "lng": "126.833890184435",
      "region": "서울특별시",
      "district": "강서구",
      "id": 181
    },
    {
      "name": "메가MGC커피 발산중앙점",
      "address": "서울특별시 강서구 우장산로2길 49 1층(내발산동)",
      "contact": "02-2659-7734",
      "lat": "37.5525410841355",
      "lng": "126.83723400201",
      "region": "서울특별시",
      "district": "강서구",
      "id": 182
    },
    {
      "name": "메가MGC커피 양천향교역점",
      "address": "서울특별시 강서구 강서로 471 A동 105호(마곡동 , 엠코지니어스타)",
      "contact": "02-3663-1798",
      "lat": "37.5674482048077",
      "lng": "126.840573315951",
      "region": "서울특별시",
      "district": "강서구",
      "id": 183
    },
    {
      "name": "메가MGC커피 강서세무서점",
      "address": "서울특별시 강서구 공항대로 103판매시설2동 1층 104호(마곡동 , 마곡 엠밸리 9단지)",
      "contact": "02-2661-1042",
      "lat": "37.5622651046048",
      "lng": "126.819165394649",
      "region": "서울특별시",
      "district": "강서구",
      "id": 184
    },
    {
      "name": "메가MGC커피 방화중앙점",
      "address": "서울특별시 강서구 방화동로 1021층(방화동)",
      "contact": "02-2666-2818",
      "lat": "37.5694621054707",
      "lng": "126.812998823052",
      "region": "서울특별시",
      "district": "강서구",
      "id": 185
    },
    {
      "name": "메가MGC커피 화곡중앙시장점",
      "address": "서울특별시 강서구 가로공원로76길 731층(화곡동)",
      "contact": "02-2608-3222",
      "lat": "37.5339952987106",
      "lng": "126.83855303361",
      "region": "서울특별시",
      "district": "강서구",
      "id": 186
    },
    {
      "name": "메가MGC커피 서부산유통지구점",
      "address": "부산광역시 강서구 유통단지1로 50다동 105호(대저2동)",
      "contact": "051-796-0003",
      "lat": "35.1703264548184",
      "lng": "128.95418180555",
      "region": "부산광역시",
      "district": "강서구",
      "id": 187
    },
    {
      "name": "메가MGC커피 강서우림블루나인점",
      "address": "서울특별시 강서구 양천로 583층123호(염창동 ,우림블루나인비즈니스센터)",
      "contact": "02-2093-2121",
      "lat": "37.5571161918617",
      "lng": "126.864347419732",
      "region": "서울특별시",
      "district": "강서구",
      "id": 188
    },
    {
      "name": "메가MGC커피 마곡공진초점",
      "address": "서울 강서구 마곡중앙1로 26 (마곡동, 엠리체)1층 107호",
      "contact": "02-2666-6999",
      "lat": "37.5586282971172",
      "lng": "126.823855000993",
      "region": "서울",
      "district": "강서구",
      "id": 189
    },
    {
      "name": "메가MGC커피 우장산숲아이파크점",
      "address": "서울 강서구 강서로 211 (화곡동)1층 101호",
      "contact": "02-2602-2220",
      "lat": "37.5445728814837",
      "lng": "126.837198596447",
      "region": "서울",
      "district": "강서구",
      "id": 190
    },
    {
      "name": "메가MGC커피 화곡곰달래점",
      "address": "서울 강서구 곰달래로 185 (화곡동)",
      "contact": "02-2602-1810",
      "lat": "37.5312512304387",
      "lng": "126.85356630326",
      "region": "서울",
      "district": "강서구",
      "id": 191
    },
    {
      "name": "메가MGC커피 화곡중앙점",
      "address": "서울 강서구 까치산로 79 (화곡동)",
      "contact": "02-2695-9741",
      "lat": "37.5457692637848",
      "lng": "126.847413765001",
      "region": "서울",
      "district": "강서구",
      "id": 192
    },
    {
      "name": "메가MGC커피 부산신호점",
      "address": "부산 강서구 신호산단2로 33 (신호동)",
      "contact": "051-711-7778",
      "lat": "35.0859448460499",
      "lng": "128.877765652408",
      "region": "부산",
      "district": "강서구",
      "id": 193
    },
    {
      "name": "메가MGC커피 강서가양점",
      "address": "서울 강서구 강서로 511 (가양동, 한림타운)",
      "contact": "02-3662-8087",
      "lat": "37.5710165391584",
      "lng": "126.841469246972",
      "region": "서울",
      "district": "강서구",
      "id": 194
    },
    {
      "name": "메가MGC커피 개화산역점",
      "address": "서울 강서구 양천로 28 (방화동, 벽산에어트리움)",
      "contact": "02-2666-1110",
      "lat": "37.5723030060453",
      "lng": "126.806994113323",
      "region": "서울",
      "district": "강서구",
      "id": 195
    },
    {
      "name": "메가MGC커피 염창동점",
      "address": "서울 강서구 양천로 698 (염창동, 한영빌딩)",
      "contact": "02-3661-1811",
      "lat": "37.5498882691482",
      "lng": "126.873321480798",
      "region": "서울",
      "district": "강서구",
      "id": 196
    },
    {
      "name": "메가MGC커피 송정역점",
      "address": "서울 강서구 공항대로 28 (공항동)",
      "contact": "02-2662-8520",
      "lat": "37.5611463611113",
      "lng": "126.810280495789",
      "region": "서울",
      "district": "강서구",
      "id": 197
    },
    {
      "name": "메가MGC커피 공항시장역점",
      "address": "서울 강서구 방화동로 49-1 (방화동)",
      "contact": "02-2661-4568",
      "lat": "37.565179204553",
      "lng": "126.81151114791",
      "region": "서울",
      "district": "강서구",
      "id": 198
    },
    {
      "name": "메가MGC커피 김해공항국내선점",
      "address": "부산 강서구 대저2동 2350-1",
      "contact": "051-831-1007",
      "lat": "35.1719452056834",
      "lng": "128.947707113959",
      "region": "부산",
      "district": "강서구",
      "id": 199
    },
    {
      "name": "메가MGC커피 가양두산위브점",
      "address": "서울 강서구 공항대로45길 15 (등촌동, 가양역 두산위브)",
      "contact": "02-2659-0779",
      "lat": "37.5562925590397",
      "lng": "126.854556711293",
      "region": "서울",
      "district": "강서구",
      "id": 200
    },
    {
      "name": "메가MGC커피 마곡GMG타워점",
      "address": "서울 강서구 마곡중앙6로 16 (마곡동, 마곡지엠지타워)",
      "contact": "02-3663-2806",
      "lat": "37.5604015515818",
      "lng": "126.829006208171",
      "region": "서울",
      "district": "강서구",
      "id": 201
    },
    {
      "name": "메가MGC커피 증미역점",
      "address": "서울 강서구 양천로 564 (등촌동, 등촌동두산위브센티움)",
      "contact": "02-2659-9991",
      "lat": "37.5570868295233",
      "lng": "126.861331339109",
      "region": "서울",
      "district": "강서구",
      "id": 202
    },
    {
      "name": "메가MGC커피 마곡푸르지오점",
      "address": "서울 강서구 방화대로34길 80 (마곡동)",
      "contact": "02-6949-0809",
      "lat": "37.5707308566718",
      "lng": "126.820882605311",
      "region": "서울",
      "district": "강서구",
      "id": 203
    },
    {
      "name": "메가MGC커피 부산명지오션퍼스트점",
      "address": "부산 강서구 명지국제6로 90 (명지동, 오션퍼스트)",
      "contact": "070-8868-8006",
      "lat": "35.0912044737672",
      "lng": "128.908760080299",
      "region": "부산",
      "district": "강서구",
      "id": 204
    },
    {
      "name": "메가MGC커피 마곡엠밸리7단지점",
      "address": "서울 강서구 마곡서로 133 (마곡동, 마곡엠밸리7단지)",
      "contact": "070-7722-0787",
      "lat": "37.5645561030039",
      "lng": "126.823838667719",
      "region": "서울",
      "district": "강서구",
      "id": 205
    },
    {
      "name": "메가MGC커피 가양등촌마을점",
      "address": "서울 강서구 화곡로68길 36 (등촌동, 에이스에이존)",
      "contact": "070-4027-1287",
      "lat": "37.5585538483686",
      "lng": "126.85659302794",
      "region": "서울",
      "district": "강서구",
      "id": 206
    },
    {
      "name": "메가MGC커피 등촌강서고입구점",
      "address": "서울 강서구 등촌로 65 (등촌동, 동양하우징)",
      "contact": "02-2643-3330",
      "lat": "37.5359232687599",
      "lng": "126.863175745302",
      "region": "서울",
      "district": "강서구",
      "id": 207
    },
    {
      "name": "메가MGC커피 마곡우성타워2차점",
      "address": "서울 강서구 공항대로 220 (마곡동, 우성에스비타워Ⅱ)",
      "contact": "02-6952-6640",
      "lat": "37.5587038045971",
      "lng": "126.831765636495",
      "region": "서울",
      "district": "강서구",
      "id": 208
    },
    {
      "name": "메가MGC커피 마곡하늬중점",
      "address": "서울 강서구 공항대로 124 (마곡동, 마곡엠밸리11단지)",
      "contact": "02-6949-3690",
      "lat": "37.5594617880425",
      "lng": "126.820728611421",
      "region": "서울",
      "district": "강서구",
      "id": 209
    },
    {
      "name": "메가MGC커피 마곡롯데캐슬르웨스트점",
      "address": "서울 강서구 마곡중앙로 111 (마곡동, 롯데캐슬 르웨스트)",
      "contact": "02-6953-0941",
      "lat": "37.5638094509858",
      "lng": "126.825417557789",
      "region": "서울",
      "district": "강서구",
      "id": 210
    },
    {
      "name": "메가MGC커피 부산명지오션시티점",
      "address": "부산 강서구 명지오션시티4로 73 (명지동)",
      "contact": "051-715-1716",
      "lat": "35.0825554451096",
      "lng": "128.903948573337",
      "region": "부산",
      "district": "강서구",
      "id": 211
    },
    {
      "name": "메가MGC커피 강서구청사거리점",
      "address": "서울 강서구 우장산로15길 53 (화곡동)",
      "contact": "02-6958-8554",
      "lat": "37.5554892817168",
      "lng": "126.851127988993",
      "region": "서울",
      "district": "강서구",
      "id": 212
    },
    {
      "name": "메가MGC커피 공항동주민센터점",
      "address": "서울 강서구 송정로4길 1-1 (공항동)",
      "contact": "02-6941-1893",
      "lat": "37.5585187419014",
      "lng": "126.810926160278",
      "region": "서울",
      "district": "강서구",
      "id": 213
    },
    {
      "name": "메가MGC커피 서울염경초점",
      "address": "서울 강서구 양천로69길 58 (염창동, 염창동아아파트)",
      "contact": "02-6953-8852",
      "lat": "37.5552719720298",
      "lng": "126.872960399991",
      "region": "서울",
      "district": "강서구",
      "id": 214
    },
    {
      "name": "메가MGC커피 서울대입구점",
      "address": "서울특별시 관악구 남부순환로 1861 (봉천동, 덕수빌딩)1층",
      "contact": "02-878-4825",
      "lat": "37.4800000872565",
      "lng": "126.9568669074",
      "region": "서울특별시",
      "district": "관악구",
      "id": 215
    },
    {
      "name": "메가MGC커피 대학점",
      "address": "서울특별시 관악구 호암로26가길 2 (신림동)1층",
      "contact": "02-822-0210",
      "lat": "37.4707394033835",
      "lng": "126.93400527027",
      "region": "서울특별시",
      "district": "관악구",
      "id": 216
    },
    {
      "name": "메가MGC커피 봉일시장점",
      "address": "서울특별시 관악구 은천로 37 1층 (봉천동)",
      "contact": "02-876-8090",
      "lat": "37.4863497537626",
      "lng": "126.939571497277",
      "region": "서울특별시",
      "district": "관악구",
      "id": 217
    },
    {
      "name": "메가MGC커피 현대시장점",
      "address": "서울특별시 관악구 은천로 113 1층(봉천동)",
      "contact": "02-882-9140",
      "lat": "37.4869475868281",
      "lng": "126.947928240297",
      "region": "서울특별시",
      "district": "관악구",
      "id": 218
    },
    {
      "name": "메가MGC커피 봉천역점",
      "address": "서울특별시 관악구 남부순환로 1740 1층 (봉천동, 명당빌딩)",
      "contact": "02-878-8840",
      "lat": "37.4819000975612",
      "lng": "126.943337342715",
      "region": "서울특별시",
      "district": "관악구",
      "id": 219
    },
    {
      "name": "메가MGC커피 신림난곡점",
      "address": "서울특별시 관악구 난우길 8 1층 (신림동)",
      "contact": "02-861-2332",
      "lat": "37.4737905869175",
      "lng": "126.918949628281",
      "region": "서울특별시",
      "district": "관악구",
      "id": 220
    },
    {
      "name": "메가MGC커피 신림역점",
      "address": "서울특별시 관악구 신림로 321 1층 (신림동)",
      "contact": "02-882-1015",
      "lat": "37.4828969433377",
      "lng": "126.929546648038",
      "region": "서울특별시",
      "district": "관악구",
      "id": 221
    },
    {
      "name": "메가MGC커피 난곡우체국점",
      "address": "서울특별시 관악구 난곡로 268 1층 (신림동)",
      "contact": "02-866-0605",
      "lat": "37.4779046107397",
      "lng": "126.915497194711",
      "region": "서울특별시",
      "district": "관악구",
      "id": 222
    },
    {
      "name": "메가MGC커피 신대방역점",
      "address": "서울특별시 관악구 난곡로 367 1층 (신림동 , 경신빌딩)",
      "contact": "02-838-8133",
      "lat": "37.4867009567317",
      "lng": "126.913354117853",
      "region": "서울특별시",
      "district": "관악구",
      "id": 223
    },
    {
      "name": "메가MGC커피 신림역사거리점",
      "address": "서울특별시 관악구 남부순환로 16171층(신림동)",
      "contact": "02-876-2770",
      "lat": "37.4845706415993",
      "lng": "126.930280799083",
      "region": "서울특별시",
      "district": "관악구",
      "id": 224
    },
    {
      "name": "메가MGC커피 신림프라임법학원점",
      "address": "서울특별시 관악구 신림로 901층 메가커피(신림동)",
      "contact": "02-887-6700",
      "lat": "37.4709361714829",
      "lng": "126.939362676994",
      "region": "서울특별시",
      "district": "관악구",
      "id": 225
    },
    {
      "name": "메가MGC커피 낙성대역점",
      "address": "서울특별시 관악구 남부순환로 1913 1층(봉천동)",
      "contact": "02-875-0656",
      "lat": "37.4779659369405",
      "lng": "126.962024579044",
      "region": "서울특별시",
      "district": "관악구",
      "id": 226
    },
    {
      "name": "메가MGC커피 당곡역점",
      "address": "서울특별시 관악구 보라매로 2104호(봉천동 , 신흥빌딩)",
      "contact": "02-875-7577",
      "lat": "37.4897124090674",
      "lng": "126.928003344438",
      "region": "서울특별시",
      "district": "관악구",
      "id": 227
    },
    {
      "name": "메가MGC커피 서울대입구역점",
      "address": "서울특별시 관악구 관악로 195제1층 제115호(봉천동 , 관악위버폴리스)",
      "contact": "02-871-9001",
      "lat": "37.4825638239353",
      "lng": "126.953098728924",
      "region": "서울특별시",
      "district": "관악구",
      "id": 228
    },
    {
      "name": "메가MGC커피 관악구청점",
      "address": "서울특별시 관악구 관악로 164제1층 제111호(봉천동 , 대우디오슈페리움1단지)",
      "contact": "02-875-0888",
      "lat": "37.4797395226756",
      "lng": "126.952875619698",
      "region": "서울특별시",
      "district": "관악구",
      "id": 229
    },
    {
      "name": "메가MGC커피 사당역점",
      "address": "서울특별시 관악구 과천대로 9551층(남현동 , 삼오빌딩)",
      "contact": "02-588-0656",
      "lat": "37.4759416445717",
      "lng": "126.981163275417",
      "region": "서울특별시",
      "district": "관악구",
      "id": 230
    },
    {
      "name": "메가MGC커피 관악인헌시장점",
      "address": "서울 관악구 봉천로 615 (봉천동)1층 1호",
      "contact": "02-877-0111",
      "lat": "37.4757451261734",
      "lng": "126.965544818355",
      "region": "서울",
      "district": "관악구",
      "id": 231
    },
    {
      "name": "메가MGC커피 봉천e편한세상점",
      "address": "서울 관악구 쑥고개로 67-1 (봉천동)1층",
      "contact": "02-883-0714",
      "lat": "37.4796671951377",
      "lng": "126.944047343162",
      "region": "서울",
      "district": "관악구",
      "id": 232
    },
    {
      "name": "메가MGC커피 서울대잔디광장점",
      "address": "서울 관악구 관악로 1 (신림동, 서울대학교)관악60-1동 잔디광장 B1F",
      "contact": "02-877-0656",
      "lat": "37.468038057989",
      "lng": "126.959294337648",
      "region": "서울",
      "district": "관악구",
      "id": 233
    },
    {
      "name": "메가MGC커피 서원역점",
      "address": "서울 관악구 신림로 272 (신림동, 대원빌딩)",
      "contact": "02-875-1110",
      "lat": "37.4791220829489",
      "lng": "126.93201825115",
      "region": "서울",
      "district": "관악구",
      "id": 234
    },
    {
      "name": "메가MGC커피 신림녹두거리점",
      "address": "서울 관악구 대학6길 2 (신림동)",
      "contact": "02-877-7922",
      "lat": "37.4689757179612",
      "lng": "126.937565861845",
      "region": "서울",
      "district": "관악구",
      "id": 235
    },
    {
      "name": "메가MGC커피  난곡신사시장점",
      "address": "서울 관악구 조원로 136 (신림동)",
      "contact": "02-838-8111",
      "lat": "37.4853472303686",
      "lng": "126.917433686744",
      "region": "서울",
      "district": "관악구",
      "id": 236
    },
    {
      "name": "메가MGC커피 난곡휴먼시아점",
      "address": "서울 관악구 난곡로 60 (신림동, 산타플러스빌딩)",
      "contact": "02-856-8885",
      "lat": "37.4608681432511",
      "lng": "126.919395468118",
      "region": "서울",
      "district": "관악구",
      "id": 237
    },
    {
      "name": "메가MGC커피 난곡우림시장점",
      "address": "서울 관악구 난곡로 176 (신림동)",
      "contact": "02-854-4911",
      "lat": "37.4707857553709",
      "lng": "126.920062415015",
      "region": "서울",
      "district": "관악구",
      "id": 238
    },
    {
      "name": "메가MGC커피 신림양지병원점",
      "address": "서울 관악구 남부순환로 1649 (신림동)",
      "contact": "02-883-2770",
      "lat": "37.4850426375345",
      "lng": "126.933971321297",
      "region": "서울",
      "district": "관악구",
      "id": 239
    },
    {
      "name": "메가MGC커피 관악남현점",
      "address": "서울 관악구 남부순환로 2060 (남현동)",
      "contact": "02-588-5553",
      "lat": "37.476374033919",
      "lng": "126.977525428045",
      "region": "서울",
      "district": "관악구",
      "id": 240
    },
    {
      "name": "메가MGC커피 신림역도림천점",
      "address": "서울 관악구 남부순환로 1599 (신림동)",
      "contact": "02-882-8881",
      "lat": "37.4842950188384",
      "lng": "126.928167853107",
      "region": "서울",
      "district": "관악구",
      "id": 241
    },
    {
      "name": "메가MGC커피 신림신원점",
      "address": "서울 관악구 신원로 13-1 (신림동)",
      "contact": "02-855-0111",
      "lat": "37.4806467308125",
      "lng": "126.927701692642",
      "region": "서울",
      "district": "관악구",
      "id": 242
    },
    {
      "name": "메가MGC커피 난곡사거리점",
      "address": "서울 관악구 난곡로 320 (신림동, 세인빌딩)",
      "contact": "02-851-1003",
      "lat": "37.4826553607747",
      "lng": "126.914620577796",
      "region": "서울",
      "district": "관악구",
      "id": 243
    },
    {
      "name": "메가MGC커피 신림충무교점",
      "address": "서울 관악구 신림로 186 (신림동)",
      "contact": "02-882-0774",
      "lat": "37.4740099449654",
      "lng": "126.935905259557",
      "region": "서울",
      "district": "관악구",
      "id": 244
    },
    {
      "name": "메가MGC커피 서울은천초점",
      "address": "서울 관악구 은천로 84 (봉천동, 라이프빌딩)",
      "contact": "02-883-0603",
      "lat": "37.486628235809",
      "lng": "126.944489793886",
      "region": "서울",
      "district": "관악구",
      "id": 245
    },
    {
      "name": "메가MGC커피 서울남부초교점",
      "address": "서울 관악구 남부순환로 1541 (신림동)",
      "contact": "02-6958-8857",
      "lat": "37.4833767772564",
      "lng": "126.921746553492",
      "region": "서울",
      "district": "관악구",
      "id": 246
    },
    {
      "name": "메가MGC커피 신림별빛거리점",
      "address": "서울 관악구 신림로 362 (신림동)",
      "contact": "02-6949-2113",
      "lat": "37.4866709615955",
      "lng": "126.929487813026",
      "region": "서울",
      "district": "관악구",
      "id": 247
    },
    {
      "name": "메가MGC커피 신림신화교점",
      "address": "서울 관악구 신림로 201 (신림동)",
      "contact": "070-8808-0908",
      "lat": "37.4756756621537",
      "lng": "126.936276007338",
      "region": "서울",
      "district": "관악구",
      "id": 248
    },
    {
      "name": "메가MGC커피 구로힐스테이트뉴포레점",
      "address": "서울 관악구 조원로 25 (신림동)",
      "contact": "070-7543-0949",
      "lat": "37.483708310871",
      "lng": "126.905433298638",
      "region": "서울",
      "district": "관악구",
      "id": 249
    },
    {
      "name": "메가MGC커피 관악은천삼거리점",
      "address": "서울 관악구 관악로 238 (봉천동)",
      "contact": "02-888-2308",
      "lat": "37.4855327714489",
      "lng": "126.956485401922",
      "region": "서울",
      "district": "관악구",
      "id": 250
    },
    {
      "name": "메가MGC커피 보라매동주민센터점",
      "address": "서울 관악구 봉천로 281 (봉천동)",
      "contact": "070-8633-0214",
      "lat": "37.4877270739545",
      "lng": "126.932488744911",
      "region": "서울",
      "district": "관악구",
      "id": 251
    },
    {
      "name": "메가MGC커피 신림신원시장입구점",
      "address": "서울 관악구 남부순환로172길 7 (신림동)",
      "contact": "02-838-7111",
      "lat": "37.4832148696379",
      "lng": "126.925373033363",
      "region": "서울",
      "district": "관악구",
      "id": 252
    },
    {
      "name": "메가MGC커피 관악청룡점",
      "address": "서울 관악구 쑥고개로 110 (봉천동)",
      "contact": "02-6406-8090",
      "lat": "37.4789237592191",
      "lng": "126.948579029548",
      "region": "서울",
      "district": "관악구",
      "id": 253
    },
    {
      "name": "메가MGC커피 관악KT플라자점",
      "address": "서울 관악구 남부순환로 1784 (봉천동)",
      "contact": "02-6012-0214",
      "lat": "37.4814200385593",
      "lng": "126.948449672402",
      "region": "서울",
      "district": "관악구",
      "id": 254
    },
    {
      "name": "메가MGC커피 건대입구역점",
      "address": "서울특별시 광진구 아차산로 2241층(자양동)",
      "contact": "02-466-3021",
      "lat": "37.5405711604806",
      "lng": "127.068080611331",
      "region": "서울특별시",
      "district": "광진구",
      "id": 255
    },
    {
      "name": "메가MGC커피 건대학생회관점",
      "address": "서울특별시 광진구 화양동 393-1 1층",
      "contact": "-",
      "lat": "37.5418480853582",
      "lng": "127.077944281504",
      "region": "서울특별시",
      "district": "광진구",
      "id": 256
    },
    {
      "name": "메가MGC커피 광장점",
      "address": "서울특별시 광진구 아차산로 537-17광장힐스테이트상가 1층 10호",
      "contact": "02-454-1210",
      "lat": "37.5429620594914",
      "lng": "127.099658987674",
      "region": "서울특별시",
      "district": "광진구",
      "id": 257
    },
    {
      "name": "메가MGC커피 아차산역점",
      "address": "서울특별시 광진구 자양로43길 47 1층 (중곡동)",
      "contact": "02-447-1210",
      "lat": "37.5526518273611",
      "lng": "127.090155952677",
      "region": "서울특별시",
      "district": "광진구",
      "id": 258
    },
    {
      "name": "메가MGC커피 자양시장점",
      "address": "서울특별시 광진구 자양로15길 18 1층 (자양동 , 혜성빌딩)",
      "contact": "02-455-5945",
      "lat": "37.535821774302",
      "lng": "127.082545105767",
      "region": "서울특별시",
      "district": "광진구",
      "id": 259
    },
    {
      "name": "메가MGC커피 신양초사거리점",
      "address": "서울특별시 광진구 능동로 491층(자양동)",
      "contact": "02-465-8876",
      "lat": "37.5358145080981",
      "lng": "127.068396709721",
      "region": "서울특별시",
      "district": "광진구",
      "id": 260
    },
    {
      "name": "메가MGC커피 군자역점",
      "address": "서울특별시 광진구 능동로 2941층(능동)",
      "contact": "02-6052-7071",
      "lat": "37.5558508177979",
      "lng": "127.079095356535",
      "region": "서울특별시",
      "district": "광진구",
      "id": 261
    },
    {
      "name": "메가MGC커피 신자초사거리점",
      "address": "서울특별시 광진구 뚝섬로 5961층(자양동)",
      "contact": "02-455-8596",
      "lat": "37.5329550774725",
      "lng": "127.075940379167",
      "region": "서울특별시",
      "district": "광진구",
      "id": 262
    },
    {
      "name": "메가MGC커피 중곡역점",
      "address": "서울특별시 광진구 능동로 403-1 1층 (중곡동)",
      "contact": "02-462-1526",
      "lat": "37.5650913236708",
      "lng": "127.083579217421",
      "region": "서울특별시",
      "district": "광진구",
      "id": 263
    },
    {
      "name": "메가MGC커피 구의역점",
      "address": "서울특별시 광진구 아차산로55길 111층 102호(구의동 , 테라펠리스 건대 3차)",
      "contact": "02-444-5550",
      "lat": "37.5379191510552",
      "lng": "127.086409911051",
      "region": "서울특별시",
      "district": "광진구",
      "id": 264
    },
    {
      "name": "메가MGC커피 중곡중앙점",
      "address": "서울특별시 광진구 능동로 338-11층(중곡동 , 영빌딩)",
      "contact": "02-446-0777",
      "lat": "37.5596766845933",
      "lng": "127.081141615618",
      "region": "서울특별시",
      "district": "광진구",
      "id": 265
    },
    {
      "name": "메가MGC커피 중곡사거리점",
      "address": "서울특별시 광진구 영화사로 11층(중곡동)",
      "contact": "02-455-1007",
      "lat": "37.5586988321461",
      "lng": "127.088299645079",
      "region": "서울특별시",
      "district": "광진구",
      "id": 266
    },
    {
      "name": "메가MGC커피 건대스타점",
      "address": "서울 광진구 능동로 121 (화양동)1층",
      "contact": "02-465-0656",
      "lat": "37.541900964173",
      "lng": "127.071256663379",
      "region": "서울",
      "district": "광진구",
      "id": 267
    },
    {
      "name": "메가MGC커피 구의중앙점",
      "address": "서울 광진구 자양로 170 (구의동)1층",
      "contact": "02-452-0131",
      "lat": "37.5427984638581",
      "lng": "127.084614014057",
      "region": "서울",
      "district": "광진구",
      "id": 268
    },
    {
      "name": "메가MGC커피 잠실대교북단점",
      "address": "서울 광진구 자양로 49 (자양동)1층",
      "contact": "02-452-4889",
      "lat": "37.5321785020915",
      "lng": "127.085189541528",
      "region": "서울",
      "district": "광진구",
      "id": 269
    },
    {
      "name": "메가MGC커피 올림픽대교북단점",
      "address": "서울 광진구 아차산로 481 (구의동, 구의동20020빌딩)",
      "contact": "02-456-6782",
      "lat": "37.5409712126509",
      "lng": "127.09495568783",
      "region": "서울",
      "district": "광진구",
      "id": 270
    },
    {
      "name": "메가MGC커피 중곡대원점",
      "address": "서울 광진구 용마산로 114 (중곡동, 경동빌딩)",
      "contact": "02-458-9383",
      "lat": "37.5638803629845",
      "lng": "127.087099875861",
      "region": "서울",
      "district": "광진구",
      "id": 271
    },
    {
      "name": "메가MGC커피 어린이대공원역점",
      "address": "서울 광진구 능동로 179 (화양동)",
      "contact": "02-468-8989",
      "lat": "37.5466394662895",
      "lng": "127.073514755354",
      "region": "서울",
      "district": "광진구",
      "id": 272
    },
    {
      "name": "메가MGC커피 동서울터미널점",
      "address": "서울 광진구 강변역로4길 10 (구의동, 강변역지너스타워)",
      "contact": "02-454-1003",
      "lat": "37.5353492183772",
      "lng": "127.093405063055",
      "region": "서울",
      "district": "광진구",
      "id": 273
    },
    {
      "name": "메가MGC커피 광진군자로점",
      "address": "서울 광진구 군자로 86 (군자동)",
      "contact": "02-499-3002",
      "lat": "37.5507469955302",
      "lng": "127.071215969941",
      "region": "서울",
      "district": "광진구",
      "id": 274
    },
    {
      "name": "메가MGC커피 건대동문회관점",
      "address": "서울 광진구 아차산로 290 (자양동)",
      "contact": "02-457-1117",
      "lat": "37.5383717900908",
      "lng": "127.075114011539",
      "region": "서울",
      "district": "광진구",
      "id": 275
    },
    {
      "name": "메가MGC커피 광진자양뚝섬로점",
      "address": "서울 광진구 뚝섬로52길 7 (자양동, 그랜드 아파트)",
      "contact": "02-455-2089",
      "lat": "37.531532669959",
      "lng": "127.079629698305",
      "region": "서울",
      "district": "광진구",
      "id": 276
    },
    {
      "name": "메가MGC커피 건대화양제일시장점",
      "address": "서울 광진구 능동로13길 40 (화양동)",
      "contact": "02-466-2089",
      "lat": "37.5437091181536",
      "lng": "127.070307424716",
      "region": "서울",
      "district": "광진구",
      "id": 277
    },
    {
      "name": "메가MGC커피 군자동주민센터점",
      "address": "서울 광진구 면목로 7-1 (군자동)",
      "contact": "02-462-1116",
      "lat": "37.5550333593236",
      "lng": "127.075209273544",
      "region": "서울",
      "district": "광진구",
      "id": 278
    },
    {
      "name": "메가MGC커피 건대스타시티몰점",
      "address": "서울 광진구 아차산로 272 (자양동, 더샵스타시티)",
      "contact": "02-6941-1108",
      "lat": "37.5385582736952",
      "lng": "127.072996184863",
      "region": "서울",
      "district": "광진구",
      "id": 279
    },
    {
      "name": "메가MGC커피 자양역점",
      "address": "서울 광진구 능동로 18 (자양동)",
      "contact": "02-466-1115",
      "lat": "37.532681666917",
      "lng": "127.067878953418",
      "region": "서울",
      "district": "광진구",
      "id": 280
    },
    {
      "name": "메가MGC커피 건대후문점",
      "address": "서울 광진구 광나루로24길 23 (화양동)",
      "contact": "02-6941-1343",
      "lat": "37.5453627492688",
      "lng": "127.07677369924",
      "region": "서울",
      "district": "광진구",
      "id": 281
    },
    {
      "name": "메가MGC커피 중곡3동점",
      "address": "서울 광진구 면목로 164 (중곡동)",
      "contact": "02-466-0656",
      "lat": "37.5677237613952",
      "lng": "127.082427940853",
      "region": "서울",
      "district": "광진구",
      "id": 282
    },
    {
      "name": "메가MGC커피 서울성자초점",
      "address": "서울 광진구 뚝섬로56길 25 (자양동)",
      "contact": "02-6954-7344",
      "lat": "37.530255133607",
      "lng": "127.082784361222",
      "region": "서울",
      "district": "광진구",
      "id": 283
    },
    {
      "name": "메가MGC커피 자양선화예술점",
      "address": "서울 광진구 자양로 231 (구의동)",
      "contact": "02-2138-2132",
      "lat": "37.5476032112144",
      "lng": "127.08783549363",
      "region": "서울",
      "district": "광진구",
      "id": 284
    },
    {
      "name": "메가MGC커피 서울동자초점",
      "address": "서울 광진구 뚝섬로 552 (자양동, 삼희빌딩)",
      "contact": "02-454-3017",
      "lat": "37.5343039923272",
      "lng": "127.071271836617",
      "region": "서울",
      "district": "광진구",
      "id": 285
    },
    {
      "name": "메가MGC커피 건대글로벌시티점",
      "address": "서울 광진구 아차산로 205 (화양동)",
      "contact": "02-467-3336",
      "lat": "37.541682066979",
      "lng": "127.066385691348",
      "region": "서울",
      "district": "광진구",
      "id": 286
    },
    {
      "name": "메가MGC커피 자양롯데캐슬점",
      "address": "서울 광진구 뚝섬로 477 (자양동)",
      "contact": "02-6952-2131",
      "lat": "37.5368158626669",
      "lng": "127.063423196621",
      "region": "서울",
      "district": "광진구",
      "id": 287
    },
    {
      "name": "메가MGC커피 구의목련공원점",
      "address": "서울 광진구 구의로 39 (구의동)",
      "contact": "02-6949-4353",
      "lat": "37.5414146254053",
      "lng": "127.0897313385",
      "region": "서울",
      "district": "광진구",
      "id": 288
    },
    {
      "name": "메가MGC커피 신도림역점",
      "address": "서울특별시 구로구 경인로 661 (신도림동, 신도림1차푸르지오)133호",
      "contact": "02-3439-7808",
      "lat": "37.5090492151745",
      "lng": "126.8869873429",
      "region": "서울특별시",
      "district": "구로구",
      "id": 289
    },
    {
      "name": "메가MGC커피 구로깔깔거리점",
      "address": "서울특별시 구로구 구로동 1125-91층",
      "contact": "02-859-5599",
      "lat": "37.4829956736468",
      "lng": "126.900997341487",
      "region": "서울특별시",
      "district": "구로구",
      "id": 290
    },
    {
      "name": "메가MGC커피 구로항동점",
      "address": "서울특별시 구로구 서해안로 2124 (항동)",
      "contact": "02-2686-9998",
      "lat": "37.4816721367193",
      "lng": "126.825397191469",
      "region": "서울특별시",
      "district": "구로구",
      "id": 291
    },
    {
      "name": "메가MGC커피 구일역점",
      "address": "서울특별시 구로구 구일로10길 27B동 1층",
      "contact": "02-855-5111",
      "lat": "37.4959404465654",
      "lng": "126.872266560677",
      "region": "서울특별시",
      "district": "구로구",
      "id": 292
    },
    {
      "name": "메가MGC커피 구로디지털단지점",
      "address": "서울특별시 구로구 디지털로31길 41 (구로동, 이앤씨벤처드림타워6차)110호 (구로동, 이앤씨드림타워6차)",
      "contact": "010-7440-9797",
      "lat": "37.4851717992188",
      "lng": "126.892751304432",
      "region": "서울특별시",
      "district": "구로구",
      "id": 293
    },
    {
      "name": "메가MGC커피 오류동역점",
      "address": "서울특별시 구로구 경인로20가길 51층 101호(오류동 , 하늘쉼빌딩)",
      "contact": "02-2661-2600",
      "lat": "37.495451745691",
      "lng": "126.844122246819",
      "region": "서울특별시",
      "district": "구로구",
      "id": 294
    },
    {
      "name": "메가MGC커피 구로디지털탑프라자점",
      "address": "서울특별시 구로구 디지털로26길 98층 104호 , 105호(구로동)",
      "contact": "02-830-1245",
      "lat": "37.4815860854724",
      "lng": "126.897348322184",
      "region": "서울특별시",
      "district": "구로구",
      "id": 295
    },
    {
      "name": "메가MGC커피 천왕이펜하우스점",
      "address": "서울특별시 구로구 천왕로 29상가동 1층 (천왕동 , 천왕이펜하우스 4단지)",
      "contact": "070-8836-5144",
      "lat": "37.4808009766872",
      "lng": "126.838594515677",
      "region": "서울특별시",
      "district": "구로구",
      "id": 296
    },
    {
      "name": "메가MGC커피 개봉점",
      "address": "서울특별시 구로구 개봉로 70 1층(개봉동)",
      "contact": "02-2682-4158",
      "lat": "37.4919029542631",
      "lng": "126.856274577571",
      "region": "서울특별시",
      "district": "구로구",
      "id": 297
    },
    {
      "name": "메가MGC커피 구로매봉초점",
      "address": "서울특별시 구로구 고척로21나길 14 1층 (개봉동)",
      "contact": "02-6465-2575",
      "lat": "37.5029249876001",
      "lng": "126.844900291478",
      "region": "서울특별시",
      "district": "구로구",
      "id": 298
    },
    {
      "name": "메가MGC커피 개봉사거리점",
      "address": "서울특별시 구로구 경인로 324 1층 (개봉동 , 성원빌딩)",
      "contact": "02-2060-4158",
      "lat": "37.4971205699057",
      "lng": "126.856183044192",
      "region": "서울특별시",
      "district": "구로구",
      "id": 299
    },
    {
      "name": "메가MGC커피 남구로점",
      "address": "서울특별시 구로구 디지털로31길 120 상가2동 1층 (구로동 , 한신휴플러스아파트)",
      "contact": "02-830-1063",
      "lat": "37.4884700177382",
      "lng": "126.890773027393",
      "region": "서울특별시",
      "district": "구로구",
      "id": 300
    },
    {
      "name": "메가MGC커피 신도림태영타운점",
      "address": "서울특별시 구로구 새말로 89 1층 (구로동 , 태영빌딩)",
      "contact": "02-866-8525",
      "lat": "37.5056097068416",
      "lng": "126.889834342021",
      "region": "서울특별시",
      "district": "구로구",
      "id": 301
    },
    {
      "name": "메가MGC커피 구로궁동점",
      "address": "서울특별시 구로구 부일로15길 291층(궁동)",
      "contact": "02-6338-2889",
      "lat": "37.4941437652518",
      "lng": "126.833050861858",
      "region": "서울특별시",
      "district": "구로구",
      "id": 302
    },
    {
      "name": "메가MGC커피 개봉남부역점",
      "address": "서울특별시 구로구 남부순환로97길 20-61층(개봉동)",
      "contact": "02-2617-1114",
      "lat": "37.4940384973276",
      "lng": "126.858645629031",
      "region": "서울특별시",
      "district": "구로구",
      "id": 303
    },
    {
      "name": "메가MGC커피 구로고척점",
      "address": "서울특별시 구로구 고척로 2391층(고척동)",
      "contact": "02-2060-6222",
      "lat": "37.5067063962066",
      "lng": "126.859580605511",
      "region": "서울특별시",
      "district": "구로구",
      "id": 304
    },
    {
      "name": "메가MGC커피 개봉푸르지오점",
      "address": "서울특별시 구로구 고척로 1261층(개봉동)",
      "contact": "02-2060-7267",
      "lat": "37.5019654621258",
      "lng": "126.847914494502",
      "region": "서울특별시",
      "district": "구로구",
      "id": 305
    },
    {
      "name": "메가MGC커피 개봉북부역점",
      "address": "서울특별시 구로구 경인로40길 25 1층 9호(개봉동 , 청실아파트)",
      "contact": "02-2612-1230",
      "lat": "37.4954039270721",
      "lng": "126.859741653028",
      "region": "서울특별시",
      "district": "구로구",
      "id": 306
    },
    {
      "name": "메가MGC커피 동양미래대학점",
      "address": "서울특별시 구로구 경인로47길 26 1층(고척동)",
      "contact": "02-2688-4924",
      "lat": "37.5006460911964",
      "lng": "126.866606846487",
      "region": "서울특별시",
      "district": "구로구",
      "id": 307
    },
    {
      "name": "메가MGC커피 오류남부점",
      "address": "서울특별시 구로구 오류로8길 20 1층(오류동)",
      "contact": "02-2688-4792",
      "lat": "37.491134793442",
      "lng": "126.841914021278",
      "region": "서울특별시",
      "district": "구로구",
      "id": 308
    },
    {
      "name": "메가MGC커피 구로구청점",
      "address": "서울특별시 구로구 가마산로 268 104호 (구로동 , 대림역와이즈플레이스)",
      "contact": "02-868-3990",
      "lat": "37.4956164739157",
      "lng": "126.890318882617",
      "region": "서울특별시",
      "district": "구로구",
      "id": 309
    },
    {
      "name": "메가MGC커피 구로고척시장점",
      "address": "서울특별시 구로구 경인로47길 1071층(고척동)",
      "contact": "02-2611-6238",
      "lat": "37.5034021075538",
      "lng": "126.863627327303",
      "region": "서울특별시",
      "district": "구로구",
      "id": 310
    },
    {
      "name": "메가MGC커피 항동지식산업센터점",
      "address": "서울특별시 구로구 부광로 88항동 공공주택지구 내 업무2BL 구로SK V1 center BB102-B호(항동)",
      "contact": "02-2616-9616",
      "lat": "37.4771830849703",
      "lng": "126.81685400133",
      "region": "서울특별시",
      "district": "구로구",
      "id": 311
    },
    {
      "name": "메가MGC커피 신도림크라운빌점",
      "address": "서울특별시 구로구 경인로63길 11B동 1층 105호(신도림동 , 신도림크라운빌2 오피스텔)",
      "contact": "02-2633-8003",
      "lat": "37.5077428230926",
      "lng": "126.885092717634",
      "region": "서울특별시",
      "district": "구로구",
      "id": 312
    },
    {
      "name": "메가MGC커피 온수역점",
      "address": "서울특별시 구로구 부일로1길 26-12지하1층 B05호(온수동 , 다청림시티)",
      "contact": "02-2066-0656",
      "lat": "37.4922153972263",
      "lng": "126.821204832179",
      "region": "서울특별시",
      "district": "구로구",
      "id": 313
    },
    {
      "name": "메가MGC커피 천왕역점",
      "address": "서울특별시 구로구 오리로 11411층 102호(천왕동 , 네이처힐)",
      "contact": "02-2060-2491",
      "lat": "37.4859727327486",
      "lng": "126.838837793701",
      "region": "서울특별시",
      "district": "구로구",
      "id": 314
    },
    {
      "name": "메가MGC커피 개봉중앙점",
      "address": "서울특별시 구로구 개봉로 251층 101호(개봉동)",
      "contact": "02-2684-4944",
      "lat": "37.4879087510472",
      "lng": "126.856020130984",
      "region": "서울특별시",
      "district": "구로구",
      "id": 315
    },
    {
      "name": "메가MGC커피 구로NC점",
      "address": "서울 구로구 새말로 22 (구로동)1층",
      "contact": "02-855-0656",
      "lat": "37.5020974104178",
      "lng": "126.88354261277",
      "region": "서울",
      "district": "구로구",
      "id": 316
    },
    {
      "name": "메가MGC커피 구로고대병원점",
      "address": "서울 구로구 구로동로25길 3 (구로동)",
      "contact": "02-839-7077",
      "lat": "37.4904617983291",
      "lng": "126.883798929092",
      "region": "서울",
      "district": "구로구",
      "id": 317
    },
    {
      "name": "메가MGC커피 고척중앙점",
      "address": "서울 구로구 경인로 403 (고척동, 원메디타운)",
      "contact": "02-2688-7778",
      "lat": "37.4979584319431",
      "lng": "126.864347749519",
      "region": "서울",
      "district": "구로구",
      "id": 318
    },
    {
      "name": "메가MGC커피 구로거리공원점",
      "address": "서울 구로구 구로중앙로28길 73 (구로동, 구로하우비)",
      "contact": "02-857-5777",
      "lat": "37.5008487635068",
      "lng": "126.889318291994",
      "region": "서울",
      "district": "구로구",
      "id": 319
    },
    {
      "name": "메가MGC커피 구로대륭포스트2차점",
      "address": "서울 구로구 디지털로 306 (구로동, 대륭포스트타워2차)",
      "contact": "02-855-1226",
      "lat": "37.4859231683292",
      "lng": "126.897336395657",
      "region": "서울",
      "district": "구로구",
      "id": 320
    },
    {
      "name": "메가MGC커피 구로주공점",
      "address": "서울 구로구 구일로4길 33 (구로동, 종합상가)",
      "contact": "02-6954-7885",
      "lat": "37.4920247372932",
      "lng": "126.87579186252",
      "region": "서울",
      "district": "구로구",
      "id": 321
    },
    {
      "name": "메가MGC커피 구로중앙유통단지점",
      "address": "서울 구로구 경인로53길 15 (구로동, 중앙유통단지)",
      "contact": "02-2619-5338",
      "lat": "37.5020321024364",
      "lng": "126.876117278882",
      "region": "서울",
      "district": "구로구",
      "id": 322
    },
    {
      "name": "메가MGC커피 서울신미림초점",
      "address": "서울 구로구 신도림로 7 (신도림동)",
      "contact": "02-2675-1110",
      "lat": "37.5061633129074",
      "lng": "126.877164760067",
      "region": "서울",
      "district": "구로구",
      "id": 323
    },
    {
      "name": "메가MGC커피 구로이화교차로점",
      "address": "서울 구로구 도림로 89 (구로동)",
      "contact": "02-859-9992",
      "lat": "37.4907866087973",
      "lng": "126.893050390589",
      "region": "서울",
      "district": "구로구",
      "id": 324
    },
    {
      "name": "메가MGC커피 구로대륭포스트8차점",
      "address": "서울 구로구 디지털로26길 43 (구로동)",
      "contact": "02-3415-0898",
      "lat": "37.4810070418126",
      "lng": "126.89442230572",
      "region": "서울",
      "district": "구로구",
      "id": 325
    },
    {
      "name": "메가MGC커피 남구로역점",
      "address": "서울 구로구 디지털로27길 131 (가리봉동)",
      "contact": "02-855-1110",
      "lat": "37.4847696038267",
      "lng": "126.886873659595",
      "region": "서울",
      "district": "구로구",
      "id": 326
    },
    {
      "name": "메가MGC커피 신도림중점",
      "address": "서울 구로구 신도림로19길 7 (신도림동, 성광빌딩)",
      "contact": "02-6953-1991",
      "lat": "37.5112029731186",
      "lng": "126.884470304555",
      "region": "서울",
      "district": "구로구",
      "id": 327
    },
    {
      "name": "메가MGC커피 구로항동중점",
      "address": "서울 구로구 연동로 233 (항동, 항동중흥에스클래스베르데카운티)",
      "contact": "02-2615-5096",
      "lat": "37.4816933475507",
      "lng": "126.820550970603",
      "region": "서울",
      "district": "구로구",
      "id": 328
    },
    {
      "name": "메가MGC커피 서울세종과학고점",
      "address": "서울 구로구 오리로 1316 (궁동)",
      "contact": "070-7576-3009",
      "lat": "37.4988144314048",
      "lng": "126.829353578688",
      "region": "서울",
      "district": "구로구",
      "id": 329
    },
    {
      "name": "메가MGC커피 오류동삼거리점",
      "address": "서울 구로구 고척로1길 19 (오류동)",
      "contact": "02-2625-0226",
      "lat": "37.4949735335735",
      "lng": "126.839709539958",
      "region": "서울",
      "district": "구로구",
      "id": 330
    },
    {
      "name": "메가MGC커피 시흥사거리점",
      "address": "서울특별시 금천구 시흥대로 227 1층 (시흥동)",
      "contact": "02-803-0656",
      "lat": "37.4540332809089",
      "lng": "126.900415725532",
      "region": "서울특별시",
      "district": "금천구",
      "id": 331
    },
    {
      "name": "메가MGC커피 금천가산점",
      "address": "서울특별시 금천구 가산로 115 1층 (가산동)",
      "contact": "02-851-1999",
      "lat": "37.4758802179627",
      "lng": "126.892730102287",
      "region": "서울특별시",
      "district": "금천구",
      "id": 332
    },
    {
      "name": "메가MGC커피 가산에이스K1타워점",
      "address": "서울특별시 금천구 가산디지털2로 1661층(가산동)",
      "contact": "02-6464-1877",
      "lat": "37.4826735316069",
      "lng": "126.878293835001",
      "region": "서울특별시",
      "district": "금천구",
      "id": 333
    },
    {
      "name": "메가MGC커피 금천독산점",
      "address": "서울특별시 금천구 시흥대로 4741층 (독산동)",
      "contact": "02-856-7077",
      "lat": "37.4758621463823",
      "lng": "126.899010685082",
      "region": "서울특별시",
      "district": "금천구",
      "id": 334
    },
    {
      "name": "메가MGC커피 금천독산4동점",
      "address": "서울특별시 금천구 독산로 2431층(독산동)",
      "contact": "02-861-7725",
      "lat": "37.4686134783546",
      "lng": "126.902064439589",
      "region": "서울특별시",
      "district": "금천구",
      "id": 335
    },
    {
      "name": "메가MGC커피 가산리더스타워점",
      "address": "서울특별시 금천구 벚꽃로 286지하 1층 B103호(가산동 , 삼성리더스타워)",
      "contact": "02-855-9555",
      "lat": "37.4803938924495",
      "lng": "126.884121140151",
      "region": "서울특별시",
      "district": "금천구",
      "id": 336
    },
    {
      "name": "메가MGC커피 가산skv1센터점",
      "address": "서울특별시 금천구 가산디지털1로 171117호(가산동 ,가산 에스케이 브에원 센터)",
      "contact": "02-6244-8028",
      "lat": "37.4807624025755",
      "lng": "126.880678781517",
      "region": "서울특별시",
      "district": "금천구",
      "id": 337
    },
    {
      "name": "메가MGC커피 금천롯데캐슬점",
      "address": "서울특별시 금천구 벚꽃로 40 113동 107호 (독산동 , 금천롯데캐슬골드파크1차)",
      "contact": "02-808-1819",
      "lat": "37.4600596360114",
      "lng": "126.893020585165",
      "region": "서울특별시",
      "district": "금천구",
      "id": 338
    },
    {
      "name": "메가MGC커피 시흥중앙점",
      "address": "서울특별시 금천구 금하로 713-1 1층 (시흥동)",
      "contact": "02-896-7911",
      "lat": "37.4510281411245",
      "lng": "126.909267378516",
      "region": "서울특별시",
      "district": "금천구",
      "id": 339
    },
    {
      "name": "메가MGC커피 시흥한울중점",
      "address": "서울특별시 금천구 독산로 1781층(독산동)",
      "contact": "02-807-7771",
      "lat": "37.4631239815784",
      "lng": "126.904044834833",
      "region": "서울특별시",
      "district": "금천구",
      "id": 340
    },
    {
      "name": "메가MGC커피 가산한화비즈점",
      "address": "서울특별시 금천구 가산디지털2로 43-14102호(가산동 , 가산한화비즈메트로2차)",
      "contact": "02-3477-0753",
      "lat": "37.4724347051782",
      "lng": "126.881544629092",
      "region": "서울특별시",
      "district": "금천구",
      "id": 341
    },
    {
      "name": "메가MGC커피 신림푸르지오점",
      "address": "서울 금천구 남부순환로 1432 (독산동)1층 110호",
      "contact": "02-830-8007",
      "lat": "37.4806021955301",
      "lng": "126.909722652436",
      "region": "서울",
      "district": "금천구",
      "id": 342
    },
    {
      "name": "메가MGC커피 가산한라원앤원점",
      "address": "서울 금천구 가산디지털2로 101 (가산동)1층 111호",
      "contact": "02-2101-2090",
      "lat": "37.477043450667",
      "lng": "126.879222554896",
      "region": "서울",
      "district": "금천구",
      "id": 343
    },
    {
      "name": "메가MGC커피 가산그레이트밸리점",
      "address": "서울 금천구 디지털로9길 32 (가산동, 갑을그레이트밸리)",
      "contact": "02-855-6801",
      "lat": "37.4795130993704",
      "lng": "126.887511773421",
      "region": "서울",
      "district": "금천구",
      "id": 344
    },
    {
      "name": "메가MGC커피 금천현대시장점",
      "address": "서울 금천구 독산로 131 (시흥동)",
      "contact": "02-804-0777",
      "lat": "37.4589452351192",
      "lng": "126.904894265495",
      "region": "서울",
      "district": "금천구",
      "id": 345
    },
    {
      "name": "메가MGC커피 독산대륭20차점",
      "address": "서울 금천구 가산디지털1로 5 (가산동, 대륭테크노타운 20차)",
      "contact": "02-2225-0031",
      "lat": "37.4667454838323",
      "lng": "126.886718830722",
      "region": "서울",
      "district": "금천구",
      "id": 346
    },
    {
      "name": "메가MGC커피 금천구립시흥도서관점",
      "address": "서울 금천구 금하로 750 (시흥동)",
      "contact": "02-805-1295",
      "lat": "37.4490734382987",
      "lng": "126.913658594513",
      "region": "서울",
      "district": "금천구",
      "id": 347
    },
    {
      "name": "메가MGC커피 금천박미삼거리점",
      "address": "서울 금천구 시흥대로 149 (시흥동, 신라상가)",
      "contact": "02-807-7724",
      "lat": "37.4473724865128",
      "lng": "126.902950900644",
      "region": "서울",
      "district": "금천구",
      "id": 348
    },
    {
      "name": "메가MGC커피 퍼블릭가산점",
      "address": "서울 금천구 디지털로 178 (가산동)",
      "contact": "02-2114-8255",
      "lat": "37.4764394057239",
      "lng": "126.887331650246",
      "region": "서울",
      "district": "금천구",
      "id": 349
    },
    {
      "name": "메가MGC커피 금천홈플러스사거리점",
      "address": "서울 금천구 시흥대로 409 (독산동)",
      "contact": "02-838-1007",
      "lat": "37.4701906544809",
      "lng": "126.897654997064",
      "region": "서울",
      "district": "금천구",
      "id": 350
    },
    {
      "name": "메가MGC커피 구로전화국점",
      "address": "서울 금천구 남부순환로 1384 (독산동, 영남빌딩)",
      "contact": "02-867-1003",
      "lat": "37.479696438572",
      "lng": "126.904485719693",
      "region": "서울",
      "district": "금천구",
      "id": 351
    },
    {
      "name": "메가MGC커피 가산어반워크점",
      "address": "서울 금천구 가산디지털2로 135 (가산동, 가산 어반워크I)",
      "contact": "02-6177-7575",
      "lat": "37.4800207661549",
      "lng": "126.878015828177",
      "region": "서울",
      "district": "금천구",
      "id": 352
    },
    {
      "name": "메가MGC커피 금천시흥유통상가점",
      "address": "서울 금천구 시흥대로 98 (시흥동)",
      "contact": "02-2138-0902",
      "lat": "37.4427627695429",
      "lng": "126.90400733404",
      "region": "서울",
      "district": "금천구",
      "id": 353
    },
    {
      "name": "메가MGC커피 독산별빛남문시장점",
      "address": "서울 금천구 독산로85길 35 (독산동)",
      "contact": "02-6956-7076",
      "lat": "37.472474901311",
      "lng": "126.901154564678",
      "region": "서울",
      "district": "금천구",
      "id": 354
    },
    {
      "name": "메가MGC커피 가산KS타워점",
      "address": "서울 금천구 벚꽃로36길 30 (가산동, 가산 KS TOWER)",
      "contact": "02-2025-2327",
      "lat": "37.480670830247",
      "lng": "126.885102981454",
      "region": "서울",
      "district": "금천구",
      "id": 355
    },
    {
      "name": "메가MGC커피 가산아스크타워점",
      "address": "서울 금천구 디지털로10길 37 (가산동)",
      "contact": "02-3467-4577",
      "lat": "37.4766451549316",
      "lng": "126.889578522942",
      "region": "서울",
      "district": "금천구",
      "id": 356
    },
    {
      "name": "메가MGC커피 독산역점",
      "address": "서울 금천구 범안로 1156 (독산동)",
      "contact": "02-894-1005",
      "lat": "37.466338685718",
      "lng": "126.890066524617",
      "region": "서울",
      "district": "금천구",
      "id": 357
    },
    {
      "name": "메가MGC커피 금천구청점",
      "address": "서울 금천구 시흥대로63길 48 (시흥동)",
      "contact": "02-891-1008",
      "lat": "37.4554395067564",
      "lng": "126.897068509687",
      "region": "서울",
      "district": "금천구",
      "id": 358
    },
    {
      "name": "메가MGC커피 가산3차SKV1센터점",
      "address": "서울 금천구 가산디지털1로 136 (가산동)",
      "contact": "02-6446-6262",
      "lat": "37.4778743422849",
      "lng": "126.883877324549",
      "region": "서울",
      "district": "금천구",
      "id": 359
    },
    {
      "name": "메가MGC커피 에이스가산포휴점",
      "address": "서울 금천구 가산디지털1로 225 (가산동, 에이스 가산 포휴)",
      "contact": "02-6926-0550",
      "lat": "37.4850725318802",
      "lng": "126.878884450061",
      "region": "서울",
      "district": "금천구",
      "id": 360
    },
    {
      "name": "메가MGC커피 중계본동점",
      "address": "서울특별시 노원구 중계로14길 291층(중계동)",
      "contact": "02-931-4080",
      "lat": "37.6498319921884",
      "lng": "127.081910774974",
      "region": "서울특별시",
      "district": "노원구",
      "id": 361
    },
    {
      "name": "메가MGC커피 수락산역점",
      "address": "서울특별시 노원구 동일로 1700토마토파르코 114호",
      "contact": "02-938-6587",
      "lat": "37.6801886481455",
      "lng": "127.055825744964",
      "region": "서울특별시",
      "district": "노원구",
      "id": 362
    },
    {
      "name": "메가MGC커피 노원역점",
      "address": "서울특별시 노원구 상계동 709-2메가빌딩 1층",
      "contact": "02-930-7373",
      "lat": "37.6542641836903",
      "lng": "127.059001703677",
      "region": "서울특별시",
      "district": "노원구",
      "id": 363
    },
    {
      "name": "메가MGC커피 중계은행사거리점",
      "address": "서울특별시 노원구 중계동 366-9스카이타워 105호",
      "contact": "02-938-1231",
      "lat": "37.6515582368516",
      "lng": "127.077431810057",
      "region": "서울특별시",
      "district": "노원구",
      "id": 364
    },
    {
      "name": "메가MGC커피 공릉중앙점",
      "address": "서울특별시 노원구 공릉로 137(공릉동)",
      "contact": "02-976-9995",
      "lat": "37.6224422640289",
      "lng": "127.079082259164",
      "region": "서울특별시",
      "district": "노원구",
      "id": 365
    },
    {
      "name": "메가MGC커피 상계보람점",
      "address": "서울특별시 노원구 한글비석로 464 1층 (상계동)",
      "contact": "02-935-5550",
      "lat": "37.6645257538849",
      "lng": "127.06657994677",
      "region": "서울특별시",
      "district": "노원구",
      "id": 366
    },
    {
      "name": "메가MGC커피 광운대역점",
      "address": "서울특별시 노원구 석계로 103 1층 (월계동 , 동우빌딩)",
      "contact": "02-942-9917",
      "lat": "37.6228376867667",
      "lng": "127.060712349808",
      "region": "서울특별시",
      "district": "노원구",
      "id": 367
    },
    {
      "name": "메가MGC커피 노원로데오점",
      "address": "서울특별시 노원구 상계로3길 16 1층 (상계동 , 동원빌딩)",
      "contact": "02-939-2223",
      "lat": "37.6569806534504",
      "lng": "127.062484700566",
      "region": "서울특별시",
      "district": "노원구",
      "id": 368
    },
    {
      "name": "메가MGC커피 상계백병원점",
      "address": "서울특별시 노원구 동일로 1356 1층 (상계동 , 상계주공4단지아파트)",
      "contact": "02-931-0100",
      "lat": "37.6498808620377",
      "lng": "127.062236934343",
      "region": "서울특별시",
      "district": "노원구",
      "id": 369
    },
    {
      "name": "메가MGC커피 중계브라운스톤점",
      "address": "서울특별시 노원구 동일로203가길 291층 (중계동)",
      "contact": "02-978-4400",
      "lat": "37.6398759609875",
      "lng": "127.06428375943",
      "region": "서울특별시",
      "district": "노원구",
      "id": 370
    },
    {
      "name": "메가MGC커피 노원을지병원점",
      "address": "서울특별시 노원구 공릉로 324-21층(하계동)",
      "contact": "02-971-0101",
      "lat": "37.6356559278695",
      "lng": "127.071189072019",
      "region": "서울특별시",
      "district": "노원구",
      "id": 371
    },
    {
      "name": "메가MGC커피 수락중앙점",
      "address": "서울특별시 노원구 동일로 16511층 4호(상계동)",
      "contact": "02-932-3974",
      "lat": "37.6759608277495",
      "lng": "127.055010947165",
      "region": "서울특별시",
      "district": "노원구",
      "id": 372
    },
    {
      "name": "메가MGC커피 상계역점",
      "address": "서울특별시 노원구 덕릉로83길 18 102호(중계동)",
      "contact": "02-933-7134",
      "lat": "37.6601375252328",
      "lng": "127.074419173589",
      "region": "서울특별시",
      "district": "노원구",
      "id": 373
    },
    {
      "name": "메가MGC커피 화랑대역점",
      "address": "서울특별시 노원구 노원로1길 903호(공릉동)",
      "contact": "02-949-4002",
      "lat": "37.622218884578",
      "lng": "127.086439879278",
      "region": "서울특별시",
      "district": "노원구",
      "id": 374
    },
    {
      "name": "메가MGC커피 공릉역점",
      "address": "서울특별시 노원구 동일로192길 1층(공릉동)",
      "contact": "02-971-7703",
      "lat": "37.6266641003084",
      "lng": "127.075518486628",
      "region": "서울특별시",
      "district": "노원구",
      "id": 375
    },
    {
      "name": "메가MGC커피 노원중앙점",
      "address": "서울특별시 노원구 노해로 509 1층(상계동)",
      "contact": null,
      "lat": "37.655411288958",
      "lng": "127.064555531072",
      "region": "서울특별시",
      "district": "노원구",
      "id": 376
    },
    {
      "name": "메가MGC커피 석계역점",
      "address": "서울특별시 노원구 화랑로 337 103호(월계동)",
      "contact": "02-943-7743",
      "lat": "37.6152393519423",
      "lng": "127.065169222212",
      "region": "서울특별시",
      "district": "노원구",
      "id": 377
    },
    {
      "name": "메가MGC커피 원자력병원점",
      "address": "서울특별시 노원구 공릉로46길 31층 102호(공릉동 , 공릉동평화타운)",
      "contact": "02-976-7771",
      "lat": "37.6271656479512",
      "lng": "127.079141072247",
      "region": "서울특별시",
      "district": "노원구",
      "id": 378
    },
    {
      "name": "메가MGC커피 마들역점",
      "address": "서울특별시 노원구 동일로 15411층 103호 , 104호(상계동 , 11단지종합상가) ",
      "contact": "02-939-4836",
      "lat": "37.6656742727167",
      "lng": "127.05705028385",
      "region": "서울특별시",
      "district": "노원구",
      "id": 379
    },
    {
      "name": "메가MGC커피 태릉입구역점",
      "address": "서울 노원구 동일로 986 (공릉동, 노원 프레미어스 엠코)101동 109, 111, 113호",
      "contact": "02-949-5001",
      "lat": "37.6182161017816",
      "lng": "127.07591204414",
      "region": "서울",
      "district": "노원구",
      "id": 380
    },
    {
      "name": "메가MGC커피 중계씨앤미점",
      "address": "서울 노원구 동일로204가길 34 (중계동, 씨앤미복합빌딩)1층 104호",
      "contact": "02-977-6849",
      "lat": "37.6407495352012",
      "lng": "127.068172151465",
      "region": "서울",
      "district": "노원구",
      "id": 381
    },
    {
      "name": "메가MGC커피 노원포레나점",
      "address": "서울 노원구 노원로38길 76 (상계동, 포레나노원)상가동 108호",
      "contact": "02-933-4590",
      "lat": "37.6646025",
      "lng": "127.0614056",
      "region": "서울",
      "district": "노원구",
      "id": 382
    },
    {
      "name": "메가MGC커피 서울여대점",
      "address": "서울 노원구 화랑로51길 20 (공릉동, 공릉동 진성빌딩)1층 103호",
      "contact": "02-975-1009",
      "lat": "37.6240878823526",
      "lng": "127.089593418079",
      "region": "서울",
      "district": "노원구",
      "id": 383
    },
    {
      "name": "메가MGC커피 중계중앙점",
      "address": "서울 노원구 덕릉로73길 15 (중계동, 음광빌딩)1층",
      "contact": "02-938-5060",
      "lat": "37.6521011653128",
      "lng": "127.072033136015",
      "region": "서울",
      "district": "노원구",
      "id": 384
    },
    {
      "name": "메가MGC커피 공릉도깨비시장점",
      "address": "서울 노원구 동일로 1026 (공릉동)1층",
      "contact": "02-971-6469",
      "lat": "37.6217393590643",
      "lng": "127.07458477322",
      "region": "서울",
      "district": "노원구",
      "id": 385
    },
    {
      "name": "메가MGC커피 상계중앙시장점",
      "address": "서울 노원구 상계로27길 12 (상계동, 경인빌딩)1층 111호",
      "contact": "02-933-8088",
      "lat": "37.6591550328742",
      "lng": "127.070712169698",
      "region": "서울",
      "district": "노원구",
      "id": 386
    },
    {
      "name": "메가MGC커피 월계프라자점",
      "address": "서울 노원구 초안산로5길 12 (월계동, 월계프라자)1층 106호",
      "contact": "02-992-7776",
      "lat": "37.6325606295737",
      "lng": "127.051747902831",
      "region": "서울",
      "district": "노원구",
      "id": 387
    },