{
  "meta": {
    "brand_id": "f7c4c2f3d20f4787b519cf95c3cda990",
    "brand_name": "비엔나커피하우스",
    "totalCount": 13,
    "extractedAt": "2026-03-17T11:38:21.079Z",
    "sourceUrl": "https://viennacoffeehouse.co.kr/stores"
  },
  "stores": [
    {
      "id": 1,
      "name": "비엔나커피하우스 마곡나루점",
      "address": "강서구 마곡중앙5로 1길 20 219호",
      "contact": "02-2093-6575",
      "lat": "37.5686532",
      "lng": "126.8267343",
      "region": "강서구",
      "district": "마곡중앙5로"
    },
    {
      "id": 2,
      "name": "비엔나커피하우스 잠실 키자니아점",
      "address": "서울 송파구 올림픽로 240(잠실동) 키자니아 3층",
      "contact": null,
      "lat": "37.5110880",
      "lng": "127.0982822",
      "region": "서울",
      "district": "송파구"
    },
    {
      "id": 3,
      "name": "비엔나커피하우스 마포신한디엠점",
      "address": "서울특별시 마포구 마포대로 25 1층 102호(신한디엠빌딩)",
      "contact": "02-711-1683",
      "lat": "37.5393783",
      "lng": "126.9448354",
      "region": "서울특별시",
      "district": "마포구"
    },
    {
      "id": 4,
      "name": "비엔나커피하우스 동탄M타워점",
      "address": "경기도 화성시 동탄첨단산업1로 51-9 1층",
      "contact": "031 260 4533",
      "lat": "37.2141143",
      "lng": "127.0899722",
      "region": "경기도",
      "district": "화성시"
    },
    {
      "id": 5,
      "name": "비엔나커피하우스 방배점",
      "address": "서울시 서초구 방배로 126",
      "contact": "02-585-1683",
      "lat": "37.4853719",
      "lng": "126.9955260",
      "region": "서울시",
      "district": "서초구"
    },
    {
      "id": 6,
      "name": "비엔나커피하우스 위례우남역점",
      "address": "경기도 성남시 수정구 위례서일로 1길 8-14 1층",
      "contact": "031-755-1683",
      "lat": "37.4662408",
      "lng": "127.1381467",
      "region": "경기도",
      "district": "성남시"
    },
    {
      "id": 7,
      "name": "비엔나커피하우스 이천도자기예술촌점",
      "address": "경기도 이천시 신둔면 고척리 597-7",
      "contact": "031-637-1683",
      "lat": "37.2932768",
      "lng": "127.3852545",
      "region": "경기도",
      "district": "이천시"
    },
    {
      "id": 8,
      "name": "비엔나커피하우스 일산백석점",
      "address": "경기도 고양시 일산동구 중앙로 1005",
      "contact": "031-907-1683",
      "lat": "37.6403974",
      "lng": "126.7908618",
      "region": "경기도",
      "district": "고양시"
    },
    {
      "id": 9,
      "name": "비엔나커피하우스 김해내외동점",
      "address": "경상남도 김해시 내동 1138-1",
      "contact": "055-313-1683",
      "lat": "35.2386754",
      "lng": "128.8682302",
      "region": "경상남도",
      "district": "김해시"
    },
    {
      "id": 10,
      "name": "비엔나커피하우스 춘천점",
      "address": "강원도 춘천시 상중도길 15-24 1~2층",
      "contact": "033-252-6134",
      "lat": "37.8961998",
      "lng": "127.7106097",
      "region": "강원도",
      "district": "춘천시"
    },
    {
      "id": 11,
      "name": "비엔나커피하우스 경주용황로점",
      "address": "경북 경주시 용황로 58",
      "contact": "054-748-1683",
      "lat": "35.8827788",
      "lng": "129.2244883",
      "region": "경북",
      "district": "경주시"
    },
    {
      "id": 12,
      "name": "비엔나커피하우스 구월테크노밸리 임대점",
      "address": "인천광역시 남동구 선수촌공원로 17번길 2 더에이치빌딩",
      "contact": "032-472-1683",
      "lat": "37.4406678",
      "lng": "126.7097378",
      "region": "인천광역시",
      "district": "남동구"
    },
    {
      "id": 13,
      "name": "비엔나커피하우스 원주무실단구점",
      "address": "강원도 원주시 단구로 368",
      "contact": "033-764-7955",
      "lat": "37.3234968",
      "lng": "127.9571853",
      "region": "강원도",
      "district": "원주시"
    }
  ]
}
