{
  "meta": {
    "brand_id": "b8c03cc3d17b48c3b4e587994b004e74",
    "brand_name": "아비꼬",
    "totalCount": 126,
    "extractedAt": "2026-03-17T11:55:12.148Z",
    "sourceUrl": "https://abiko.kr/sub/sub03_01.php"
  },
  "stores": [
    {
      "id": 1,
      "name": "아비꼬 광주동천점",
      "address": "광주광역시 서구 하남대로 688, 1층 102호(동천동)",
      "contact": "062-400-4433",
      "lat": "35.1715264",
      "lng": "126.8679843",
      "region": "광주광역시",
      "district": "서구"
    },
    {
      "id": 2,
      "name": "아비꼬 분당서현역점",
      "address": "경기도 성남시 분당구 분당로53번길 15, 205호(서현동, 산호트윈스)",
      "contact": "031-701-5288",
      "lat": "37.3843561",
      "lng": "127.1219843",
      "region": "경기도",
      "district": "성남시"
    },
    {
      "id": 3,
      "name": "아비꼬 LG마포빌딩점",
      "address": "서울시 마포구 마포대로 155 지하1층",
      "contact": "02-2088-1404",
      "lat": "37.5483468",
      "lng": "126.9536323",
      "region": "서울시",
      "district": "마포구"
    },
    {
      "id": 4,
      "name": "아비꼬 송파사거리점",
      "address": "서울시 송파구 송파대로 379\t\t\t\t\t\t1층 4,5호",
      "contact": "02-423-2089",
      "lat": "37.5012694",
      "lng": "127.1103281",
      "region": "서울시",
      "district": "송파구"
    },
    {
      "id": 5,
      "name": "아비꼬 김제휴게소점(전주방향)",
      "address": "전북특별자치도 김제시 백산면 하정2길 126 (백산면 하정리)",
      "contact": null,
      "lat": "35.8393768",
      "lng": "126.8975741",
      "region": "전북특별자치도",
      "district": "김제시"
    },
    {
      "id": 6,
      "name": "아비꼬 김제휴게소점(세만금방향)",
      "address": "전북특별자치도 김제시 하정로 93 (흥사동)",
      "contact": null,
      "lat": "35.8420983",
      "lng": "126.9035268",
      "region": "전북특별자치도",
      "district": "김제시"
    },
    {
      "id": 7,
      "name": "아비꼬 LF스퀘어 양주점",
      "address": "경기 양주시 평화로 1593 LF스퀘어\t\t\t\t\t\t4층",
      "contact": null,
      "lat": "37.8314055",
      "lng": "127.0522865",
      "region": "경기",
      "district": "양주시"
    },
    {
      "id": 8,
      "name": "아비꼬 김포구래역점",
      "address": "경기도 김포시 김포한강9로76번길 63\t\t\t\t\t\t1층 108,109호",
      "contact": "031-986-8777",
      "lat": "37.6454123",
      "lng": "126.6268129",
      "region": "경기도",
      "district": "김포시"
    },
    {
      "id": 9,
      "name": "아비꼬 마곡원그로브점",
      "address": "서울 강서구 공항대로 165\t\t\t\t\t\t원그로브쇼핑몰 B동 B1층",
      "contact": "02-6106-0058",
      "lat": "37.5610254",
      "lng": "126.8248341",
      "region": "서울",
      "district": "강서구"
    },
    {
      "id": 10,
      "name": "아비꼬 시흥하늘휴게소점",
      "address": "경기도 시흥시 수도권 제1순환고속도로 105",
      "contact": null,
      "lat": "37.3838229",
      "lng": "126.8555309",
      "region": "경기도",
      "district": "시흥시"
    },
    {
      "id": 11,
      "name": "아비꼬 파주문산점",
      "address": "경기도 파주시 문산읍 문향로 78\t\t\t\t\t\t1층 전체",
      "contact": "031-954-7400",
      "lat": "37.8585066",
      "lng": "126.7860544",
      "region": "경기도",
      "district": "파주시"
    },
    {
      "id": 12,
      "name": "아비꼬 안산휴게소점",
      "address": "경기도 안산시 단원구 영동고속도로15",
      "contact": null,
      "lat": "37.3511639",
      "lng": "126.8187944",
      "region": "경기도",
      "district": "안산시"
    },
    {
      "id": 13,
      "name": "아비꼬 분당야탑점",
      "address": "경기 성남시 분당구 야탑로65번길 8\t\t\t\t\t\t나인투빌딩 101호 일부(야탑동)",
      "contact": "031-703-5287",
      "lat": "37.4105276",
      "lng": "127.1263585",
      "region": "경기",
      "district": "성남시"
    },
    {
      "id": 14,
      "name": "아비꼬 롯데백화점 대구상인점",
      "address": "대구 달서구 월배로 232\t\t\t\t\t\t지하1층(롯데백화점 상인점)",
      "contact": "053-258-2052",
      "lat": "35.8188136",
      "lng": "128.5388706",
      "region": "대구",
      "district": "달서구"
    },
    {
      "id": 15,
      "name": "아비꼬 AK&세종점",
      "address": "세종특별자치시 한누리대로 411\t\t\t\t\t\t3층 306-2호",
      "contact": "044-960-5299",
      "lat": "36.5011321",
      "lng": "127.2588509",
      "region": "세종특별자치시",
      "district": "한누리대로"
    },
    {
      "id": 16,
      "name": "아비꼬 청량리점",
      "address": "서울 동대문구 답십리로1길 10\t\t\t\t\t\t힐스테이트 청량리 더퍼스트 힐스에비뉴동 127호(전농동)",
      "contact": "02-962-3111",
      "lat": "37.5787209",
      "lng": "127.0435968",
      "region": "서울",
      "district": "동대문구"
    },
    {
      "id": 17,
      "name": "아비꼬 경남양산점",
      "address": "경남 양산시 물금읍 범구4길 31\t\t\t\t\t\t1층 아비꼬 경남양산점",
      "contact": "055-366-0371",
      "lat": "35.3233905",
      "lng": "129.0150817",
      "region": "경남",
      "district": "양산시"
    },
    {
      "id": 18,
      "name": "아비꼬 상봉점",
      "address": "서울 중랑구 망우로 353\t\t\t\t\t\t비주거동 107,108호",
      "contact": "02-433-5832",
      "lat": "37.5982973",
      "lng": "127.0903643",
      "region": "서울",
      "district": "중랑구"
    },
    {
      "id": 19,
      "name": "아비꼬 용인보정점",
      "address": "경기 용인시 기흥구 보정동 1187-2\t\t\t\t\t\t1층",
      "contact": "031-266-0106",
      "lat": "37.3215090",
      "lng": "127.1092649",
      "region": "경기",
      "district": "용인시"
    },
    {
      "id": 20,
      "name": "아비꼬 양주덕계역점",
      "address": "경기 양주시 덕계로 140\t\t\t\t\t\t109호",
      "contact": "031-866-7097",
      "lat": "37.8185658",
      "lng": "127.0542523",
      "region": "경기",
      "district": "양주시"
    },
    {
      "id": 21,
      "name": "아비꼬 광주충장로점",
      "address": "광주 동구 충장로 102-5\t\t\t\t\t\t1층",
      "contact": "062-417-8859",
      "lat": "35.1469130",
      "lng": "126.9177729",
      "region": "광주",
      "district": "동구"
    },
    {
      "id": 22,
      "name": "아비꼬 전주효자점",
      "address": "전북특별자치도 전주시 완산구 마전중앙로 16\t\t\t\t\t\t1층",
      "contact": "010-8189-9946",
      "lat": "35.8231551",
      "lng": "127.1035676",
      "region": "전북특별자치도",
      "district": "전주시"
    },
    {
      "id": 23,
      "name": "아비꼬 롯데백화점 대전점",
      "address": "대전 서구 계룡로 598\t\t\t\t\t\t9층",
      "contact": "042-601-2992",
      "lat": "36.3406490",
      "lng": "127.3895366",
      "region": "대전",
      "district": "서구"
    },
    {
      "id": 24,
      "name": "아비꼬 롯데몰여수점",
      "address": "전남 여수시 국포1로 36\t\t\t\t\t\t3층",
      "contact": null,
      "lat": "34.7283329",
      "lng": "127.7215291",
      "region": "전남",
      "district": "여수시"
    },
    {
      "id": 25,
      "name": "아비꼬 가톨릭대성모옴니버스파크점",
      "address": "서울 서초구 반포대로 222\t\t\t\t\t\t옴니버스파크 1층",
      "contact": null,
      "lat": "37.5017271",
      "lng": "127.0047034",
      "region": "서울",
      "district": "서초구"
    },
    {
      "id": 26,
      "name": "아비꼬 용산더프라임점",
      "address": "서울 용산구 원효로90길 11\t\t\t\t\t\t주거동 104호",
      "contact": "02-706-0010",
      "lat": "37.5403840",
      "lng": "126.9701149",
      "region": "서울",
      "district": "용산구"
    },
    {
      "id": 27,
      "name": "아비꼬 안양범계역점",
      "address": "경기 안양시 동안구 평촌대로217번길 45\t\t\t\t\t\t106호",
      "contact": "031-388-3236",
      "lat": "37.3899764",
      "lng": "126.9535310",
      "region": "경기",
      "district": "안양시"
    },
    {
      "id": 28,
      "name": "아비꼬 인천계양구청점",
      "address": "인천 계양구 계산새로87번길 6",
      "contact": "032-710-1943",
      "lat": "37.5385032",
      "lng": "126.7380249",
      "region": "인천",
      "district": "계양구"
    },
    {
      "id": 29,
      "name": "아비꼬 숭례문점",
      "address": "서울 중구 세종대로 13\t\t\t\t\t\t화남빌딩 1층",
      "contact": "02-310-9303",
      "lat": "37.5583260",
      "lng": "126.9731076",
      "region": "서울",
      "district": "중구"
    },
    {
      "id": 30,
      "name": "아비꼬 영종하늘도시점",
      "address": "인천 중구 중산동 1873-3\t\t\t\t\t\t108호",
      "contact": "032-721-5932",
      "lat": "37.4887009",
      "lng": "126.5589345",
      "region": "인천",
      "district": "중구"
    },
    {
      "id": 31,
      "name": "아비꼬 인천테크노밸리점",
      "address": "인천 부평구 주부토로 236\t\t\t\t\t\tA동 216호",
      "contact": "032-511-7073",
      "lat": "37.5158706",
      "lng": "126.7268708",
      "region": "인천",
      "district": "부평구"
    },
    {
      "id": 32,
      "name": "아비꼬 인천검단신도시점",
      "address": "인천 서구 이음대로 384\t\t\t\t\t\t105,106호",
      "contact": "032-564-3006",
      "lat": "37.5935306",
      "lng": "126.7126374",
      "region": "인천",
      "district": "서구"
    },
    {
      "id": 33,
      "name": "아비꼬 인천강화점",
      "address": "인천 강화군 강화읍 동문안길 20-1\t\t\t\t\t\t1층",
      "contact": "032-934-9372",
      "lat": "37.7471991",
      "lng": "126.4870776",
      "region": "인천",
      "district": "강화군"
    },
    {
      "id": 34,
      "name": "아비꼬 인천루원시티점",
      "address": "인천 서구 가정로 406\t\t\t\t\t\tA동 128호",
      "contact": "032-572-7779",
      "lat": "37.5218007",
      "lng": "126.6745963",
      "region": "인천",
      "district": "서구"
    },
    {
      "id": 35,
      "name": "아비꼬 서울대입구역점",
      "address": "서울 관악구 남부순환로 1840\t\t\t\t\t\t1층",
      "contact": "02-875-7734",
      "lat": "37.4803728",
      "lng": "126.9543130",
      "region": "서울",
      "district": "관악구"
    },
    {
      "id": 36,
      "name": "아비꼬 기흥테라타워점",
      "address": "경기 용인시 기흥구 서천로201번길 11\t\t\t\t\t\t지하1층",
      "contact": "031-888-1716",
      "lat": "37.2313712",
      "lng": "127.0718813",
      "region": "경기",
      "district": "용인시"
    },
    {
      "id": 37,
      "name": "아비꼬 인천도화점",
      "address": "인천 미추홀구 숙골로88번길 12\t\t\t\t\t\t1-06호",
      "contact": "032-876-0613",
      "lat": "37.4702444",
      "lng": "126.6652004",
      "region": "인천",
      "district": "미추홀구"
    },
    {
      "id": 38,
      "name": "아비꼬 아트몰링부산본점",
      "address": "부산 사하구 낙동남로 1413\t\t\t\t\t\t14층",
      "contact": "0507-1428-7558",
      "lat": "35.1067550",
      "lng": "128.9664750",
      "region": "부산",
      "district": "사하구"
    },
    {
      "id": 39,
      "name": "아비꼬 과천중앙점",
      "address": "경기 과천시 관문로 92\t\t\t\t\t\tB동 B1층 05호",
      "contact": "02-6956-1027",
      "lat": "37.4297486",
      "lng": "126.9904189",
      "region": "경기",
      "district": "과천시"
    },
    {
      "id": 40,
      "name": "아비꼬 광화문점",
      "address": "서울 종로구 종로 34\t\t\t\t\t\t알파빌딩 1층 아비꼬 광화문점",
      "contact": "02-734-1362",
      "lat": "37.5698478",
      "lng": "126.9811267",
      "region": "서울",
      "district": "종로구"
    },
    {
      "id": 41,
      "name": "아비꼬 연대동문점",
      "address": "서울 서대문구 연대동문길 45\t\t\t\t\t\t2층",
      "contact": "02-363-8888",
      "lat": "37.5644288",
      "lng": "126.9444221",
      "region": "서울",
      "district": "서대문구"
    },
    {
      "id": 42,
      "name": "아비꼬 일산 풍동점",
      "address": "경기 고양시 일산동구 숲속마을로 50-76\t\t\t\t\t\t104호 아비꼬 일산풍동점",
      "contact": "031-902-4233",
      "lat": "37.6677653",
      "lng": "126.7987149",
      "region": "경기",
      "district": "고양시"
    },
    {
      "id": 43,
      "name": "아비꼬 공릉역점",
      "address": "서울 노원구 동일로 1078\t\t\t\t\t\t1층 아비꼬 공릉역점",
      "contact": "02-977-2131",
      "lat": "37.6261429",
      "lng": "127.0730794",
      "region": "서울",
      "district": "노원구"
    },
    {
      "id": 44,
      "name": "아비꼬 용인 동백점",
      "address": "경기 용인시 기흥구 동백5로 17\t\t\t\t\t\t레이크시티프라자 101호, 102호",
      "contact": "0507-1318-7678",
      "lat": "37.2767035",
      "lng": "127.1519062",
      "region": "경기",
      "district": "용인시"
    },
    {
      "id": 45,
      "name": "아비꼬 신세계김해점",
      "address": "경남 김해시 김해대로 2232\t\t\t\t\t\t신세계백화점 김해점 4층",
      "contact": "055-272-1472",
      "lat": "35.2293396",
      "lng": "128.8722425",
      "region": "경남",
      "district": "김해시"
    },
    {
      "id": 46,
      "name": "아비꼬 하남스카이폴리스점",
      "address": "경기 하남시 미사강변한강로 135\t\t\t\t\t\t다동 157호 아비꼬 하남스카이폴리스점",
      "contact": "031-5175-0157",
      "lat": "37.5766518",
      "lng": "127.1917806",
      "region": "경기",
      "district": "하남시"
    },
    {
      "id": 47,
      "name": "아비꼬 건대입구역점",
      "address": "서울 광진구 화양동 5-42\t\t\t\t\t\t1층 아비꼬 건대입구역점",
      "contact": "02-499-1264",
      "lat": "37.5418156",
      "lng": "127.0711062",
      "region": "서울",
      "district": "광진구"
    },
    {
      "id": 48,
      "name": "아비꼬 이마트월계점",
      "address": "서울 노원구 마들로3길 15\t\t\t\t\t\t2층 푸드코트",
      "contact": null,
      "lat": "37.6265093",
      "lng": "127.0619797",
      "region": "서울",
      "district": "노원구"
    },
    {
      "id": 49,
      "name": "아비꼬 대명비발디파크점",
      "address": "강원특별자치도 홍천군 서면 한치골길 262\t\t\t\t\t\t지하1층",
      "contact": "033-434-7779",
      "lat": "37.6508569",
      "lng": "127.6874206",
      "region": "강원특별자치도",
      "district": "홍천군"
    },
    {
      "id": 50,
      "name": "아비꼬 광명GIDC점",
      "address": "경기 광명시 일직로 43\t\t\t\t\t\tGIDC 지하 2층 227,228-1호",
      "contact": "02-6914-5222",
      "lat": "37.4227700",
      "lng": "126.8869462",
      "region": "경기",
      "district": "광명시"
    },
    {
      "id": 51,
      "name": "아비꼬 수서역점",
      "address": "서울 강남구 광평로 280\t\t\t\t\t\t지상1층 113호 아비꼬 수서역점",
      "contact": "02-3413-0250",
      "lat": "37.4873192",
      "lng": "127.1031080",
      "region": "서울",
      "district": "강남구"
    },
    {
      "id": 52,
      "name": "아비꼬 동탄 레이크꼬모점",
      "address": "경기 화성시 동탄대로 181\t\t\t\t\t\tA동 2층 228호, 229호",
      "contact": "0507-1330-3411",
      "lat": "37.1720762",
      "lng": "127.1040780",
      "region": "경기",
      "district": "화성시"
    },
    {
      "id": 53,
      "name": "아비꼬 부천송내역점",
      "address": "경기 부천시 부일로221번길 31",
      "contact": "032-233-8050",
      "lat": "37.4898868",
      "lng": "126.7547136",
      "region": "경기",
      "district": "부천시"
    },
    {
      "id": 54,
      "name": "아비꼬 평택베스트원점",
      "address": "경기 평택시 경기대로 945\t\t\t\t\t\t평택프리미엄아울렛 B134호",
      "contact": "031-5182-9545",
      "lat": "37.0341037",
      "lng": "127.0695760",
      "region": "경기",
      "district": "평택시"
    },
    {
      "id": 55,
      "name": "아비꼬 판교파미어스몰점",
      "address": "경기 성남시 수정구 창업로 17\t\t\t\t\t\tB동 2층 201-3호 아비꼬 판교파미어스몰점",
      "contact": "031-757-1069",
      "lat": "37.4121406",
      "lng": "127.0978131",
      "region": "경기",
      "district": "성남시"
    },
    {
      "id": 56,
      "name": "아비꼬 수원 망포판타지움점",
      "address": "경기 수원시 영통구 덕영대로 1566\t\t\t\t\t\t망포판타지움 2층",
      "contact": "0507-1327-6688",
      "lat": "37.2451296",
      "lng": "127.0618145",
      "region": "경기",
      "district": "수원시"
    },
    {
      "id": 57,
      "name": "아비꼬 이마트 안양점",
      "address": "경기 안양시 동안구 관악대로 104\t\t\t\t\t\t이마트 안양점 4층",
      "contact": null,
      "lat": "37.3983756",
      "lng": "126.9353531",
      "region": "경기",
      "district": "안양시"
    },
    {
      "id": 58,
      "name": "아비꼬 파라다이스시티점",
      "address": "인천 중구 영종해안남로321번길 186\t\t\t\t\t\t파라다이스시티플라자 1층 아비꼬 파라다이스시티점",
      "contact": "032-729-5120",
      "lat": "37.4372949",
      "lng": "126.4557320",
      "region": "인천",
      "district": "중구"
    },
    {
      "id": 59,
      "name": "아비꼬 수유역점",
      "address": "서울 강북구 도봉로87길 6\t\t\t\t\t\t2층 아비꼬 수유역점",
      "contact": "02-6105-0418",
      "lat": "37.6383298",
      "lng": "127.0253648",
      "region": "서울",
      "district": "강북구"
    },
    {
      "id": 60,
      "name": "아비꼬 롯데백화점동래점",
      "address": "부산 동래구 중앙대로 1393\t\t\t\t\t\t롯데백화점동래점 지하1층",
      "contact": "051-932-4666",
      "lat": "35.2117080",
      "lng": "129.0774798",
      "region": "부산",
      "district": "동래구"
    },
    {
      "id": 61,
      "name": "아비꼬 대신증권점",
      "address": "서울 중구 삼일대로 343\t\t\t\t\t\t지하1층 아비꼬 대신증권점",
      "contact": "070-7788-7700",
      "lat": "37.5651208",
      "lng": "126.9870758",
      "region": "서울",
      "district": "중구"
    },
    {
      "id": 62,
      "name": "아비꼬 AK플라자원주점",
      "address": "강원특별자치도 원주시 봉화로 1\t\t\t\t\t\tAK플라자 4층",
      "contact": "033-811-5889",
      "lat": "37.3456889",
      "lng": "127.9276521",
      "region": "강원특별자치도",
      "district": "원주시"
    },
    {
      "id": 63,
      "name": "아비꼬 마곡중앙점",
      "address": "서울 강서구 마곡동로 62\t\t\t\t\t\t1층 116호 아비꼬 마곡중앙점",
      "contact": "02-2659-0116",
      "lat": "37.5605538",
      "lng": "126.8338901",
      "region": "서울",
      "district": "강서구"
    },
    {
      "id": 64,
      "name": "아비꼬 제주 노형점",
      "address": "제주특별자치도 제주시 원노형로 48\t\t\t\t\t\t1층",
      "contact": "064-900-0073",
      "lat": "33.4843491",
      "lng": "126.4846851",
      "region": "제주특별자치도",
      "district": "제주시"
    },
    {
      "id": 65,
      "name": "아비꼬 롯데백화점미아점",
      "address": "서울 강북구 도봉로 62\t\t\t\t\t\t롯데백화점미아점 B2층",
      "contact": null,
      "lat": "37.6146006",
      "lng": "127.0305324",
      "region": "서울",
      "district": "강북구"
    },
    {
      "id": 66,
      "name": "아비꼬 AK기흥점",
      "address": "경기 용인시 기흥구 기흥역로 63\t\t\t\t\t\tAK&기흥 4층",
      "contact": "031-284-3077",
      "lat": "37.2747434",
      "lng": "127.1179653",
      "region": "경기",
      "district": "용인시"
    },
    {
      "id": 67,
      "name": "아비꼬 올림픽공원역점",
      "address": "서울 송파구 양재대로 1222\t\t\t\t\t\t1층 213호",
      "contact": "070-4116-7334",
      "lat": "37.5157290",
      "lng": "127.1310643",
      "region": "서울",
      "district": "송파구"
    },
    {
      "id": 68,
      "name": "아비꼬 신세계센텀시티점",
      "address": "부산 해운대구 센텀남대로 35\t\t\t\t\t\t지하1층",
      "contact": "051-745-2095",
      "lat": "35.1688179",
      "lng": "129.1295233",
      "region": "부산",
      "district": "해운대구"
    },
    {
      "id": 69,
      "name": "아비꼬 순천점",
      "address": "전남 순천시 연향중앙상가길 17\t\t\t\t\t\t나동 1층",
      "contact": "061-746-0308",
      "lat": "34.9521728",
      "lng": "127.5199485",
      "region": "전남",
      "district": "순천시"
    },
    {
      "id": 70,
      "name": "아비꼬 롯데백화점 분당점",
      "address": "경기 성남시 분당구 황새울로200번길 45\t\t\t\t\t\t 롯데백화점 분당점 지하1층",
      "contact": "031-738-2026",
      "lat": "37.3784825",
      "lng": "127.1143367",
      "region": "경기",
      "district": "성남시"
    },
    {
      "id": 71,
      "name": "아비꼬 신사가로수길점",
      "address": "서울 강남구 압구정로10길 37\t\t\t\t\t\t지상 1층 아비꼬 신사가로수길점",
      "contact": "02-51-8997",
      "lat": "37.5211486",
      "lng": "127.0222556",
      "region": "서울",
      "district": "강남구"
    },
    {
      "id": 72,
      "name": "아비꼬 롯데아울렛 고양점",
      "address": "경기 고양시 덕양구 권율대로 420\t\t\t\t\t\t롯데아울렛 P1층",
      "contact": "031-8035-2764",
      "lat": "37.6295890",
      "lng": "126.8631239",
      "region": "경기",
      "district": "고양시"
    },
    {
      "id": 73,
      "name": "아비꼬 일산 화정역점",
      "address": "경기 고양시 덕양구 화신로260번길 37\t\t\t\t\t\t2층",
      "contact": "031-811-9579",
      "lat": "37.6324879",
      "lng": "126.8325775",
      "region": "경기",
      "district": "고양시"
    },
    {
      "id": 74,
      "name": "아비꼬 남양주다산점",
      "address": "경기 남양주시 다산중앙로 105-18\t\t\t\t\t\t1층 아비꼬 남양주다산점",
      "contact": "031-566-3009",
      "lat": "37.6224017",
      "lng": "127.1519354",
      "region": "경기",
      "district": "남양주시"
    },
    {
      "id": 75,
      "name": "아비꼬 이천로데오",
      "address": "경기 이천시 서희로60번길 23\t\t\t\t\t\t2층 아비꼬이천로데오점",
      "contact": "031-637-6335",
      "lat": "37.2807202",
      "lng": "127.4442466",
      "region": "경기",
      "district": "이천시"
    },
    {
      "id": 76,
      "name": "아비꼬 신세계천안아산점",
      "address": "충남 천안시 동남구 만남로 43\t\t\t\t\t\t신세계백화점 충청점 B관 4층 아비꼬",
      "contact": null,
      "lat": "36.8207735",
      "lng": "127.1565279",
      "region": "충남",
      "district": "천안시"
    },
    {
      "id": 77,
      "name": "아비꼬 파주 금릉역점",
      "address": "경기 파주시 금빛로 24-18\t\t\t\t\t\t아비꼬 파주 금릉역점",
      "contact": "031-947-3088",
      "lat": "37.7516374",
      "lng": "126.7676735",
      "region": "경기",
      "district": "파주시"
    },
    {
      "id": 78,
      "name": "아비꼬 의정부로데오점",
      "address": "경기 의정부시 행복로 19\t\t\t\t\t\t1층 아비꼬 의정부로데오점",
      "contact": "031-82-1005",
      "lat": "37.7406031",
      "lng": "127.0487622",
      "region": "경기",
      "district": "의정부시"
    },
    {
      "id": 79,
      "name": "아비꼬 용인역북점",
      "address": "경기 용인시 처인구 명지로40번길 15-17\t\t\t\t\t\t104호 아비꼬",
      "contact": "031-338-2253",
      "lat": "37.2310399",
      "lng": "127.1866651",
      "region": "경기",
      "district": "용인시"
    },
    {
      "id": 80,
      "name": "아비꼬 뉴코아청주점",
      "address": "충북 청주시 흥덕구 2순환로 1233\t\t\t\t\t\tNC백화점 청주점 7층",
      "contact": "043-716-6359",
      "lat": "36.6262137",
      "lng": "127.4311414",
      "region": "충북",
      "district": "청주시"
    },
    {
      "id": 81,
      "name": "아비꼬 롯데몰 수지점",
      "address": "경기 용인시 수지구 성복2로 38\t\t\t\t\t\t롯데몰 수지몰 4층",
      "contact": "031-5174-4425",
      "lat": "37.3128099",
      "lng": "127.0816130",
      "region": "경기",
      "district": "용인시"
    },
    {
      "id": 82,
      "name": "아비꼬 보라매점",
      "address": "서울 동작구 보라매로5가길 16\t\t\t\t\t\t아카데미보라매타워 203호",
      "contact": "02-844-4078",
      "lat": "37.4913912",
      "lng": "126.9241379",
      "region": "서울",
      "district": "동작구"
    },
    {
      "id": 83,
      "name": "아비꼬 부천역점",
      "address": "경기 부천시 부일로 453",
      "contact": "032-655-0710",
      "lat": "37.4865339",
      "lng": "126.7806123",
      "region": "경기",
      "district": "부천시"
    },
    {
      "id": 84,
      "name": "아비꼬 대방역점",
      "address": "서울 동작구 알마타길 6\t\t\t\t\t\t105호 아비꼬 대방역점",
      "contact": "02-822-2112",
      "lat": "37.5105906",
      "lng": "126.9251786",
      "region": "서울",
      "district": "동작구"
    },
    {
      "id": 85,
      "name": "아비꼬 롯데백화점부산본점",
      "address": "부산 부산진구 가야대로 772\t\t\t\t\t\t롯데백화점부산본점 9층",
      "contact": "051-810-3981",
      "lat": "35.1568153",
      "lng": "129.0554875",
      "region": "부산",
      "district": "부산진구"
    },
    {
      "id": 86,
      "name": "아비꼬 롯데아울렛 기흥점",
      "address": "경기 용인시 기흥구 신고매로 124\t\t\t\t\t\t롯데아울렛 기흥점  2층",
      "contact": "031-8036-3217",
      "lat": "37.2254599",
      "lng": "127.1209436",
      "region": "경기",
      "district": "용인시"
    },
    {
      "id": 87,
      "name": "아비꼬 뉴코아아울렛 동수원점",
      "address": "경기 수원시 팔달구 인계로 154\t\t\t\t\t\t8층",
      "contact": "031-231-6786",
      "lat": "37.2663108",
      "lng": "127.0343097",
      "region": "경기",
      "district": "수원시"
    },
    {
      "id": 88,
      "name": "아비꼬 가락시장역점",
      "address": "서울 송파구 송파대로28길 27\t\t\t\t\t\t102동 123호 아비꼬 가락시장역점",
      "contact": "02-448-7676",
      "lat": "37.4950169",
      "lng": "127.1203666",
      "region": "서울",
      "district": "송파구"
    },
    {
      "id": 89,
      "name": "아비꼬 성수역점",
      "address": "서울 성동구 연무장5가길 25\t\t\t\t\t\t1층 117,118호 아비꼬 성수역점",
      "contact": "02-2641-0099",
      "lat": "37.5435511",
      "lng": "127.0556140",
      "region": "서울",
      "district": "성동구"
    },
    {
      "id": 90,
      "name": "아비꼬 안산중앙점",
      "address": "경기 안산시 단원구 고잔2길 38\t\t\t\t\t\t1층 105호",
      "contact": "031-410-3005",
      "lat": "37.3175110",
      "lng": "126.8354533",
      "region": "경기",
      "district": "안산시"
    },
    {
      "id": 91,
      "name": "아비꼬 강남지웰타워점",
      "address": "서울 서초구 서초대로78길 36\t\t\t\t\t\t강남지웰타워 101호",
      "contact": "02-523-5563",
      "lat": "37.4947195",
      "lng": "127.0281710",
      "region": "서울",
      "district": "서초구"
    },
    {
      "id": 92,
      "name": "아비꼬 상암월드컵점",
      "address": "서울 마포구 월드컵로 240\t\t\t\t\t\t홈플러스월드컵점2층",
      "contact": "02-304-9843",
      "lat": "37.5682885",
      "lng": "126.8972730",
      "region": "서울",
      "district": "마포구"
    },
    {
      "id": 93,
      "name": "아비꼬 목동파라곤점",
      "address": "서울 양천구 목동 917\t\t\t\t\t\t지하1층 118호 아비꼬 목동파라곤점",
      "contact": "02-2061-9570",
      "lat": "37.5295083",
      "lng": "126.8751397",
      "region": "서울",
      "district": "양천구"
    },
    {
      "id": 94,
      "name": "아비꼬 광주상무점",
      "address": "광주 서구 상무연하로 19\t\t\t\t\t\t1층",
      "contact": "062-384-8859",
      "lat": "35.1499711",
      "lng": "126.8499080",
      "region": "광주",
      "district": "서구"
    },
    {
      "id": 95,
      "name": "아비꼬 롯데몰 수원점",
      "address": "경기 수원시 권선구 세화로 134\t\t\t\t\t\t3층",
      "contact": "031-8066-1863",
      "lat": "37.2642905",
      "lng": "126.9972806",
      "region": "경기",
      "district": "수원시"
    },
    {
      "id": 96,
      "name": "아비꼬 롯데피트인산본점",
      "address": "경기 군포시 번영로 485\t\t\t\t\t\t롯데피트인 산본점 7층",
      "contact": "031-8033-1436",
      "lat": "37.3578642",
      "lng": "126.9306320",
      "region": "경기",
      "district": "군포시"
    },
    {
      "id": 97,
      "name": "아비꼬 대학로점",
      "address": "서울 종로구 대학로12길 22\t\t\t\t\t\t1층 아비꼬 대학로점",
      "contact": "02-3673-0127",
      "lat": "37.5824911",
      "lng": "127.0030956",
      "region": "서울",
      "district": "종로구"
    },
    {
      "id": 98,
      "name": "아비꼬 공덕역점",
      "address": "서울 마포구 마포대로 92\t\t\t\t\t\tB동 1층 13호",
      "contact": "02-2197-1888",
      "lat": "37.5428592",
      "lng": "126.9513333",
      "region": "서울",
      "district": "마포구"
    },
    {
      "id": 99,
      "name": "아비꼬 운정 산내마을점",
      "address": "경기 파주시 목동동 927\t\t\t\t\t\t홈플러스몰 104호",
      "contact": "031-943-5860",
      "lat": "37.7295278",
      "lng": "126.7367686",
      "region": "경기",
      "district": "파주시"
    },
    {
      "id": 100,
      "name": "아비꼬 롯데몰 은평점",
      "address": "서울 은평구 통일로 1050\t\t\t\t\t\t롯데몰 은평점 4층",
      "contact": "02-6975-5413",
      "lat": "37.6375366",
      "lng": "126.9179003",
      "region": "서울",
      "district": "은평구"
    },
    {
      "id": 101,
      "name": "아비꼬 뉴코아부천점",
      "address": "경기 부천시 송내대로 239\t\t\t\t\t\t뉴코아 아울렛 5층",
      "contact": "0507-1347-6909",
      "lat": "37.5041097",
      "lng": "126.7566632",
      "region": "경기",
      "district": "부천시"
    },
    {
      "id": 102,
      "name": "아비꼬 동탄 타임테라스점",
      "address": "경기 화성시 동탄중앙로 220\t\t\t\t\t\t메타폴리스A 블럭401일부호",
      "contact": "031-613-8101",
      "lat": "37.2049561",
      "lng": "127.0692707",
      "region": "경기",
      "district": "화성시"
    },
    {
      "id": 103,
      "name": "아비꼬 신세계 하남점",
      "address": "경기 하남시 미사대로 750\t\t\t\t\t\t신세계백화점 지하1층",
      "contact": "031-8072-1332",
      "lat": "37.5454628",
      "lng": "127.2238404",
      "region": "경기",
      "district": "하남시"
    },
    {
      "id": 104,
      "name": "아비꼬 롯데몰진주점",
      "address": "경남 진주시 동진로 440\t\t\t\t\t\t롯데아울렛 진주점 4층",
      "contact": "055-791-2405",
      "lat": "35.1801018",
      "lng": "128.1398589",
      "region": "경남",
      "district": "진주시"
    },
    {
      "id": 105,
      "name": "아비꼬 고양터미널점",
      "address": "경기 고양시 일산동구 중앙로 1036\t\t\t\t\t\t터미널동 지하 1층 T15-2,3",
      "contact": "031-936-7536",
      "lat": "37.6431783",
      "lng": "126.7896617",
      "region": "경기",
      "district": "고양시"
    },
    {
      "id": 106,
      "name": "아비꼬 롯데백화점 대구점",
      "address": "대구 중구 태평로 160\t\t\t\t\t\tB2F",
      "contact": "0507-1400-2090",
      "lat": "35.8746644",
      "lng": "128.5952361",
      "region": "대구",
      "district": "중구"
    },
    {
      "id": 107,
      "name": "아비꼬 인천논현점",
      "address": "인천 남동구 논고개로 61\t\t\t\t\t\t2층 215호",
      "contact": "0324323234",
      "lat": "37.3975366",
      "lng": "126.7275277",
      "region": "인천",
      "district": "남동구"
    },
    {
      "id": 108,
      "name": "아비꼬 익산영등점",
      "address": "전북특별자치도 익산시 고봉로 290-21\t\t\t\t\t\t1층 102호",
      "contact": "063-832-4918",
      "lat": "35.9579239",
      "lng": "126.9731139",
      "region": "전북특별자치도",
      "district": "익산시"
    },
    {
      "id": 109,
      "name": "아비꼬 천호점",
      "address": "서울 강동구 천호대로157길 40\t\t\t\t\t\t아비꼬 천호점",
      "contact": "02-484-5580",
      "lat": "37.5394789",
      "lng": "127.1278052",
      "region": "서울",
      "district": "강동구"
    },
    {
      "id": 110,
      "name": "아비꼬 광교 아브뉴프랑점",
      "address": "경기 수원시 영통구 센트럴타운로 85\t\t\t\t\t\t203동 207-1호",
      "contact": "031-214-0728",
      "lat": "37.2908162",
      "lng": "127.0505897",
      "region": "경기",
      "district": "수원시"
    },
    {
      "id": 111,
      "name": "아비꼬 노원역점",
      "address": "서울 노원구 상계로3길 21\t\t\t\t\t\t1층 아비꼬 노원역점",
      "contact": "02-952-1815",
      "lat": "37.6572217",
      "lng": "127.0622925",
      "region": "서울",
      "district": "노원구"
    },
    {
      "id": 112,
      "name": "아비꼬 구로디지털역점",
      "address": "서울 구로구 디지털로26길 123\t\t\t\t\t\t지하1층 아비꼬",
      "contact": "02-6969-7877",
      "lat": "37.4830869",
      "lng": "126.8977122",
      "region": "서울",
      "district": "구로구"
    },
    {
      "id": 113,
      "name": "아비꼬 인천청라점",
      "address": "인천 서구 중봉대로586번길 22\t\t\t\t\t\t1층 아비꼬 인천청라점",
      "contact": "032-567-7902",
      "lat": "37.5314452",
      "lng": "126.6515468",
      "region": "인천",
      "district": "서구"
    },
    {
      "id": 114,
      "name": "아비꼬 롯데몰동부산점",
      "address": "부산 기장군 기장읍 기장해안로 147\t\t\t\t\t\t롯데몰동부산점 3F",
      "contact": "051-901-2721",
      "lat": "35.1922174",
      "lng": "129.2127722",
      "region": "부산",
      "district": "기장군"
    },
    {
      "id": 115,
      "name": "아비꼬 타임스퀘어점",
      "address": "서울 영등포구 영중로 15\t\t\t\t\t\t타임스퀘어 B1 B141",
      "contact": "02-2634-0122",
      "lat": "37.5176343",
      "lng": "126.9042788",
      "region": "서울",
      "district": "영등포구"
    },
    {
      "id": 116,
      "name": "아비꼬 부산남포점",
      "address": "부산 중구 남포길 14\t\t\t\t\t\t1층",
      "contact": "051-254-1141",
      "lat": "35.0988425",
      "lng": "129.0302381",
      "region": "부산",
      "district": "중구"
    },
    {
      "id": 117,
      "name": "아비꼬 일산탄현 제니스스퀘어점",
      "address": "경기 고양시 일산서구 일현로 97-11\t\t\t\t\t\t135 일산 탄현 제니스스퀘어점",
      "contact": "031-911-3398",
      "lat": "37.6940172",
      "lng": "126.7628567",
      "region": "경기",
      "district": "고양시"
    },
    {
      "id": 118,
      "name": "아비꼬 천안불당점",
      "address": "충남 천안시 서북구 불당16길 27\t\t\t\t\t\t1층",
      "contact": "070-8722-3236",
      "lat": "36.8011762",
      "lng": "127.1078602",
      "region": "충남",
      "district": "천안시"
    },
    {
      "id": 119,
      "name": "아비꼬 흥덕 유타워점",
      "address": "경기 용인시 기흥구 흥덕중앙로 120\t\t\t\t\t\t경기 용인시 기흥구 흥덕중앙로 120 UTOWER",
      "contact": "031-627-2603",
      "lat": "37.2748902",
      "lng": "127.0800971",
      "region": "경기",
      "district": "용인시"
    },
    {
      "id": 120,
      "name": "아비꼬 부평역점",
      "address": "인천 부평구 부평문화로80번길 16\t\t\t\t\t\t1층",
      "contact": "032-515-1453",
      "lat": "37.4936184",
      "lng": "126.7246084",
      "region": "인천",
      "district": "부평구"
    },
    {
      "id": 121,
      "name": "아비꼬 이수점",
      "address": "서울 동작구 동작대로27길 23\t\t\t\t\t\t1층",
      "contact": "02-591-5105",
      "lat": "37.4874470",
      "lng": "126.9806752",
      "region": "서울",
      "district": "동작구"
    },
    {
      "id": 122,
      "name": "아비꼬 압구정역점",
      "address": "서울 강남구 신사동 577-5\t\t\t\t\t\t카로시티1 지상1층 104호 아비꼬 압구정역점",
      "contact": "02-3446-2087",
      "lat": "37.5255217",
      "lng": "127.0270908",
      "region": "서울",
      "district": "강남구"
    },
    {
      "id": 123,
      "name": "아비꼬 신촌점",
      "address": "서울 서대문구 명물길 58-8\t\t\t\t\t\t1층",
      "contact": "02-313-9797",
      "lat": "37.5586612",
      "lng": "126.9395188",
      "region": "서울",
      "district": "서대문구"
    },
    {
      "id": 124,
      "name": "아비꼬 홍대2호점",
      "address": "서울 마포구 홍익로5안길 20\t\t\t\t\t\t재강빌딩 1층",
      "contact": "02-323-0167",
      "lat": "37.5537975",
      "lng": "126.9215617",
      "region": "서울",
      "district": "마포구"
    },
    {
      "id": 125,
      "name": "아비꼬 동대문두산타워점",
      "address": "서울 중구 장충단로 275\t\t\t\t\t\t두산타워 B2층",
      "contact": null,
      "lat": "37.5688912",
      "lng": "127.0087831",
      "region": "서울",
      "district": "중구"
    },
    {
      "id": 126,
      "name": "아비꼬 홍대1호점",
      "address": "서울 마포구 홍익로 25\t\t\t\t\t\t서교호텔 별관 B106호 아비꼬 홍대1호점",
      "contact": "02-323-0129",
      "lat": "37.5544330",
      "lng": "126.9219995",
      "region": "서울",
      "district": "마포구"
    }
  ]
}