{
  "meta": {
    "brand_id": "outback",
    "brand_name": "아웃백스테이크하우스",
    "totalCount": 102,
    "extractedAt": "2026-03-17T09:03:36.025Z",
    "sourceUrl": "https://m.outback.co.kr/store/findStore.do?menuIdx=102"
  },
  "stores": [
    {
      "id": 1,
      "name": "아웃백스테이크하우스 가산점",
      "address": "서울 금천구 디지털로10길 9 (가산동, 현대시티아울렛 가산점)",
      "contact": "02-2136-9971",
      "lat": "37.47762",
      "lng": "126.8892",
      "region": "서울",
      "district": "금천구"
    },
    {
      "id": 2,
      "name": "아웃백스테이크하우스 강남교보타워점",
      "address": "서울 서초구 강남대로 465 (서초동, 교보생명보험(주) 서초사옥)",
      "contact": "02-599-9501~2",
      "lat": "37.5038015",
      "lng": "127.0242029",
      "region": "서울",
      "district": "서초구"
    },
    {
      "id": 3,
      "name": "아웃백스테이크하우스 강남점",
      "address": "서울 강남구 강남대로 502 (논현동, 서희빌딩)",
      "contact": "02-515-4791",
      "lat": "37.507137",
      "lng": "127.02369",
      "region": "서울",
      "district": "강남구"
    },
    {
      "id": 4,
      "name": "아웃백스테이크하우스 강동아이파크더리버점",
      "address": "서울 강동구 고덕비즈밸리로 51 (고덕동, 강동 아이파크 더리버)",
      "contact": "02-481-0231",
      "lat": "37.5666604",
      "lng": "127.1573288",
      "region": "서울",
      "district": "강동구"
    },
    {
      "id": 5,
      "name": "아웃백스테이크하우스 갤러리아 광교점",
      "address": "경기 수원시 영통구 광교중앙로 124 (하동, 갤러리아 광교)",
      "contact": "031-303-0797",
      "lat": "37.2858287",
      "lng": "127.0594469",
      "region": "경기",
      "district": "수원시"
    },
    {
      "id": 6,
      "name": "아웃백스테이크하우스 거제점",
      "address": "경남 거제시 서문로5길 6 (고현동)",
      "contact": "055-636-9411",
      "lat": "34.889175",
      "lng": "128.62103",
      "region": "경남",
      "district": "거제시"
    },
    {
      "id": 7,
      "name": "아웃백스테이크하우스 건대스타시티점",
      "address": "서울 광진구 능동로 92 (자양동, 롯데백화점)",
      "contact": "02-2218-3021",
      "lat": "37.5390734",
      "lng": "127.0711481",
      "region": "서울",
      "district": "광진구"
    },
    {
      "id": 8,
      "name": "아웃백스테이크하우스 고양스타필드점",
      "address": "경기 고양시 덕양구 고양대로 1955 (동산동, 스타필드 고양)",
      "contact": "031-5173-5489",
      "lat": "37.6469771",
      "lng": "126.8947780",
      "region": "경기",
      "district": "고양시"
    },
    {
      "id": 9,
      "name": "아웃백스테이크하우스 고척아이파크몰점",
      "address": "서울 구로구 경인로43길 49 (고척동, 고척아이파크)",
      "contact": "02-2625-9741",
      "lat": "37.4992011",
      "lng": "126.8577440",
      "region": "서울",
      "district": "구로구"
    },
    {
      "id": 10,
      "name": "아웃백스테이크하우스 공항점",
      "address": "서울 강서구 마곡중앙6로 16 (마곡동, 마곡지엠지타워)",
      "contact": "02-3661-1101",
      "lat": "37.5604016",
      "lng": "126.8290062",
      "region": "서울",
      "district": "강서구"
    },
    {
      "id": 11,
      "name": "아웃백스테이크하우스 광명AK점",
      "address": "경기 광명시 양지로 17 (일직동)",
      "contact": "02-897-9311",
      "lat": "37.4187526",
      "lng": "126.8826531",
      "region": "경기",
      "district": "광명시"
    },
    {
      "id": 12,
      "name": "아웃백스테이크하우스 광복롯데점",
      "address": "부산 중구 중앙대로 2 (중앙동7가, 롯데백화점광복점)",
      "contact": "051-678-4071",
      "lat": "35.0983052",
      "lng": "129.0367023",
      "region": "부산",
      "district": "중구"
    },
    {
      "id": 13,
      "name": "아웃백스테이크하우스 광주광천점",
      "address": "광주 서구 죽봉대로 68 (농성동)",
      "contact": "062-363-0531",
      "lat": "35.158817",
      "lng": "126.883675",
      "region": "광주",
      "district": "서구"
    },
    {
      "id": 14,
      "name": "아웃백스테이크하우스 광주상무점",
      "address": "광주 서구 상무연하로 41 (치평동, 아웃백스테이크)",
      "contact": "062-374-3761",
      "lat": "35.152016",
      "lng": "126.84992",
      "region": "광주",
      "district": "서구"
    },
    {
      "id": 15,
      "name": "아웃백스테이크하우스 광화문D타워점",
      "address": "서울 종로구 종로3길 17 (청진동, D타워)",
      "contact": "02-2251-8451",
      "lat": "37.5710184",
      "lng": "126.9789694",
      "region": "서울",
      "district": "종로구"
    },
    {
      "id": 16,
      "name": "아웃백스테이크하우스 구의이스트폴점",
      "address": "서울 광진구 아차산로 402 (자양동, 판매시설)",
      "contact": "02-456-8351~2",
      "lat": "37.5366969",
      "lng": "127.0878216",
      "region": "서울",
      "district": "광진구"
    },
    {
      "id": 17,
      "name": "아웃백스테이크하우스 구파발점",
      "address": "서울 은평구 통일로 1080 (진관동)",
      "contact": "02-354-9791",
      "lat": "37.639233",
      "lng": "126.917534",
      "region": "서울",
      "district": "은평구"
    },
    {
      "id": 18,
      "name": "아웃백스테이크하우스 군산롯데몰점",
      "address": "전북특별자치도 군산시 조촌로 130 (조촌동, 롯데몰 군산점)",
      "contact": "063-447-0381",
      "lat": "35.9764131",
      "lng": "126.7391410",
      "region": "전북특별자치도",
      "district": "군산시"
    },
    {
      "id": 19,
      "name": "아웃백스테이크하우스 기흥롯데아울렛점",
      "address": "경기 용인시 기흥구 신고매로 124 (고매동)",
      "contact": "031-8036-3491",
      "lat": "37.2254182",
      "lng": "127.1209576",
      "region": "경기",
      "district": "용인시"
    },
    {
      "id": 20,
      "name": "아웃백스테이크하우스 김포공항롯데몰점",
      "address": "서울 강서구 하늘길 38 (방화동, 김포공항, 롯데몰, 스카이시티)",
      "contact": "02-6116-5050",
      "lat": "37.5713698",
      "lng": "126.8029604",
      "region": "서울",
      "district": "강서구"
    },
    {
      "id": 21,
      "name": "아웃백스테이크하우스 김포점",
      "address": "경기 김포시 고촌읍 아라육로152번길 100 (전호리, 현대프리미엄아울렛)",
      "contact": "031-8048-2577",
      "lat": "37.596695",
      "lng": "126.78529",
      "region": "경기",
      "district": "김포시"
    },
    {
      "id": 22,
      "name": "아웃백스테이크하우스 김해 신세계점",
      "address": "경남 김해시 김해대로 2232 (외동)",
      "contact": "055-272-1581",
      "lat": "35.2293396",
      "lng": "128.8722425",
      "region": "경남",
      "district": "김해시"
    },
    {
      "id": 23,
      "name": "아웃백스테이크하우스 남양주현대아울렛점",
      "address": "경기 남양주시 다산순환로 50 (다산동, 다산진건 자족시설용지 1BL 판매시설)",
      "contact": "031-8078-2344",
      "lat": "37.6162580",
      "lng": "127.1524291",
      "region": "경기",
      "district": "남양주시"
    },
    {
      "id": 24,
      "name": "아웃백스테이크하우스 남포항점",
      "address": "경북 포항시 남구 포스코대로 337 (대도동, 아웃백스테이크하우스)",
      "contact": "054-276-5641",
      "lat": "36.01825",
      "lng": "129.36066",
      "region": "경북",
      "district": "포항시"
    },
    {
      "id": 25,
      "name": "아웃백스테이크하우스 노원롯데점",
      "address": "서울 노원구 동일로 1414 (상계동, 롯데백화점)",
      "contact": "02-938-5471",
      "lat": "37.6551499",
      "lng": "127.0610983",
      "region": "서울",
      "district": "노원구"
    },
    {
      "id": 26,
      "name": "아웃백스테이크하우스 대구 신세계점",
      "address": "대구 동구 동부로 149 (신천동, 신세계동대구복합환승센터)",
      "contact": "053-661-6895",
      "lat": "35.8779407",
      "lng": "128.6291900",
      "region": "대구",
      "district": "동구"
    },
    {
      "id": 27,
      "name": "아웃백스테이크하우스 대구죽전점",
      "address": "대구 달서구 달구벌대로 1545 (죽전동, 골든뷰 메디타워)",
      "contact": "053-571-1851",
      "lat": "35.849224",
      "lng": "128.53793",
      "region": "대구",
      "district": "달서구"
    },
    {
      "id": 28,
      "name": "아웃백스테이크하우스 대구황금점",
      "address": "대구 수성구 동대구로 219 (황금동)",
      "contact": "053-768-7011",
      "lat": "35.849827",
      "lng": "128.62448",
      "region": "대구",
      "district": "수성구"
    },
    {
      "id": 29,
      "name": "아웃백스테이크하우스 대전 신세계점",
      "address": "대전 유성구 엑스포로 1 (도룡동)",
      "contact": "042-607-8702",
      "lat": "36.3773621",
      "lng": "127.3843144",
      "region": "대전",
      "district": "유성구"
    },
    {
      "id": 30,
      "name": "아웃백스테이크하우스 대전갤러리아점",
      "address": "대전 서구 대덕대로 211 (둔산동, 갤러리아타임월드백화점)",
      "contact": "042-720-6071",
      "lat": "36.3519688",
      "lng": "127.3781835",
      "region": "대전",
      "district": "서구"
    },
    {
      "id": 31,
      "name": "아웃백스테이크하우스 대전현대아울렛점",
      "address": "대전 유성구 테크노중앙로 123 (용산동, 현대프리미엄아울렛 대전점)",
      "contact": "042-332-2840",
      "lat": "36.4239095",
      "lng": "127.3986899",
      "region": "대전",
      "district": "유성구"
    },
    {
      "id": 32,
      "name": "아웃백스테이크하우스 덕천점",
      "address": "부산 북구 만덕대로 30 (덕천동, 미래빌딩)",
      "contact": "051-336-8611",
      "lat": "35.210674",
      "lng": "129.00847",
      "region": "부산",
      "district": "북구"
    },
    {
      "id": 33,
      "name": "아웃백스테이크하우스 동광주점",
      "address": "광주 북구 동문대로 200 (두암동, 삼성홈플러스)",
      "contact": "062-268-9581",
      "lat": "35.1793379",
      "lng": "126.9304109",
      "region": "광주",
      "district": "북구"
    },
    {
      "id": 34,
      "name": "아웃백스테이크하우스 동대문점",
      "address": "서울 중구 장충단로13길 20 (을지로6가, 현대시티타워)",
      "contact": "02-2283-2902",
      "lat": "37.568737",
      "lng": "127.00768",
      "region": "서울",
      "district": "중구"
    },
    {
      "id": 35,
      "name": "아웃백스테이크하우스 동래점",
      "address": "부산 동래구 온천장로 20 (온천동, 신화타워아파트)",
      "contact": "051-558-5041",
      "lat": "35.213486",
      "lng": "129.07927",
      "region": "부산",
      "district": "동래구"
    },
    {
      "id": 36,
      "name": "아웃백스테이크하우스 동부산롯데아울렛점",
      "address": "부산 기장군 기장읍 기장해안로 147 (당사리, 롯데몰 동부산점)",
      "contact": "051-901-2701",
      "lat": "35.1921607",
      "lng": "129.2127177",
      "region": "부산",
      "district": "기장군"
    },
    {
      "id": 37,
      "name": "아웃백스테이크하우스 동탄 롯데점",
      "address": "경기 화성시 동탄역로 160 (오산동)",
      "contact": "031-8036-2245",
      "lat": "37.2006732",
      "lng": "127.0979228",
      "region": "경기",
      "district": "화성시"
    },
    {
      "id": 38,
      "name": "아웃백스테이크하우스 동탄점",
      "address": "경기 화성시 동탄중앙로 220 (반송동, 메타폴리스)",
      "contact": "031-8015-4261",
      "lat": "37.20516",
      "lng": "127.06831",
      "region": "경기",
      "district": "화성시"
    },
    {
      "id": 39,
      "name": "아웃백스테이크하우스 딜리버리 서초점",
      "address": "서울 서초구 서초대로 350 (서초동, 서초동동아빌라트)",
      "contact": "1811-3650",
      "lat": "37.4952059",
      "lng": "127.0198509",
      "region": "서울",
      "district": "서초구"
    },
    {
      "id": 40,
      "name": "아웃백스테이크하우스 명동점",
      "address": "서울 중구 명동3길 36 (을지로2가)",
      "contact": "02-778-6731",
      "lat": "37.5653492",
      "lng": "126.9837511",
      "region": "서울",
      "district": "중구"
    },
    {
      "id": 41,
      "name": "아웃백스테이크하우스 명지스타필드점",
      "address": "부산 강서구 명지국제6로 168 (명지동, 스타필드 시티 명지점)",
      "contact": "051-990-0381",
      "lat": "35.0931120",
      "lng": "128.9181436",
      "region": "부산",
      "district": "강서구"
    },
    {
      "id": 42,
      "name": "아웃백스테이크하우스 목동점",
      "address": "서울 양천구 목동동로 293 (목동, 현대41타워)",
      "contact": "02-2168-2811",
      "lat": "37.528175",
      "lng": "126.875786",
      "region": "서울",
      "district": "양천구"
    },
    {
      "id": 43,
      "name": "아웃백스테이크하우스 목포남악점",
      "address": "전남 무안군 삼향읍 남악4로 49 (남악리, 중앙프라자)",
      "contact": "061-285-2741",
      "lat": "34.81002",
      "lng": "126.46556",
      "region": "전남",
      "district": "무안군"
    },
    {
      "id": 44,
      "name": "아웃백스테이크하우스 미아점",
      "address": "서울 강북구 도봉로 62 (미아동, 롯데백화점 미아점)",
      "contact": "02-944-2661",
      "lat": "37.6146006",
      "lng": "127.0305324",
      "region": "서울",
      "district": "강북구"
    },
    {
      "id": 45,
      "name": "아웃백스테이크하우스 반월당점",
      "address": "대구 중구 덕산동 110 (덕산동, 삼성생명)",
      "contact": "053-431-0891",
      "lat": "35.8662443",
      "lng": "128.5927997",
      "region": "대구",
      "district": "중구"
    },
    {
      "id": 46,
      "name": "아웃백스테이크하우스 부산신세계센텀시티점",
      "address": "부산 해운대구 센텀4로 15 (우동, 센텀시티 몰)",
      "contact": "051-745-1595",
      "lat": "35.1698401",
      "lng": "129.1283011",
      "region": "부산",
      "district": "해운대구"
    },
    {
      "id": 47,
      "name": "아웃백스테이크하우스 부천역사점",
      "address": "경기 부천시 부천로 1 (심곡본동, 부천역사쇼핑몰)",
      "contact": "032-654-0761",
      "lat": "37.484035",
      "lng": "126.782646",
      "region": "경기",
      "district": "부천시"
    },
    {
      "id": 48,
      "name": "아웃백스테이크하우스 부평점",
      "address": "인천 부평구 광장로 4 (부평동)",
      "contact": "032-330-0171",
      "lat": "37.491047",
      "lng": "126.72255",
      "region": "인천",
      "district": "부평구"
    },
    {
      "id": 49,
      "name": "아웃백스테이크하우스 분당AK점",
      "address": "경기 성남시 분당구 황새울로360번길 42 (서현동, AK플라자)",
      "contact": "031-8023-2800",
      "lat": "37.3850444",
      "lng": "127.1236884",
      "region": "경기",
      "district": "성남시"
    },
    {
      "id": 50,
      "name": "아웃백스테이크하우스 사당 파스텔시티점",
      "address": "서울 서초구 방배동 444-3 (방배동, SK리더스뷰)",
      "contact": "02-884-4761",
      "lat": "37.4776952",
      "lng": "126.9822399",
      "region": "서울",
      "district": "서초구"
    },
    {
      "id": 51,
      "name": "아웃백스테이크하우스 상봉점",
      "address": "서울 중랑구 망우로 353 (상봉동, 상봉 프레미어스 엠코)",
      "contact": "02-434-8491",
      "lat": "37.5982973",
      "lng": "127.0903644",
      "region": "서울",
      "district": "중랑구"
    },
    {
      "id": 52,
      "name": "아웃백스테이크하우스 서면점",
      "address": "부산 부산진구 중앙대로 672 (부전동, 삼정타워)",
      "contact": "051-520-3770",
      "lat": "35.1530130",
      "lng": "129.0596047",
      "region": "부산",
      "district": "부산진구"
    },
    {
      "id": 53,
      "name": "아웃백스테이크하우스 센트럴시티점",
      "address": "서울 서초구 신반포로 176 (반포동, 센트럴시티빌딩)",
      "contact": "02-592-2771",
      "lat": "37.504917",
      "lng": "127.00321",
      "region": "서울",
      "district": "서초구"
    },
    {
      "id": 54,
      "name": "아웃백스테이크하우스 송도점",
      "address": "인천 연수구 송도국제대로 157 (송도동, 오네스타)",
      "contact": "032-821-9951",
      "lat": "37.380993",
      "lng": "126.65661",
      "region": "인천",
      "district": "연수구"
    },
    {
      "id": 55,
      "name": "아웃백스테이크하우스 수원스타필드점",
      "address": "경기 수원시 장안구 수성로 175 (정자동)",
      "contact": "031-690-1705",
      "lat": "37.2874301",
      "lng": "126.9915444",
      "region": "경기",
      "district": "수원시"
    },
    {
      "id": 56,
      "name": "아웃백스테이크하우스 수원역사점",
      "address": "경기 수원시 팔달구 덕영대로 924 (매산로1가, AK플라자)",
      "contact": "031-240-2111",
      "lat": "37.26568",
      "lng": "127.000244",
      "region": "경기",
      "district": "수원시"
    },
    {
      "id": 57,
      "name": "아웃백스테이크하우스 수원영통점",
      "address": "경기 수원시 영통구 봉영로 1613 (영통동, 영통하우스토리)",
      "contact": "031-205-9252",
      "lat": "37.255135",
      "lng": "127.07389",
      "region": "경기",
      "district": "수원시"
    },
    {
      "id": 58,
      "name": "아웃백스테이크하우스 수원타임빌라스점",
      "address": "경기 수원시 권선구 세화로 134 (서둔동, 타임빌라스 수원)",
      "contact": "031-8066-1677",
      "lat": "37.2642500",
      "lng": "126.9972174",
      "region": "경기",
      "district": "수원시"
    },
    {
      "id": 59,
      "name": "아웃백스테이크하우스 순천점",
      "address": "전남 순천시 왕지5길 4 (왕지동)",
      "contact": "061-727-0681",
      "lat": "34.971867",
      "lng": "127.52264",
      "region": "전남",
      "district": "순천시"
    },
    {
      "id": 60,
      "name": "아웃백스테이크하우스 시흥신세계아울렛점",
      "address": "경기 시흥시 서해안로 699 (배곧동, 시흥 프리미엄 아울렛)",
      "contact": "031-8072-3231",
      "lat": "37.3796756",
      "lng": "126.7369853",
      "region": "경기",
      "district": "시흥시"
    },
    {
      "id": 61,
      "name": "아웃백스테이크하우스 신림타임스트림점",
      "address": "서울 관악구 신림로 330 (신림동, 타임스트림)",
      "contact": "02-821-0671",
      "lat": "37.4838598",
      "lng": "126.9302425",
      "region": "서울",
      "district": "관악구"
    },
    {
      "id": 62,
      "name": "아웃백스테이크하우스 신세계사우스시티점",
      "address": "경기 용인시 수지구 포은대로 536 (죽전동, (주)신세계백화점경기점)",
      "contact": "031-695-2181",
      "lat": "37.3249507",
      "lng": "127.1081252",
      "region": "경기",
      "district": "용인시"
    },
    {
      "id": 63,
      "name": "아웃백스테이크하우스 신촌점",
      "address": "서울 서대문구 연세로12길 33 (창천동, 아웃백 스테이크 전문점)",
      "contact": "02-3147-1871",
      "lat": "37.559128",
      "lng": "126.93886",
      "region": "서울",
      "district": "서대문구"
    },
    {
      "id": 64,
      "name": "아웃백스테이크하우스 안산고잔점",
      "address": "경기 안산시 단원구 당곡로 11 (고잔동, 거풍스카이팰리스)",
      "contact": "031-405-4691",
      "lat": "37.31833",
      "lng": "126.83299",
      "region": "경기",
      "district": "안산시"
    },
    {
      "id": 65,
      "name": "아웃백스테이크하우스 양산점",
      "address": "경남 양산시 중부로 2 (중부동, 인터불고몰)",
      "contact": "055-366-0281",
      "lat": "35.339027",
      "lng": "129.02742",
      "region": "경남",
      "district": "양산시"
    },
    {
      "id": 66,
      "name": "아웃백스테이크하우스 양재점",
      "address": "서울 서초구 남부순환로 2567 (서초동)",
      "contact": "02-564-8601",
      "lat": "37.4845501",
      "lng": "127.0312291",
      "region": "서울",
      "district": "서초구"
    },
    {
      "id": 67,
      "name": "아웃백스테이크하우스 여수웅천점",
      "address": "전남 여수시 웅천남7로 24 (웅천동)",
      "contact": "061-692-6110",
      "lat": "34.7394584",
      "lng": "127.6783719",
      "region": "전남",
      "district": "여수시"
    },
    {
      "id": 68,
      "name": "아웃백스테이크하우스 여의도점",
      "address": "서울 영등포구 국제금융로8길 6 (여의도동)",
      "contact": "02-761-2961",
      "lat": "37.5218",
      "lng": "126.9297",
      "region": "서울",
      "district": "영등포구"
    },
    {
      "id": 69,
      "name": "아웃백스테이크하우스 여주신세계아울렛점",
      "address": "경기 여주시 명품로 360 (상거동, 여주프리미엄아울렛)",
      "contact": "031-8087-2691",
      "lat": "37.2458827",
      "lng": "127.6122784",
      "region": "경기",
      "district": "여주시"
    },
    {
      "id": 70,
      "name": "아웃백스테이크하우스 왕십리역사점",
      "address": "서울 성동구 왕십리광장로 17 (행당동, 왕십리민자역사)",
      "contact": "02-2292-9131",
      "lat": "37.5614086",
      "lng": "127.0384812",
      "region": "서울",
      "district": "성동구"
    },
    {
      "id": 71,
      "name": "아웃백스테이크하우스 용산 아이파크몰점",
      "address": "서울 용산구 한강대로23길 55 (한강로3가, 용산역)",
      "contact": "02-2012-0751",
      "lat": "37.5297718",
      "lng": "126.9647415",
      "region": "서울",
      "district": "용산구"
    },
    {
      "id": 72,
      "name": "아웃백스테이크하우스 울산삼산점",
      "address": "울산 남구 삼산로 231 (달동, 울산 센트럴 자이)",
      "contact": "052-256-1491",
      "lat": "35.538883",
      "lng": "129.33267",
      "region": "울산",
      "district": "남구"
    },
    {
      "id": 73,
      "name": "아웃백스테이크하우스 원주점",
      "address": "강원 원주시 시청로 27 (무실동)",
      "contact": "033-766-6941",
      "lat": "37.340252",
      "lng": "127.9235",
      "region": "강원",
      "district": "원주시"
    },
    {
      "id": 74,
      "name": "아웃백스테이크하우스 유성점",
      "address": "대전 유성구 온천로 45 (봉명동, 유성 푸르지오 시티)",
      "contact": "042-823-7861",
      "lat": "36.355755",
      "lng": "127.34291",
      "region": "대전",
      "district": "유성구"
    },
    {
      "id": 75,
      "name": "아웃백스테이크하우스 의정부금오점",
      "address": "경기 의정부시 청사로48번길 25 (금오동, 아웃백스테이크하우스금오점)",
      "contact": "031-853-7601",
      "lat": "37.753086",
      "lng": "127.07141",
      "region": "경기",
      "district": "의정부시"
    },
    {
      "id": 76,
      "name": "아웃백스테이크하우스 인동점",
      "address": "경북 구미시 인동가산로 14 (진평동)",
      "contact": "054-476-9791",
      "lat": "36.107292",
      "lng": "128.41788",
      "region": "경북",
      "district": "구미시"
    },
    {
      "id": 77,
      "name": "아웃백스테이크하우스 인천롯데점",
      "address": "인천 미추홀구 연남로 35 (관교동, 인천종합터미널,롯데백화점)",
      "contact": "032-242-6060",
      "lat": "37.4424853",
      "lng": "126.7013784",
      "region": "인천",
      "district": "미추홀구"
    },
    {
      "id": 78,
      "name": "아웃백스테이크하우스 인천작전점",
      "address": "인천 계양구 계양대로 56 (작전동)",
      "contact": "032-549-2681",
      "lat": "37.52872",
      "lng": "126.723656",
      "region": "인천",
      "district": "계양구"
    },
    {
      "id": 79,
      "name": "아웃백스테이크하우스 일산원마운트점",
      "address": "경기 고양시 일산서구 한류월드로 300 (대화동, 원마운트)",
      "contact": "031-961-6491",
      "lat": "37.664562",
      "lng": "126.754524",
      "region": "경기",
      "district": "고양시"
    },
    {
      "id": 80,
      "name": "아웃백스테이크하우스 일산점",
      "address": "경기 고양시 일산동구 무궁화로 237 (중산동)",
      "contact": "031-915-2361",
      "lat": "37.673855",
      "lng": "126.78714",
      "region": "경기",
      "district": "고양시"
    },
    {
      "id": 81,
      "name": "아웃백스테이크하우스 잠실롯데점",
      "address": "서울 송파구 올림픽로 240 (잠실동, 롯데월드)",
      "contact": "02-2143-7290",
      "lat": "37.5110794",
      "lng": "127.0981638",
      "region": "서울",
      "district": "송파구"
    },
    {
      "id": 82,
      "name": "아웃백스테이크하우스 잠실점",
      "address": "서울 송파구 송파대로 466 (송파동)",
      "contact": "02-418-4071",
      "lat": "37.507904",
      "lng": "127.10524",
      "region": "서울",
      "district": "송파구"
    },
    {
      "id": 83,
      "name": "아웃백스테이크하우스 제주아일랜드점",
      "address": "제주특별자치도 제주시 오라이동 3173 (오라이동)",
      "contact": "064-746-1591",
      "lat": "33.4811666",
      "lng": "126.5024897",
      "region": "제주특별자치도",
      "district": "제주시"
    },
    {
      "id": 84,
      "name": "아웃백스테이크하우스 중동롯데점",
      "address": "경기 부천시 길주로 300 (중동, LOTTE백화점)",
      "contact": "032-320-7775",
      "lat": "37.5025219",
      "lng": "126.7754161",
      "region": "경기",
      "district": "부천시"
    },
    {
      "id": 85,
      "name": "아웃백스테이크하우스 중앙점",
      "address": "경남 창원시 성산구 중앙대로 33 (중앙동, 대흥인터빌)",
      "contact": "055-285-9751",
      "lat": "35.219044",
      "lng": "128.67499",
      "region": "경남",
      "district": "창원시"
    },
    {
      "id": 86,
      "name": "아웃백스테이크하우스 진주롯데몰점",
      "address": "경남 진주시 동진로 440 (충무공동, 롯데아울렛 진주점)",
      "contact": "055-791-2440~2",
      "lat": "35.1801018",
      "lng": "128.1398589",
      "region": "경남",
      "district": "진주시"
    },
    {
      "id": 87,
      "name": "아웃백스테이크하우스 천안아산신세계점",
      "address": "충남 천안시 동남구 만남로 43 (신부동, 신세계백화점천안아산점천안종합버스터미널)",
      "contact": "041-640-5638",
      "lat": "36.8205130",
      "lng": "127.1563472",
      "region": "충남",
      "district": "천안시"
    },
    {
      "id": 88,
      "name": "아웃백스테이크하우스 천안펜타포트점",
      "address": "충남 천안시 서북구 공원로 196 (불당동, 펜타포트)",
      "contact": "041-534-0561",
      "lat": "36.798447",
      "lng": "127.10143",
      "region": "충남",
      "district": "천안시"
    },
    {
      "id": 89,
      "name": "아웃백스테이크하우스 천호현대점",
      "address": "서울 강동구 천호대로 1005 (천호동, 현대백화점)",
      "contact": "02-2225-8965",
      "lat": "37.5389906",
      "lng": "127.1244167",
      "region": "서울",
      "district": "강동구"
    },
    {
      "id": 90,
      "name": "아웃백스테이크하우스 청량리역사점",
      "address": "서울 동대문구 왕산로 214 (전농동, 청량리역,롯데백화점)",
      "contact": "02-3295-4842",
      "lat": "37.5841971",
      "lng": "127.0511390",
      "region": "서울",
      "district": "동대문구"
    },
    {
      "id": 91,
      "name": "아웃백스테이크하우스 청주점",
      "address": "충북 청주시 흥덕구 대농로 43 (복대동, 신영지웰시티)",
      "contact": "043-232-0961",
      "lat": "36.6429298",
      "lng": "127.4266714",
      "region": "충북",
      "district": "청주시"
    },
    {
      "id": 92,
      "name": "아웃백스테이크하우스 춘천점",
      "address": "강원 춘천시 후석로 120 (석사동)",
      "contact": "033-264-2161",
      "lat": "37.8633018",
      "lng": "127.7482199",
      "region": "강원",
      "district": "춘천시"
    },
    {
      "id": 93,
      "name": "아웃백스테이크하우스 코엑스스타필드점",
      "address": "서울 강남구 영동대로 513 (삼성동, 코엑스)",
      "contact": "02-558-4491",
      "lat": "37.5116621",
      "lng": "127.0594275",
      "region": "서울",
      "district": "강남구"
    },
    {
      "id": 94,
      "name": "아웃백스테이크하우스 타임스퀘어점",
      "address": "서울 영등포구 영중로 15 (영등포동4가, 타임스퀘어)",
      "contact": "02-2069-3821",
      "lat": "37.5171723",
      "lng": "126.9039181",
      "region": "서울",
      "district": "영등포구"
    },
    {
      "id": 95,
      "name": "아웃백스테이크하우스 파주점",
      "address": "경기 파주시 탄현면 필승로 200 (법흥리, 파주프리미엄아울렛)",
      "contact": "031-8071-7431",
      "lat": "37.7693462",
      "lng": "126.6953831",
      "region": "경기",
      "district": "파주시"
    },
    {
      "id": 96,
      "name": "아웃백스테이크하우스 판교점",
      "address": "경기 성남시 분당구 분당내곡로 131 (백현동)",
      "contact": "031-601-7401",
      "lat": "37.3954525",
      "lng": "127.1121495",
      "region": "경기",
      "district": "성남시"
    },
    {
      "id": 97,
      "name": "아웃백스테이크하우스 평촌롯데점",
      "address": "경기 안양시 동안구 시민대로 180 (호계동, G.SQURE, 롯데백화점 평촌점)",
      "contact": "031-387-3761",
      "lat": "37.3900085",
      "lng": "126.9504445",
      "region": "경기",
      "district": "안양시"
    },
    {
      "id": 98,
      "name": "아웃백스테이크하우스 평택점",
      "address": "경기 평택시 평택로 51 (평택동, 평택민자역사)",
      "contact": "031-692-2381",
      "lat": "36.990917",
      "lng": "127.084694",
      "region": "경기",
      "district": "평택시"
    },
    {
      "id": 99,
      "name": "아웃백스테이크하우스 하남 스타필드점",
      "address": "경기 하남시 미사대로 750 (신장동, 스타필드 하남)",
      "contact": "031-8072-8538",
      "lat": "37.5454628",
      "lng": "127.2238404",
      "region": "경기",
      "district": "하남시"
    },
    {
      "id": 100,
      "name": "아웃백스테이크하우스 합정점",
      "address": "서울 마포구 월드컵로3길 14 (합정동, 마포 한강 2차 푸르지오)",
      "contact": "02-338-8591",
      "lat": "37.55091",
      "lng": "126.91175",
      "region": "서울",
      "district": "마포구"
    },
    {
      "id": 101,
      "name": "아웃백스테이크하우스 해운대점",
      "address": "부산 해운대구 해운대해변로 287 (중동, 씨클라우드)",
      "contact": "051-731-7211",
      "lat": "35.16046",
      "lng": "129.16225",
      "region": "부산",
      "district": "해운대구"
    },
    {
      "id": 102,
      "name": "아웃백스테이크하우스 효자점",
      "address": "전북 전주시 완산구 우전로 260 (효자동2가, 세움 펠리피아 오피스텔)",
      "contact": "063-285-0581",
      "lat": "35.81774",
      "lng": "127.10226",
      "region": "전북",
      "district": "전주시"
    }
  ]
}