{
  "meta": {
    "brand_id": "a95769d95c71429f8799a5ccd545fa7c",
    "brand_name": "아티제",
    "totalCount": 56,
    "extractedAt": "2026-03-17T10:31:08.385Z",
    "sourceUrl": "https://www.cafeartisee.com/store/"
  },
  "stores": [
    {
      "id": 1,
      "name": "아티제 강남구청역점",
      "address": "서울특별시 강남구 학동로 343 POBA타워 1층",
      "contact": "025180012",
      "lat": "37.5174482",
      "lng": "127.0406303",
      "region": "서울특별시",
      "district": "강남구"
    },
    {
      "id": 2,
      "name": "아티제 인천송도점",
      "address": "인천광역시 연수구 송도동 22-1 1층",
      "contact": "0327102907",
      "lat": "37.395031",
      "lng": "126.64465",
      "region": "인천광역시",
      "district": "연수구"
    },
    {
      "id": 3,
      "name": "아티제 서울스퀘어점",
      "address": "서울특별시 중구 한강대로 416 서울스퀘어 1층 03-02호",
      "contact": "0264568844",
      "lat": "37.5557888",
      "lng": "126.97368",
      "region": "서울특별시",
      "district": "중구"
    },
    {
      "id": 4,
      "name": "아티제 포제종로센트로폴리스점",
      "address": "서울특별시 종로구 종로 우정국로 26 센트로폴리스1층",
      "contact": "0263705811",
      "lat": "37.5714277",
      "lng": "126.9835796",
      "region": "서울특별시",
      "district": "종로구"
    },
    {
      "id": 5,
      "name": "아티제 여의도KBS별관점",
      "address": "서울특별시 영등포구 의사당대로1길 34 인영빌딩 1층",
      "contact": "027821411",
      "lat": "37.520036",
      "lng": "126.93076",
      "region": "서울특별시",
      "district": "영등포구"
    },
    {
      "id": 6,
      "name": "아티제 서초점",
      "address": "서울특별시 서초구 서초대로64길 76-21 삼성레포츠센타 1층",
      "contact": "025825445",
      "lat": "37.491781",
      "lng": "127.021521",
      "region": "서울특별시",
      "district": "서초구"
    },
    {
      "id": 7,
      "name": "아티제 선릉대치타워점",
      "address": "서울특별시 강남구 테헤란로 424 삼성생명대치타워 1층",
      "contact": "025622155",
      "lat": "37.5048625",
      "lng": "127.0529776",
      "region": "서울특별시",
      "district": "강남구"
    },
    {
      "id": 8,
      "name": "아티제 여의도역점",
      "address": "서울특별시 영등포구 여의나루로 50 한국교직원공제회관 지하1층",
      "contact": "027852155",
      "lat": "37.521851",
      "lng": "126.925826",
      "region": "서울특별시",
      "district": "영등포구"
    },
    {
      "id": 9,
      "name": "아티제 판교역점",
      "address": "경기도 성남시 분당구 분당내곡로 117 그레이츠 판교 1층",
      "contact": "0316227595",
      "lat": "37.3943233",
      "lng": "127.1118203",
      "region": "경기도",
      "district": "성남시"
    },
    {
      "id": 10,
      "name": "아티제 부영태평빌딩점",
      "address": "서울특별시 중구 세종대로 55 지하2층",
      "contact": "027731707",
      "lat": "37.561604",
      "lng": "126.974946",
      "region": "서울특별시",
      "district": "중구"
    },
    {
      "id": 11,
      "name": "아티제 미래와희망병원점",
      "address": "서울특별시 강남구 언주로 707",
      "contact": "025452155",
      "lat": "37.516203",
      "lng": "127.035019",
      "region": "서울특별시",
      "district": "강남구"
    },
    {
      "id": 12,
      "name": "아티제 메세나폴리스점",
      "address": "서울특별시 마포구 양화로 45 메세나폴리스 지하1층 121호",
      "contact": "023220018",
      "lat": "37.5514181",
      "lng": "126.9140416",
      "region": "서울특별시",
      "district": "마포구"
    },
    {
      "id": 13,
      "name": "아티제 분당서현점",
      "address": "경기도 성남시 분당구 분당로 55 퍼스트타워 1, 2층",
      "contact": "0317020017",
      "lat": "37.3823649",
      "lng": "127.1218726",
      "region": "경기도",
      "district": "성남시"
    },
    {
      "id": 14,
      "name": "아티제 GFC점",
      "address": "서울특별시 강남구 역삼1동 강남파이낸스센터 지하2층",
      "contact": "025522155",
      "lat": "37.499927",
      "lng": "127.036553",
      "region": "서울특별시",
      "district": "강남구"
    },
    {
      "id": 15,
      "name": "아티제 여의도점",
      "address": "서울특별시 영등포구 국제금융로2길 17 동여의도빌딩 1층",
      "contact": "027860041",
      "lat": "37.524028",
      "lng": "126.926024",
      "region": "서울특별시",
      "district": "영등포구"
    },
    {
      "id": 16,
      "name": "아티제 역삼역점",
      "address": "서울특별시 강남구 테헤란로 203 SI타워",
      "contact": "025572155",
      "lat": "37.501584",
      "lng": "127.037966",
      "region": "서울특별시",
      "district": "강남구"
    },
    {
      "id": 17,
      "name": "아티제 강남점",
      "address": "서울특별시 서초구 서초대로77길 62 강남역 IPARK 1층",
      "contact": "025360002",
      "lat": "37.50258",
      "lng": "127.024042",
      "region": "서울특별시",
      "district": "서초구"
    },
    {
      "id": 18,
      "name": "아티제 여의도공원점",
      "address": "서울특별시 영등포구 은행로 30 중소기업중앙회관 신관 1층",
      "contact": "027612274",
      "lat": "37.5278605",
      "lng": "126.9209378",
      "region": "서울특별시",
      "district": "영등포구"
    },
    {
      "id": 19,
      "name": "아티제 여의도롯데캐슬점",
      "address": "서울특별시 영등포구 의사당대로 127 롯데캐슬엠파이어 1층 1-101호",
      "contact": "027822155",
      "lat": "37.520206",
      "lng": "126.926365",
      "region": "서울특별시",
      "district": "영등포구"
    },
    {
      "id": 20,
      "name": "아티제 분당정자점",
      "address": "경기도 성남시 분당구 정자일로 100 미켈란쉐르빌 D동 102, 202호",
      "contact": "0317260023",
      "lat": "37.359454",
      "lng": "127.106366",
      "region": "경기도",
      "district": "성남시"
    },
    {
      "id": 21,
      "name": "아티제 청담제일점",
      "address": "서울특별시 강남구 영동대로 726 경일빌딩",
      "contact": "025412340",
      "lat": "37.522597",
      "lng": "127.056198",
      "region": "서울특별시",
      "district": "강남구"
    },
    {
      "id": 22,
      "name": "아티제 종로그랑서울2점",
      "address": "서울특별시 종로구 종로 33 그랑서울 지하1층",
      "contact": "0221587571",
      "lat": "37.57096",
      "lng": "126.9814392",
      "region": "서울특별시",
      "district": "종로구"
    },
    {
      "id": 23,
      "name": "아티제 세종문화회관점",
      "address": "서울특별시 종로구 세종대로 175 세종문화회관 1층",
      "contact": "027342155",
      "lat": "37.5725254",
      "lng": "126.9756429",
      "region": "서울특별시",
      "district": "종로구"
    },
    {
      "id": 24,
      "name": "아티제 상일GEC점",
      "address": "서울특별시 강동구 상일로6길 26 글로벌엔지니어링센터 지하1층",
      "contact": "024810017",
      "lat": "37.5487917",
      "lng": "127.1752267",
      "region": "서울특별시",
      "district": "강동구"
    },
    {
      "id": 25,
      "name": "아티제 일원점",
      "address": "서울특별시 강남구 일원로 81 삼성서울병원 본관 지하1층",
      "contact": "024453446",
      "lat": "37.488943",
      "lng": "127.087642",
      "region": "서울특별시",
      "district": "강남구"
    },
    {
      "id": 26,
      "name": "아티제 고양스타필드점",
      "address": "경기도 고양시 덕양구 고양대로 1955 스타필드고양점 1층",
      "contact": "03151731472",
      "lat": "37.646874",
      "lng": "126.894854",
      "region": "경기도",
      "district": "고양시"
    },
    {
      "id": 27,
      "name": "아티제 광화문S타워점",
      "address": "서울특별시 종로구 새문안로 82 1층",
      "contact": "027332155",
      "lat": "37.56973",
      "lng": "126.973975",
      "region": "서울특별시",
      "district": "종로구"
    },
    {
      "id": 28,
      "name": "아티제 상암드림타워점",
      "address": "서울특별시 마포구 월드컵북로 56길 19 드림타워",
      "contact": "0262264000",
      "lat": "37.582432",
      "lng": "126.888559",
      "region": "서울특별시",
      "district": "마포구"
    },
    {
      "id": 29,
      "name": "아티제 동부이촌본점",
      "address": "서울특별시 용산구 이촌동 300-19 1, 2층",
      "contact": "027972155",
      "lat": "37.5185139",
      "lng": "126.9776205",
      "region": "서울특별시",
      "district": "용산구"
    },
    {
      "id": 30,
      "name": "아티제 삼성타운점",
      "address": "서울특별시 서초구 서초대로74길 11 지하1층",
      "contact": "025980017",
      "lat": "37.496609",
      "lng": "127.026902",
      "region": "서울특별시",
      "district": "서초구"
    },
    {
      "id": 31,
      "name": "아티제 일원로비점",
      "address": "서울특별시 강남구 일원로 81 삼성서울병원 본관 1층",
      "contact": "0234113446",
      "lat": "37.488943",
      "lng": "127.087642",
      "region": "서울특별시",
      "district": "강남구"
    },
    {
      "id": 32,
      "name": "아티제 강남유니온센터점",
      "address": "서울특별시 강남구 역삼동 837-11 유니온센터 1층",
      "contact": "0234532155",
      "lat": "37.4909831",
      "lng": "127.0314788",
      "region": "서울특별시",
      "district": "강남구"
    },
    {
      "id": 33,
      "name": "아티제 외대점",
      "address": "서울특별시 동대문구 이문로 107 한국외국어대학교 사이버대학",
      "contact": "029592411",
      "lat": "37.597617",
      "lng": "127.058219",
      "region": "서울특별시",
      "district": "동대문구"
    },
    {
      "id": 34,
      "name": "아티제 이대서울병원점",
      "address": "서울특별시 강서구 공항대로 260 이대서울병원 지하1층",
      "contact": "0269532155",
      "lat": "37.557827",
      "lng": "126.836506",
      "region": "서울특별시",
      "district": "강서구"
    },
    {
      "id": 35,
      "name": "아티제 삼성타운2점",
      "address": "서울특별시 서초구 서초대로74길 11 지하1층",
      "contact": "025982155",
      "lat": "37.496609",
      "lng": "127.026902",
      "region": "서울특별시",
      "district": "서초구"
    },
    {
      "id": 36,
      "name": "아티제 뱅뱅사거리점",
      "address": "서울특별시 강남구 강남대로 298 푸르덴셜타워 1층",
      "contact": "025672155",
      "lat": "37.489969",
      "lng": "127.032129",
      "region": "서울특별시",
      "district": "강남구"
    },
    {
      "id": 37,
      "name": "아티제 잠실타워730점",
      "address": "서울특별시 송파구 송파대로 570 tower730빌딩 지하1층",
      "contact": "024152155",
      "lat": "37.515697",
      "lng": "127.098957",
      "region": "서울특별시",
      "district": "송파구"
    },
    {
      "id": 38,
      "name": "아티제 타워팰리스점",
      "address": "서울특별시 강남구 언주로30길 26 반트스포츠센타 1층",
      "contact": "025712155",
      "lat": "37.4878101",
      "lng": "127.0533815",
      "region": "서울특별시",
      "district": "강남구"
    },
    {
      "id": 39,
      "name": "아티제 잠실롯데월드몰점",
      "address": "서울특별시 송파구 올림픽로 300 롯데월드몰 내 4층",
      "contact": "0232134481",
      "lat": "37.5135423",
      "lng": "127.1049152",
      "region": "서울특별시",
      "district": "송파구"
    },
    {
      "id": 40,
      "name": "아티제 건국대병원점",
      "address": "서울특별시 광진구 능동로 120-1 건국대학교병원 1층",
      "contact": "0220307951",
      "lat": "37.5403764",
      "lng": "127.0718276",
      "region": "서울특별시",
      "district": "광진구"
    },
    {
      "id": 41,
      "name": "아티제 신용산역점",
      "address": "서울특별시 용산구 한강대로 95 래미안용산 104호",
      "contact": "027492156",
      "lat": "37.528797",
      "lng": "126.967181",
      "region": "서울특별시",
      "district": "용산구"
    },
    {
      "id": 42,
      "name": "아티제 아브뉴프랑광교점",
      "address": "경기도 수원시 영통구 이의동 1332 C1BL",
      "contact": "0312120073",
      "lat": "37.29058",
      "lng": "127.050383",
      "region": "경기도",
      "district": "수원시"
    },
    {
      "id": 43,
      "name": "아티제 서초역점",
      "address": "서울특별시 서초구 반포대로27길 16 서초동 파크빌딩",
      "contact": "0234732155",
      "lat": "37.49019",
      "lng": "127.007445",
      "region": "서울특별시",
      "district": "서초구"
    },
    {
      "id": 44,
      "name": "아티제 용산아이파크몰점",
      "address": "서울특별시 용산구 한강대로23길 55 용산역민자역사 7층 998호",
      "contact": "0220123801",
      "lat": "37.528447",
      "lng": "126.966505",
      "region": "서울특별시",
      "district": "용산구"
    },
    {
      "id": 45,
      "name": "아티제 센터원점",
      "address": "서울특별시 중구 을지로5길 26 센터원빌딩 1층",
      "contact": "0260308930",
      "lat": "37.567358",
      "lng": "126.985136",
      "region": "서울특별시",
      "district": "중구"
    },
    {
      "id": 46,
      "name": "아티제 이대목동점",
      "address": "서울특별시 양천구 안양천로 1071 이대목동병원 본관 1층",
      "contact": "0226480024",
      "lat": "37.536379",
      "lng": "126.886432",
      "region": "서울특별시",
      "district": "양천구"
    },
    {
      "id": 47,
      "name": "아티제 대구삼성캠퍼스점",
      "address": "대구광역시 북구 호암로 51 1층",
      "contact": "0533532155",
      "lat": "35.883193",
      "lng": "128.596137",
      "region": "대구광역시",
      "district": "북구"
    },
    {
      "id": 48,
      "name": "아티제 대신파이낸스센터점",
      "address": "서울특별시 중구 삼일대로 343 대신파이낸스센터 1층",
      "contact": "0237892155",
      "lat": "37.565253",
      "lng": "126.987319",
      "region": "서울특별시",
      "district": "중구"
    },
    {
      "id": 49,
      "name": "아티제 송파아이파크점",
      "address": "서울특별시 송파구 법원로 55 B촌 1층 103호",
      "contact": "0234022155",
      "lat": "37.479885",
      "lng": "127.1217526",
      "region": "서울특별시",
      "district": "송파구"
    },
    {
      "id": 50,
      "name": "아티제 대치은마점",
      "address": "서울특별시 강남구 도곡로 510 성창빌딩 1층",
      "contact": "025522141",
      "lat": "37.498981",
      "lng": "127.062167",
      "region": "서울특별시",
      "district": "강남구"
    },
    {
      "id": 51,
      "name": "아티제 올림픽공원점",
      "address": "서울특별시 송파구 방이동 45-2 금복빌딩 101호",
      "contact": "024225131",
      "lat": "37.5165458",
      "lng": "127.1142629",
      "region": "서울특별시",
      "district": "송파구"
    },
    {
      "id": 52,
      "name": "아티제 사당파스텔시티점",
      "address": "서울특별시 서초구 방배동 444-3 SK리더스뷰",
      "contact": "0234722155",
      "lat": "37.477655",
      "lng": "126.982223",
      "region": "서울특별시",
      "district": "서초구"
    },
    {
      "id": 53,
      "name": "아티제 잠원파스텔점",
      "address": "서울특별시 서초구 신반포로33길 23 파스텔골프클럽 1층",
      "contact": "025920018",
      "lat": "37.50998",
      "lng": "127.009766",
      "region": "서울특별시",
      "district": "서초구"
    },
    {
      "id": 54,
      "name": "아티제 잠원2점",
      "address": "서울특별시 서초구 잠원로 94 한신메디피아 1층",
      "contact": "025323535",
      "lat": "37.5125987",
      "lng": "127.0066882",
      "region": "서울특별시",
      "district": "서초구"
    },
    {
      "id": 55,
      "name": "아티제 아브뉴프랑판교점",
      "address": "경기도 성남시 분당구 동판교로177번길 25 아브뉴프랑 1, 2층",
      "contact": "0317042155",
      "lat": "37.397877",
      "lng": "127.113337",
      "region": "경기도",
      "district": "성남시"
    },
    {
      "id": 56,
      "name": "아티제 신촌역점",
      "address": "서울특별시 서대문구 신촌로 99 엘리트빌딩 1층, 지하1층",
      "contact": "023932155",
      "lat": "37.5556357",
      "lng": "126.937169",
      "region": "서울특별시",
      "district": "서대문구"
    }
  ]
}
