{
  "meta": {
    "brand_id": "3ff36838a25043da883cd106bbec15a1",
    "brand_name": "이디야커피",
    "totalCount": 2471,
    "extractedAt": "2026-03-17T09:21:00.770Z",
    "sourceUrl": "https://www.ediya.com/contents/find_store.html"
  },
  "stores": [
    {
      "id": 1,
      "name": "이디야커피 강동고덕교차로점",
      "address": "서울 강동구 고덕로 421 (강일동, 대한연세요양원)",
      "contact": "02-428-1000",
      "lat": "37.5574052401914",
      "lng": "127.172575598882",
      "region": "서울",
      "district": "강동구"
    },
    {
      "id": 2,
      "name": "이디야커피 강동구청점",
      "address": "서울 강동구 성내로6길 20 (성내동, 청일 베르네)",
      "contact": "02-482-9646",
      "lat": "37.5289120",
      "lng": "127.1223551",
      "region": "서울",
      "district": "강동구"
    },
    {
      "id": 3,
      "name": "이디야커피 강동성내점",
      "address": "서울 강동구 풍성로 162 (성내동)",
      "contact": "02-474-7258",
      "lat": "37.5305040538801",
      "lng": "127.129853009462",
      "region": "서울",
      "district": "강동구"
    },
    {
      "id": 4,
      "name": "이디야커피 강동역점",
      "address": "서울 강동구 천호대로 1065 (천호동, 강동상떼빌)",
      "contact": "02-471-3509",
      "lat": "37.5370233",
      "lng": "127.1304648",
      "region": "서울",
      "district": "강동구"
    },
    {
      "id": 5,
      "name": "이디야커피 강일점",
      "address": "서울 강동구 아리수로93길 19 (강일동, 임페리얼타워)",
      "contact": "02-442-4352",
      "lat": "37.5653807",
      "lng": "127.1741180",
      "region": "서울",
      "district": "강동구"
    },
    {
      "id": 6,
      "name": "이디야커피 고덕그라시움후문점",
      "address": "서울 강동구 동남로82길 121 (고덕동)",
      "contact": "02-427-4539",
      "lat": "37.56039666265223",
      "lng": "127.16370018873648",
      "region": "서울",
      "district": "강동구"
    },
    {
      "id": 7,
      "name": "이디야커피 굽은다리역점",
      "address": "서울 강동구 양재대로 1543 (천호동)",
      "contact": "02-473-9632",
      "lat": "37.5435097",
      "lng": "127.1418778",
      "region": "서울",
      "district": "강동구"
    },
    {
      "id": 8,
      "name": "이디야커피 길동사거리점",
      "address": "서울 강동구 천호대로 1132 (성내동)",
      "contact": "02-470-2427",
      "lat": "37.5340784",
      "lng": "127.1369884",
      "region": "서울",
      "district": "강동구"
    },
    {
      "id": 9,
      "name": "이디야커피 길동역점",
      "address": "서울 강동구 양재대로 1471 (길동)",
      "contact": "02-488-5675",
      "lat": "37.5373655",
      "lng": "127.1392909",
      "region": "서울",
      "district": "강동구"
    },
    {
      "id": 10,
      "name": "이디야커피 둔촌오륜포레온점",
      "address": "서울 강동구 양재대로 1300 (둔촌동, 올림픽파크포레온)",
      "contact": "02-477-2818",
      "lat": "37.52029359715243",
      "lng": "127.13875890999955",
      "region": "서울",
      "district": "강동구"
    },
    {
      "id": 11,
      "name": "이디야커피 둔촌점",
      "address": "서울 강동구 양재대로 1377 (성내동)",
      "contact": "02-473-2025",
      "lat": "37.5292243",
      "lng": "127.1362754",
      "region": "서울",
      "district": "강동구"
    },
    {
      "id": 12,
      "name": "이디야커피 명일역점",
      "address": "서울 강동구 구천면로 424 (명일동, 명일메가타운)",
      "contact": "02-442-7954",
      "lat": "37.550410338798194",
      "lng": "127.14556505383719",
      "region": "서울",
      "district": "강동구"
    },
    {
      "id": 13,
      "name": "이디야커피 명일중앙점",
      "address": "서울 강동구 상암로 210 (명일동, 명일현대종합상가)",
      "contact": "02-428-1025",
      "lat": "37.5462992589271",
      "lng": "127.145789262651",
      "region": "서울",
      "district": "강동구"
    },
    {
      "id": 14,
      "name": "이디야커피 보훈병원점",
      "address": "서울 강동구 명일로 110 (둔촌동, 둔촌동암펠로스타워)",
      "contact": "02-477-5227",
      "lat": "37.5288574",
      "lng": "127.1432144",
      "region": "서울",
      "district": "강동구"
    },
    {
      "id": 15,
      "name": "이디야커피 암사상암로점",
      "address": "서울 강동구 상암로 55 (암사동, 정인빌딩)",
      "contact": "02-6014-7337",
      "lat": "37.5494244486092",
      "lng": "127.129490429887",
      "region": "서울",
      "district": "강동구"
    },
    {
      "id": 16,
      "name": "이디야커피 암사중앙점",
      "address": "서울 강동구 암사길 50 (암사동, 제이빌더스)",
      "contact": "02-428-2426",
      "lat": "37.5513635720856",
      "lng": "127.134728442286",
      "region": "서울",
      "district": "강동구"
    },
    {
      "id": 17,
      "name": "이디야커피 올림픽북문점",
      "address": "서울 강동구 성안로 7 (성내동)",
      "contact": "02-487-4690",
      "lat": "37.5245538",
      "lng": "127.1289158",
      "region": "서울",
      "district": "강동구"
    },
    {
      "id": 18,
      "name": "이디야커피 천호중앙점",
      "address": "서울 강동구 올림픽로 660 (천호동, 천호엘크루주상복합)",
      "contact": "02-488-8488",
      "lat": "37.54016837687974",
      "lng": "127.12456936024019",
      "region": "서울",
      "district": "강동구"
    },
    {
      "id": 19,
      "name": "이디야커피 천호중흥s클래스점",
      "address": "서울 강동구 올림픽로78길 60 (천호동, 강동 밀레니얼 중흥S-클래스)",
      "contact": "02-583-0303",
      "lat": "37.5409734434557",
      "lng": "127.128499316444",
      "region": "서울",
      "district": "강동구"
    },
    {
      "id": 20,
      "name": "이디야커피 천호초교사거리점",
      "address": "서울 강동구 구천면로 304 (천호동, 일주빌딩)",
      "contact": "02-474-0961",
      "lat": "37.5467270340876",
      "lng": "127.134809493652",
      "region": "서울",
      "district": "강동구"
    },
    {
      "id": 21,
      "name": "이디야커피 천호현대점",
      "address": "서울 강동구 올림픽로 665 (천호동)",
      "contact": "02-728-1546",
      "lat": "37.5409236",
      "lng": "127.1238914",
      "region": "서울",
      "district": "강동구"
    },
    {
      "id": 22,
      "name": "이디야커피 대림대점",
      "address": "경기 안양시 동안구 임곡로 29 (비산동, 대림대학교)",
      "contact": null,
      "lat": "37.40435406064259",
      "lng": "126.93076428102577",
      "region": "경기",
      "district": "안양시"
    },
    {
      "id": 23,
      "name": "이디야커피 범계사거리점",
      "address": "경기 안양시 동안구 시민대로 137 (호계동)",
      "contact": "031-451-1219",
      "lat": "37.3885294",
      "lng": "126.9470182",
      "region": "경기",
      "district": "안양시"
    },
    {
      "id": 24,
      "name": "이디야커피 범계점",
      "address": "경기 안양시 동안구 시민대로 202 (호계동)",
      "contact": "031-381-3070",
      "lat": "37.3914721",
      "lng": "126.9534525",
      "region": "경기",
      "district": "안양시"
    },
    {
      "id": 25,
      "name": "이디야커피 성결대점",
      "address": "경기 안양시 만안구 냉천로 2 (안양동)",
      "contact": "031-465-2621",
      "lat": "37.38213431463692",
      "lng": "126.92985318758873",
      "region": "경기",
      "district": "안양시"
    },
    {
      "id": 26,
      "name": "이디야커피 안양1번가점",
      "address": "경기 안양시 만안구 만안로 207 (안양동)",
      "contact": "031-442-6967",
      "lat": "37.3992838205599",
      "lng": "126.92385148815828",
      "region": "경기",
      "district": "안양시"
    },
    {
      "id": 27,
      "name": "이디야커피 안양SKV1점",
      "address": "경기 안양시 동안구 엘에스로116번길 25-32 (호계동, 안양 SK V1 center)",
      "contact": "031-990-6633",
      "lat": "37.3740582348117",
      "lng": "126.94878843702422",
      "region": "경기",
      "district": "안양시"
    },
    {
      "id": 28,
      "name": "이디야커피 안양관양점",
      "address": "경기 안양시 동안구 관악대로388번길 3 (관양동, 고양빌딩)",
      "contact": "031-424-3454",
      "lat": "37.40412175553055",
      "lng": "126.96632533947982",
      "region": "경기",
      "district": "안양시"
    },
    {
      "id": 29,
      "name": "이디야커피 안양대점",
      "address": "경기 안양시 만안구 안양로257번길 23 (안양동)",
      "contact": "031-444-6467",
      "lat": "37.395091135511485",
      "lng": "126.92279981766045",
      "region": "경기",
      "district": "안양시"
    },
    {
      "id": 30,
      "name": "이디야커피 안양덕천점",
      "address": "경기 안양시 만안구 덕천로48번길 48 (안양동)",
      "contact": "031-469-2355",
      "lat": "37.38591440452331",
      "lng": "126.93847660369387",
      "region": "경기",
      "district": "안양시"
    },
    {
      "id": 31,
      "name": "이디야커피 안양비산동점",
      "address": "경기 안양시 동안구 관악대로 173 (비산동)",
      "contact": "031-388-5505",
      "lat": "37.39908299755952",
      "lng": "126.9432826371052",
      "region": "경기",
      "district": "안양시"
    },
    {
      "id": 32,
      "name": "이디야커피 안양비산사거리점",
      "address": "경기 안양시 동안구 경수대로883번길 96 (비산동)",
      "contact": "031-441-8782",
      "lat": "37.397859530293104",
      "lng": "126.93396634311429",
      "region": "경기",
      "district": "안양시"
    },
    {
      "id": 33,
      "name": "이디야커피 안양씨엘포레점",
      "address": "경기 안양시 만안구 소곡로 78 (안양동, 안양씨엘포레자이)",
      "contact": null,
      "lat": "37.388075927704",
      "lng": "126.923173440837",
      "region": "경기",
      "district": "안양시"
    },
    {
      "id": 34,
      "name": "이디야커피 안양예술공원점",
      "address": "경기 안양시 만안구 예술공원로 148 (안양동)",
      "contact": "031-474-4745",
      "lat": "37.41860970394622",
      "lng": "126.92232663833059",
      "region": "경기",
      "district": "안양시"
    },
    {
      "id": 35,
      "name": "이디야커피 안양점",
      "address": "경기 안양시 만안구 안양로 316 (안양동, VON PLAZA)",
      "contact": "031-441-1266",
      "lat": "37.40048227966724",
      "lng": "126.9205806660921",
      "region": "경기",
      "district": "안양시"
    },
    {
      "id": 36,
      "name": "이디야커피 안양종합운동장점",
      "address": "경기 안양시 동안구 평촌대로 364 (비산동)",
      "contact": "031-383-1479",
      "lat": "37.403189158833",
      "lng": "126.949928665851",
      "region": "경기",
      "district": "안양시"
    },
    {
      "id": 37,
      "name": "이디야커피 안양중앙점",
      "address": "경기 안양시 만안구 안양로 283 (안양동, 안양빌딩)",
      "contact": "031-444-0627",
      "lat": "37.39759102856008",
      "lng": "126.92212528711417",
      "region": "경기",
      "district": "안양시"
    },
    {
      "id": 38,
      "name": "이디야커피 인덕원역점",
      "address": "경기 안양시 동안구 흥안대로 517 (관양동)",
      "contact": "031-424-5505",
      "lat": "37.3999883",
      "lng": "126.9763606",
      "region": "경기",
      "district": "안양시"
    },
    {
      "id": 39,
      "name": "이디야커피 평촌갈산공원점",
      "address": "경기 안양시 동안구 갈산로 53 (호계동)",
      "contact": "031-429-1886",
      "lat": "37.3767278185582",
      "lng": "126.960621247294",
      "region": "경기",
      "district": "안양시"
    },
    {
      "id": 40,
      "name": "이디야커피 평촌더샵센트럴시티점",
      "address": "경기 안양시 동안구 부림로 188 (관양동, 청용빌딩)",
      "contact": "031-424-2457",
      "lat": "37.3996757622028",
      "lng": "126.961611122262",
      "region": "경기",
      "district": "안양시"
    },
    {
      "id": 41,
      "name": "이디야커피 평촌샛별점",
      "address": "경기 안양시 동안구 동안로 194 (비산동, 한양스포츠센타)",
      "contact": "031-382-5288",
      "lat": "37.3958190",
      "lng": "126.9491281",
      "region": "경기",
      "district": "안양시"
    },
    {
      "id": 42,
      "name": "이디야커피 평촌스마트스퀘어점",
      "address": "경기 안양시 동안구 시민대로327번길 6 (관양동, W에이스타워)",
      "contact": "031-421-0907",
      "lat": "37.3966654",
      "lng": "126.9670075",
      "region": "경기",
      "district": "안양시"
    },
    {
      "id": 43,
      "name": "이디야커피 평촌점",
      "address": "경기 안양시 동안구 관평로182번길 54 (관양동)",
      "contact": "031-388-9004",
      "lat": "37.3938614",
      "lng": "126.9632766",
      "region": "경기",
      "district": "안양시"
    },
    {
      "id": 44,
      "name": "이디야커피 평촌학원가점",
      "address": "경기 안양시 동안구 평촌대로 133 (호계동)",
      "contact": "070-7776-8883",
      "lat": "37.3838505",
      "lng": "126.9592114",
      "region": "경기",
      "district": "안양시"
    },
    {
      "id": 45,
      "name": "이디야커피 IFC몰점",
      "address": "서울 영등포구 국제금융로 10 (여의도동, 서울 국제금융 센터)",
      "contact": null,
      "lat": "37.5251775245928",
      "lng": "126.924876706923",
      "region": "서울",
      "district": "영등포구"
    },
    {
      "id": 46,
      "name": "이디야커피 국회대로점",
      "address": "서울 영등포구 국회대로 638 (영등포동7가)",
      "contact": "02-2135-7565",
      "lat": "37.5253762544746",
      "lng": "126.904613154249",
      "region": "서울",
      "district": "영등포구"
    },
    {
      "id": 47,
      "name": "이디야커피 국회의사당역점",
      "address": "서울 영등포구 의사당대로 22 (여의도동, 이룸센터)",
      "contact": "02-783-6840",
      "lat": "37.526869878743",
      "lng": "126.917843631999",
      "region": "서울",
      "district": "영등포구"
    },
    {
      "id": 48,
      "name": "이디야커피 남부고용센터점",
      "address": "서울 영등포구 양산로 71 (양평동3가)",
      "contact": null,
      "lat": "37.525029038125",
      "lng": "126.891103928762",
      "region": "서울",
      "district": "영등포구"
    },
    {
      "id": 49,
      "name": "이디야커피 당산버드나루점",
      "address": "서울 영등포구 버드나루로 87 (영등포동7가)",
      "contact": "02-2678-7740",
      "lat": "37.5259676",
      "lng": "126.9087214",
      "region": "서울",
      "district": "영등포구"
    },
    {
      "id": 50,
      "name": "이디야커피 당산역점",
      "address": "서울 영등포구 당산로 222 (당산동5가, 당산디오빌)",
      "contact": "02-2633-4343",
      "lat": "37.5332448",
      "lng": "126.9022911",
      "region": "서울",
      "district": "영등포구"
    },
    {
      "id": 51,
      "name": "이디야커피 당산중앙점",
      "address": "서울 영등포구 당산로 159 (당산동4가)",
      "contact": "02-2677-7073",
      "lat": "37.5288596",
      "lng": "126.8975877",
      "region": "서울",
      "district": "영등포구"
    },
    {
      "id": 52,
      "name": "이디야커피 대림1동점",
      "address": "서울 영등포구 도림로 198 (대림동)",
      "contact": "02-823-8842",
      "lat": "37.49647205091008",
      "lng": "126.9028549432193",
      "region": "서울",
      "district": "영등포구"
    },
    {
      "id": 53,
      "name": "이디야커피 대림역점",
      "address": "서울 영등포구 도림로31길 2 (대림동)",
      "contact": "02-831-8372",
      "lat": "37.4925422",
      "lng": "126.8959283",
      "region": "서울",
      "district": "영등포구"
    },
    {
      "id": 54,
      "name": "이디야커피 도림점",
      "address": "서울 영등포구 도신로15길 40 (도림동, 도림빌딩)",
      "contact": "02-832-0300",
      "lat": "37.5086366",
      "lng": "126.8965717",
      "region": "서울",
      "district": "영등포구"
    },
    {
      "id": 55,
      "name": "이디야커피 라이프점",
      "address": "서울 영등포구 63로 40 (여의도동, 라이프오피스텔)",
      "contact": "02-761-7284",
      "lat": "37.5196351977246",
      "lng": "126.939136417577",
      "region": "서울",
      "district": "영등포구"
    },
    {
      "id": 56,
      "name": "이디야커피 문래에이스점",
      "address": "서울 영등포구 선유로13길 25 (문래동6가, 에이스하이테크시티2)",
      "contact": null,
      "lat": "37.5189822790873",
      "lng": "126.886278723171",
      "region": "서울",
      "district": "영등포구"
    },
    {
      "id": 57,
      "name": "이디야커피 보라매역점",
      "address": "서울 영등포구 여의대방로 141 (신길동)",
      "contact": "02-832-8595",
      "lat": "37.4996874",
      "lng": "126.9199717",
      "region": "서울",
      "district": "영등포구"
    },
    {
      "id": 58,
      "name": "이디야커피 서여의도점",
      "address": "서울 영등포구 국회대로72길 4 (여의도동, 아이비피아빌딩)",
      "contact": "02-780-1886",
      "lat": "37.5303335810073",
      "lng": "126.919916432847",
      "region": "서울",
      "district": "영등포구"
    },
    {
      "id": 59,
      "name": "이디야커피 선유도역점",
      "address": "서울 영등포구 양평로 126 (양평동5가)",
      "contact": "02-2632-1544",
      "lat": "37.5382385",
      "lng": "126.8939337",
      "region": "서울",
      "district": "영등포구"
    },
    {
      "id": 60,
      "name": "이디야커피 신길성애병원점",
      "address": "서울 영등포구 여의대방로53길 27 (신길동)",
      "contact": "010-4739-7321",
      "lat": "37.511854826249035",
      "lng": "126.92152601914932",
      "region": "서울",
      "district": "영등포구"
    },
    {
      "id": 61,
      "name": "이디야커피 신길썬프라자점",
      "address": "서울 영등포구 신길로 42 (신길동)",
      "contact": "02-835-2205",
      "lat": "37.4964817",
      "lng": "126.9086461",
      "region": "서울",
      "district": "영등포구"
    },
    {
      "id": 62,
      "name": "이디야커피 신길아이파크점",
      "address": "서울 영등포구 도림로 280 (신길동)",
      "contact": "02-833-4869",
      "lat": "37.5029400",
      "lng": "126.9042301",
      "region": "서울",
      "district": "영등포구"
    },
    {
      "id": 63,
      "name": "이디야커피 신길역점",
      "address": "서울 영등포구 영등포로 353 (신길동)",
      "contact": "02-832-5988",
      "lat": "37.5150723",
      "lng": "126.9180962",
      "region": "서울",
      "district": "영등포구"
    },
    {
      "id": 64,
      "name": "이디야커피 양평동2가점",
      "address": "서울 영등포구 선유서로25길 19 (양평동2가, 오목교투웨니퍼스트)",
      "contact": null,
      "lat": "37.524529915593526",
      "lng": "126.88358139719749",
      "region": "서울",
      "district": "영등포구"
    },
    {
      "id": 65,
      "name": "이디야커피 여의나루역점",
      "address": "서울 영등포구 여의나루로 113 (여의도동)",
      "contact": "02-782-6090",
      "lat": "37.5260558187275",
      "lng": "126.930769729764",
      "region": "서울",
      "district": "영등포구"
    },
    {
      "id": 66,
      "name": "이디야커피 여의도농협재단점",
      "address": "서울 영등포구 국제금융로8길 2 (여의도동, 농협재단빌딩)",
      "contact": "02-768-5555",
      "lat": "37.5220163808659",
      "lng": "126.930048684376",
      "region": "서울",
      "district": "영등포구"
    },
    {
      "id": 67,
      "name": "이디야커피 여의도역점",
      "address": "서울 영등포구 의사당대로 108 (여의도동, 아일렉스)",
      "contact": "02-786-6622",
      "lat": "37.5210144173791",
      "lng": "126.923991634451",
      "region": "서울",
      "district": "영등포구"
    },
    {
      "id": 68,
      "name": "이디야커피 영등포knk점",
      "address": "서울 영등포구 영신로 220 (영등포동8가, KnK디지털타워)",
      "contact": "02-2635-5949",
      "lat": "37.52667482397141",
      "lng": "126.90422425738349",
      "region": "서울",
      "district": "영등포구"
    },
    {
      "id": 69,
      "name": "이디야커피 영등포그랜드점",
      "address": "서울 영등포구 양산로9길 15 (양평동3가, 그랜드타워)",
      "contact": "02-2633-3386",
      "lat": "37.526790955173",
      "lng": "126.888600855285",
      "region": "서울",
      "district": "영등포구"
    },
    {
      "id": 70,
      "name": "이디야커피 영등포당산엘르점",
      "address": "서울 영등포구 영등포로 141-1 (당산동1가)",
      "contact": "02-2635-1005",
      "lat": "37.5213280608143",
      "lng": "126.89731742963",
      "region": "서울",
      "district": "영등포구"
    },
    {
      "id": 71,
      "name": "이디야커피 영등포시장점",
      "address": "서울 영등포구 영등포로35길 19 (영등포동6가)",
      "contact": "02-2632-9759",
      "lat": "37.5217780",
      "lng": "126.9041371",
      "region": "서울",
      "district": "영등포구"
    },
    {
      "id": 72,
      "name": "이디야커피 영등포아크로타워점",
      "address": "서울 영등포구 국회대로54길 10 (영등포동7가, 아크로타워 스퀘어)",
      "contact": "02-2678-0411",
      "lat": "37.5238292",
      "lng": "126.9074456",
      "region": "서울",
      "district": "영등포구"
    },
    {
      "id": 73,
      "name": "이디야커피 영등포에이스점",
      "address": "서울 영등포구 경인로 775 (문래동3가)",
      "contact": "02-2638-0777",
      "lat": "37.5147686",
      "lng": "126.8991302",
      "region": "서울",
      "district": "영등포구"
    },
    {
      "id": 74,
      "name": "이디야커피 영등포점",
      "address": "서울 영등포구 영중로 16-1 (영등포동3가)",
      "contact": "02-3667-3661",
      "lat": "37.51787131047062",
      "lng": "126.90613304012865",
      "region": "서울",
      "district": "영등포구"
    },
    {
      "id": 75,
      "name": "이디야커피 영등포코레일점",
      "address": "서울 영등포구 경인로 846 (영등포동, 영등포 민자역사)",
      "contact": "02-2636-5606",
      "lat": "37.5156680341198",
      "lng": "126.907665995469",
      "region": "서울",
      "district": "영등포구"
    },
    {
      "id": 76,
      "name": "이디야커피 영등포홈플러스점",
      "address": "서울 영등포구 당산로 42 (문래동3가, 홈플러스)",
      "contact": null,
      "lat": "37.50324896699568",
      "lng": "127.02455282046348",
      "region": "서울",
      "district": "영등포구"
    },
    {
      "id": 77,
      "name": "이디야커피 한국수출입은행점",
      "address": "서울 영등포구 은행로 38 (여의도동, 한국수출입은행빌딩)",
      "contact": "02-761-1763",
      "lat": "37.5286372332436",
      "lng": "126.923399003703",
      "region": "서울",
      "district": "영등포구"
    },
    {
      "id": 78,
      "name": "이디야커피 경희궁점",
      "address": "서울 종로구 경희궁1길 16 (신문로2가)",
      "contact": null,
      "lat": "37.5716953499755",
      "lng": "126.970696336246",
      "region": "서울",
      "district": "종로구"
    },
    {
      "id": 79,
      "name": "이디야커피 광화문스페이스본점",
      "address": "서울 종로구 사직로8길 4 (사직동, 광화문 스페이스본)",
      "contact": null,
      "lat": "37.5746716527447",
      "lng": "126.968429762772",
      "region": "서울",
      "district": "종로구"
    },
    {
      "id": 80,
      "name": "이디야커피 광화문점",
      "address": "서울 종로구 세종대로23길 15 (도렴동)",
      "contact": null,
      "lat": "37.57150699708368",
      "lng": "126.97565344843615",
      "region": "서울",
      "district": "종로구"
    },
    {
      "id": 81,
      "name": "이디야커피 낙원동점",
      "address": "서울 종로구 낙원동",
      "contact": "02-766-5687",
      "lat": "37.5725",
      "lng": "126.9885",
      "region": "서울",
      "district": "종로구"
    },
    {
      "id": 82,
      "name": "이디야커피 대학로점",
      "address": "서울 종로구 대학로10길 17 (동숭동)",
      "contact": "02-762-8855",
      "lat": "37.5820457",
      "lng": "127.0031897",
      "region": "서울",
      "district": "종로구"
    },
    {
      "id": 83,
      "name": "이디야커피 독립문역점",
      "address": "서울 종로구 통일로 266 (무악동)",
      "contact": "02-723-0967",
      "lat": "37.5758652",
      "lng": "126.9567818",
      "region": "서울",
      "district": "종로구"
    },
    {
      "id": 84,
      "name": "이디야커피 동대문역점",
      "address": "서울 종로구 율곡로 286 (종로6가, 야드인빌딩)",
      "contact": "02-766-3389",
      "lat": "37.57184800694998",
      "lng": "127.00805518188871",
      "region": "서울",
      "district": "종로구"
    },
    {
      "id": 85,
      "name": "이디야커피 동대문종합시장점",
      "address": "서울 종로구 종로 266 (종로6가, 동대문종합시장)",
      "contact": "02-2264-7777",
      "lat": "37.57040284105116",
      "lng": "127.00759545055062",
      "region": "서울",
      "district": "종로구"
    },
    {
      "id": 86,
      "name": "이디야커피 배화여대점",
      "address": "서울 종로구 필운대로1길 35 (필운동)",
      "contact": null,
      "lat": "37.5778059",
      "lng": "126.9675369",
      "region": "서울",
      "district": "종로구"
    },
    {
      "id": 87,
      "name": "이디야커피 북촌마을점",
      "address": "서울 종로구 북촌로5길 39 (화동)",
      "contact": "02-720-2177",
      "lat": "37.5793376128612",
      "lng": "126.982701926649",
      "region": "서울",
      "district": "종로구"
    },
    {
      "id": 88,
      "name": "이디야커피 삼일빌딩점",
      "address": "서울 종로구 삼일대로15길 13 (관철동)",
      "contact": "02-725-9100",
      "lat": "37.5687840",
      "lng": "126.9867476",
      "region": "서울",
      "district": "종로구"
    },
    {
      "id": 89,
      "name": "이디야커피 상명대점",
      "address": "서울 종로구 홍지동",
      "contact": "02-391-3901",
      "lat": "37.6006",
      "lng": "126.9564",
      "region": "서울",
      "district": "종로구"
    },
    {
      "id": 90,
      "name": "이디야커피 성균관대점",
      "address": "서울 종로구 성균관로 8 (명륜2가)",
      "contact": "02-747-3618",
      "lat": "37.5836632",
      "lng": "126.9983512",
      "region": "서울",
      "district": "종로구"
    },
    {
      "id": 91,
      "name": "이디야커피 숭인점",
      "address": "서울 종로구 숭인동길 6 (숭인동)",
      "contact": "02-953-9955",
      "lat": "37.5752791",
      "lng": "127.0216199",
      "region": "서울",
      "district": "종로구"
    },
    {
      "id": 92,
      "name": "이디야커피 신설점",
      "address": "서울 종로구 난계로29길 30 (숭인동)",
      "contact": "02-2236-9625",
      "lat": "37.5742373886978",
      "lng": "127.021476077131",
      "region": "서울",
      "district": "종로구"
    },
    {
      "id": 93,
      "name": "이디야커피 안국역사점",
      "address": "서울 종로구 율곡로 지하 62 (안국동, 3호선 안국역)",
      "contact": null,
      "lat": "37.5767203705556",
      "lng": "126.985823042976",
      "region": "서울",
      "district": "종로구"
    },
    {
      "id": 94,
      "name": "이디야커피 종로3가점",
      "address": "서울 종로구 종로 126 (종로3가)",
      "contact": "02-2265-3690",
      "lat": "37.5701019",
      "lng": "126.9915483",
      "region": "서울",
      "district": "종로구"
    },
    {
      "id": 95,
      "name": "이디야커피 종로4가점",
      "address": "서울 종로구 김상옥로 1 (인의동)",
      "contact": "02-766-5009",
      "lat": "37.5735110",
      "lng": "126.9979024",
      "region": "서울",
      "district": "종로구"
    },
    {
      "id": 96,
      "name": "이디야커피 종로5가점",
      "address": "서울 종로구 대학로 33 (효제동)",
      "contact": "02-766-2643",
      "lat": "37.574075527144224",
      "lng": "127.00182933693897",
      "region": "서울",
      "district": "종로구"
    },
    {
      "id": 97,
      "name": "이디야커피 종로교차로점",
      "address": "서울 종로구 동호로 406-1 (종로5가)",
      "contact": "02-229-5884",
      "lat": "37.57062831400788",
      "lng": "127.00218468908556",
      "region": "서울",
      "district": "종로구"
    },
    {
      "id": 98,
      "name": "이디야커피 종로삼일대로점",
      "address": "서울 종로구 삼일대로 390-1 (관철동)",
      "contact": "02-2263-7771",
      "lat": "37.5694472",
      "lng": "126.9879828",
      "region": "서울",
      "district": "종로구"
    },
    {
      "id": 99,
      "name": "이디야커피 종로이화동점",
      "address": "서울 종로구 낙산성곽서1길 10 (이화동)",
      "contact": "02-766-6496",
      "lat": "37.5774862427837",
      "lng": "127.008183259977",
      "region": "서울",
      "district": "종로구"
    },
    {
      "id": 100,
      "name": "이디야커피 종로타워점",
      "address": "서울 종로구 종로 51 (종로2가, 종로타워)",
      "contact": "02-722-8413",
      "lat": "37.5707534",
      "lng": "126.9836385",
      "region": "서울",
      "district": "종로구"
    },
    {
      "id": 101,
      "name": "이디야커피 창덕궁점",
      "address": "서울 종로구 돈화문로 41-1 (묘동)",
      "contact": "02-745-5687",
      "lat": "37.57228044824555",
      "lng": "126.99142858488984",
      "region": "서울",
      "district": "종로구"
    },
    {
      "id": 102,
      "name": "이디야커피 창신동점",
      "address": "서울 종로구 종로 316-1 (창신동)",
      "contact": "02-745-2441",
      "lat": "37.5720118",
      "lng": "127.0129455",
      "region": "서울",
      "district": "종로구"
    },
    {
      "id": 103,
      "name": "이디야커피 창신중앙점",
      "address": "서울 종로구 지봉로 64 (숭인동)",
      "contact": "02-763-0789",
      "lat": "37.5757299",
      "lng": "127.0158409",
      "region": "서울",
      "district": "종로구"
    },
    {
      "id": 104,
      "name": "이디야커피 탑골공원점",
      "address": "서울 종로구 낙원동",
      "contact": "02-741-1220",
      "lat": "37.5725",
      "lng": "126.9885",
      "region": "서울",
      "district": "종로구"
    },
    {
      "id": 105,
      "name": "이디야커피 혜화동로터리점",
      "address": "서울 종로구 혜화로 3-1 (혜화동)",
      "contact": "02-764-8962",
      "lat": "37.5860563",
      "lng": "127.0005628",
      "region": "서울",
      "district": "종로구"
    },
    {
      "id": 106,
      "name": "이디야커피 혜화역점",
      "address": "서울 종로구 창경궁로 258-15 (명륜2가)",
      "contact": "02-742-0605",
      "lat": "37.5836167",
      "lng": "127.0006580",
      "region": "서울",
      "district": "종로구"
    },
    {
      "id": 107,
      "name": "이디야커피 고대개운점",
      "address": "서울 성북구 개운사길 30 (안암동5가)",
      "contact": "02-925-0168",
      "lat": "37.5876966",
      "lng": "127.0294700",
      "region": "서울",
      "district": "성북구"
    },
    {
      "id": 108,
      "name": "이디야커피 고대점",
      "address": "서울 성북구 고려대로24길 35 (안암동5가)",
      "contact": "02-924-7789",
      "lat": "37.5846644662531",
      "lng": "127.029558844368",
      "region": "서울",
      "district": "성북구"
    },
    {
      "id": 109,
      "name": "이디야커피 고대타이거프라자점",
      "address": "서울 성북구 안암로 145 (안암동5가, 고려대학교안암캠퍼스)",
      "contact": "02-2233-1233",
      "lat": "37.5887034223667",
      "lng": "127.031698331241",
      "region": "서울",
      "district": "성북구"
    },
    {
      "id": 110,
      "name": "이디야커피 길음뉴타운점",
      "address": "서울 성북구 길음로 74 (길음동, 길음 에스에이치빌)",
      "contact": "02-909-0279",
      "lat": "37.6100532",
      "lng": "127.0205837",
      "region": "서울",
      "district": "성북구"
    },
    {
      "id": 111,
      "name": "이디야커피 길음중앙점",
      "address": "서울 성북구 도봉로 11 (길음동, 삼주빌딩)",
      "contact": "02-945-7010",
      "lat": "37.6102502835964",
      "lng": "127.02987600544",
      "region": "서울",
      "district": "성북구"
    },
    {
      "id": 112,
      "name": "이디야커피 돌곶이역점",
      "address": "서울 성북구 돌곶이로22길 3 (석관동)",
      "contact": "02-966-1124",
      "lat": "37.6102012",
      "lng": "127.0581140",
      "region": "서울",
      "district": "성북구"
    },
    {
      "id": 113,
      "name": "이디야커피 동덕여대점",
      "address": "서울 성북구 장월로1길 60 (상월곡동)",
      "contact": "02-942-1353",
      "lat": "37.606042318445425",
      "lng": "127.04489794923586",
      "region": "서울",
      "district": "성북구"
    },
    {
      "id": 114,
      "name": "이디야커피 보문역점",
      "address": "서울 성북구 보문로 111 (보문동2가)",
      "contact": "02-928-0788",
      "lat": "37.5849430",
      "lng": "127.0193581",
      "region": "서울",
      "district": "성북구"
    },
    {
      "id": 115,
      "name": "이디야커피 석계중앙점",
      "address": "서울 성북구 화랑로40길 61 (석관동)",
      "contact": "02-963-2009",
      "lat": "37.6137732",
      "lng": "127.0649645",
      "region": "서울",
      "district": "성북구"
    },
    {
      "id": 116,
      "name": "이디야커피 석관동점",
      "address": "서울 성북구 돌곶이로8길 22 (석관동, 래미안아트리치)",
      "contact": "02-969-0415",
      "lat": "37.606523673300146",
      "lng": "127.06226070129833",
      "region": "서울",
      "district": "성북구"
    },
    {
      "id": 117,
      "name": "이디야커피 성신여대역점",
      "address": "서울 성북구 동소문로17길 40 (동소문동6가)",
      "contact": "02-926-2663",
      "lat": "37.5939295699321",
      "lng": "127.015893755022",
      "region": "서울",
      "district": "성북구"
    },
    {
      "id": 118,
      "name": "이디야커피 성신여대점",
      "address": "서울 성북구 보문로34길 100 (동선동2가)",
      "contact": "02-925-3738",
      "lat": "37.5912027",
      "lng": "127.0207875",
      "region": "서울",
      "district": "성북구"
    },
    {
      "id": 119,
      "name": "이디야커피 안암래미안점",
      "address": "서울 성북구 보문로30가길 42 (안암동1가)",
      "contact": "02-929-3106",
      "lat": "37.58902457510121",
      "lng": "127.02202493345699",
      "region": "서울",
      "district": "성북구"
    },
    {
      "id": 120,
      "name": "이디야커피 월곡1동점",
      "address": "서울 성북구 오패산로 99 (하월곡동)",
      "contact": "02-941-1238",
      "lat": "37.6107785",
      "lng": "127.0352036",
      "region": "서울",
      "district": "성북구"
    },
    {
      "id": 121,
      "name": "이디야커피 장위뉴타운점",
      "address": "서울 성북구 장월로 144-1 (장위동)",
      "contact": "02-909-4385",
      "lat": "37.6177100595708",
      "lng": "127.051043617995",
      "region": "서울",
      "district": "성북구"
    },
    {
      "id": 122,
      "name": "이디야커피 장위동점",
      "address": "서울 성북구 월계로40길 7 (장위동)",
      "contact": "02-943-9094",
      "lat": "37.6229606",
      "lng": "127.0483740",
      "region": "서울",
      "district": "성북구"
    },
    {
      "id": 123,
      "name": "이디야커피 정릉중앙점",
      "address": "서울 성북구 정릉로 251 (정릉동)",
      "contact": "02-943-2009",
      "lat": "37.6047262",
      "lng": "127.0119345",
      "region": "서울",
      "district": "성북구"
    },
    {
      "id": 124,
      "name": "이디야커피 종암동점",
      "address": "서울 성북구 종암로 105 (종암동)",
      "contact": "02-923-5969",
      "lat": "37.5995282",
      "lng": "127.0339501",
      "region": "서울",
      "district": "성북구"
    },
    {
      "id": 125,
      "name": "이디야커피 하월곡동점",
      "address": "서울 성북구 오패산로 16 (하월곡동)",
      "contact": "02-913-7817",
      "lat": "37.6036669",
      "lng": "127.0375728",
      "region": "서울",
      "district": "성북구"
    },
    {
      "id": 126,
      "name": "이디야커피 한성대점",
      "address": "서울 성북구 삼선교로 10 (삼선동1가)",
      "contact": "02-747-9667",
      "lat": "37.5877429",
      "lng": "127.0069259",
      "region": "서울",
      "district": "성북구"
    },
    {
      "id": 127,
      "name": "이디야커피 구미SK실트론점",
      "address": "경북 구미시 3공단3로 132-11 (시미동)",
      "contact": null,
      "lat": "36.09347322604128",
      "lng": "128.41152597947467",
      "region": "경북",
      "district": "구미시"
    },
    {
      "id": 128,
      "name": "이디야커피 구미구평점",
      "address": "경북 구미시 인동43길 5-7 (구평동)",
      "contact": "054-475-2662",
      "lat": "36.0938096",
      "lng": "128.4363988",
      "region": "경북",
      "district": "구미시"
    },
    {
      "id": 129,
      "name": "이디야커피 구미금오산점",
      "address": "경북 구미시 금오산로 180 (남통동)",
      "contact": "054-457-5675",
      "lat": "37.51042793406348",
      "lng": "127.03294758864175",
      "region": "경북",
      "district": "구미시"
    },
    {
      "id": 130,
      "name": "이디야커피 구미금전워시클럽점",
      "address": "경북 구미시 산호대로 1192-1 (금전동)",
      "contact": null,
      "lat": "36.1331131641376",
      "lng": "128.45771090884",
      "region": "경북",
      "district": "구미시"
    },
    {
      "id": 131,
      "name": "이디야커피 구미도량롯데캐슬점",
      "address": "경북 구미시 문장로 111 (도량동, 도량 롯데캐슬 골드파크)",
      "contact": "054-455-8161",
      "lat": "36.14276542895452",
      "lng": "128.33164713688865",
      "region": "경북",
      "district": "구미시"
    },
    {
      "id": 132,
      "name": "이디야커피 구미봉곡점",
      "address": "경북 구미시 야은로 299 (도량동)",
      "contact": "054-442-2235",
      "lat": "36.1391432709649",
      "lng": "128.315966291909",
      "region": "경북",
      "district": "구미시"
    },
    {
      "id": 133,
      "name": "이디야커피 구미비산점",
      "address": "경북 구미시 비산로3길 33-21 (비산동)",
      "contact": "054-464-3321",
      "lat": "36.1222915260747",
      "lng": "128.375011244543",
      "region": "경북",
      "district": "구미시"
    },
    {
      "id": 134,
      "name": "이디야커피 구미상모점",
      "address": "경북 구미시 박정희로 99-7 (상모동)",
      "contact": "054-465-5355",
      "lat": "36.087897341170944",
      "lng": "128.3495532701309",
      "region": "경북",
      "district": "구미시"
    },
    {
      "id": 135,
      "name": "이디야커피 구미시청점",
      "address": "경북 구미시 송원서로 29 (송정동)",
      "contact": "054-456-1237",
      "lat": "36.1203356606985",
      "lng": "128.342461304547",
      "region": "경북",
      "district": "구미시"
    },
    {
      "id": 136,
      "name": "이디야커피 구미옥계동점",
      "address": "경북 구미시 산호대로23길 35 (옥계동)",
      "contact": "054-474-2727",
      "lat": "36.1389726751361",
      "lng": "128.416415385742",
      "region": "경북",
      "district": "구미시"
    },
    {
      "id": 137,
      "name": "이디야커피 구미인동중앙점",
      "address": "경북 구미시 인동중앙로6길 39 (인의동)",
      "contact": "054-471-1649",
      "lat": "36.1067782655229",
      "lng": "128.425303427645",
      "region": "경북",
      "district": "구미시"
    },
    {
      "id": 138,
      "name": "이디야커피 구미임은DI점",
      "address": "경북 구미시 왕산로5길 13 (임은동)",
      "contact": "054-462-4034",
      "lat": "36.0873344105604",
      "lng": "128.367072070301",
      "region": "경북",
      "district": "구미시"
    },
    {
      "id": 139,
      "name": "이디야커피 구미진평점",
      "address": "경북 구미시 인동34길 22 (진평동)",
      "contact": "054-476-1247",
      "lat": "36.09265333004317",
      "lng": "128.43126335319425",
      "region": "경북",
      "district": "구미시"
    },
    {
      "id": 140,
      "name": "이디야커피 구미차병원점",
      "address": "경북 구미시 신시로10길 12 (형곡동, 차병원)",
      "contact": "054-456-0038",
      "lat": "36.1145984474359",
      "lng": "128.340708713352",
      "region": "경북",
      "district": "구미시"
    },
    {
      "id": 141,
      "name": "이디야커피 구미황상점",
      "address": "경북 구미시 검성로 42-3 (황상동)",
      "contact": "054-474-2626",
      "lat": "36.1145130",
      "lng": "128.4250304",
      "region": "경북",
      "district": "구미시"
    },
    {
      "id": 142,
      "name": "이디야커피 동구미이마트점",
      "address": "경북 구미시 이계북로 23 (임수동)",
      "contact": "054-471-2279",
      "lat": "36.106328307283",
      "lng": "128.404177032859",
      "region": "경북",
      "district": "구미시"
    },
    {
      "id": 143,
      "name": "이디야커피 광교상현역점",
      "address": "경기 용인시 수지구 광교중앙로296번길 14 (상현동)",
      "contact": "031-216-1108",
      "lat": "37.2971123",
      "lng": "127.0701822",
      "region": "경기",
      "district": "용인시"
    },
    {
      "id": 144,
      "name": "이디야커피 광교숲속마을점",
      "address": "경기 용인시 수지구 광교호수로378번길 1 (상현동)",
      "contact": null,
      "lat": "37.2982773637696",
      "lng": "127.080273144546",
      "region": "경기",
      "district": "용인시"
    },
    {
      "id": 145,
      "name": "이디야커피 단대죽전점",
      "address": "경기 용인시 수지구 죽전로144번길 7-5 (죽전동, 단대로데오타워)",
      "contact": "031-263-2210",
      "lat": "37.3235860043263",
      "lng": "127.124166403559",
      "region": "경기",
      "district": "용인시"
    },
    {
      "id": 146,
      "name": "이디야커피 르노코리아중앙연구소점",
      "address": "경기 용인시 기흥구 탑실로 61 (공세동, 르노코리아자동차(주)중앙연구소)",
      "contact": null,
      "lat": "37.2405118033107",
      "lng": "127.113523027546",
      "region": "경기",
      "district": "용인시"
    },
    {
      "id": 147,
      "name": "이디야커피 수원신갈IC점",
      "address": "경기 용인시 기흥구 중부대로 317 (신갈동, 안전빌딩)",
      "contact": null,
      "lat": "37.2709164000988",
      "lng": "127.102270719106",
      "region": "경기",
      "district": "용인시"
    },
    {
      "id": 148,
      "name": "이디야커피 수지구청점",
      "address": "경기 용인시 수지구 풍덕천로 142 (풍덕천동)",
      "contact": "031-261-6863",
      "lat": "37.3237413",
      "lng": "127.0972698",
      "region": "경기",
      "district": "용인시"
    },
    {
      "id": 149,
      "name": "이디야커피 수지동천자이점",
      "address": "경기 용인시 수지구 고기로 89 (동천동, 동천자이아파트)",
      "contact": "031-266-0242",
      "lat": "37.3458681",
      "lng": "127.0903157",
      "region": "경기",
      "district": "용인시"
    },
    {
      "id": 150,
      "name": "이디야커피 수지성복점",
      "address": "경기 용인시 수지구 성복2로 226 (성복동)",
      "contact": "031-265-2407",
      "lat": "37.3200856",
      "lng": "127.0626993",
      "region": "경기",
      "district": "용인시"
    },
    {
      "id": 151,
      "name": "이디야커피 수지신봉초교점",
      "address": "경기 용인시 수지구 신봉2로 115-16 (신봉동)",
      "contact": "031-261-1874",
      "lat": "37.3286655",
      "lng": "127.0684608",
      "region": "경기",
      "district": "용인시"
    },
    {
      "id": 152,
      "name": "이디야커피 수지풍덕천점",
      "address": "경기 용인시 수지구 정평로 40-4 (풍덕천동)",
      "contact": "031-261-6909",
      "lat": "37.3196910",
      "lng": "127.0877699",
      "region": "경기",
      "district": "용인시"
    },
    {
      "id": 153,
      "name": "이디야커피 용인IT밸리점",
      "address": "경기 용인시 기흥구 흥덕1로 30 (영덕동)",
      "contact": "031-214-2294",
      "lat": "37.2717576",
      "lng": "127.0688180",
      "region": "경기",
      "district": "용인시"
    },
    {
      "id": 154,
      "name": "이디야커피 용인기흥구청점",
      "address": "경기 용인시 기흥구 관곡로 92 (구갈동)",
      "contact": "031-283-3547",
      "lat": "37.2805021",
      "lng": "127.1135214",
      "region": "경기",
      "district": "용인시"
    },
    {
      "id": 155,
      "name": "이디야커피 용인기흥역점",
      "address": "경기 용인시 기흥구 기흥로30번길 10-17 (구갈동)",
      "contact": "031-282-8188",
      "lat": "37.277594987822",
      "lng": "127.117340796927",
      "region": "경기",
      "district": "용인시"
    },
    {
      "id": 156,
      "name": "이디야커피 용인농서점",
      "address": "경기 용인시 기흥구 서천로202번길 5 (농서동)",
      "contact": "031-203-0700",
      "lat": "37.2302168",
      "lng": "127.0696809",
      "region": "경기",
      "district": "용인시"
    },
    {
      "id": 157,
      "name": "이디야커피 용인동백중앙점",
      "address": "경기 용인시 기흥구 동백중앙로 283 (중동)",
      "contact": "031-8005-6402",
      "lat": "37.2780284",
      "lng": "127.1534720",
      "region": "경기",
      "district": "용인시"
    },
    {
      "id": 158,
      "name": "이디야커피 용인동백호수점",
      "address": "경기 용인시 기흥구 평촌2로2번길 12 (동백동)",
      "contact": "031-284-8553",
      "lat": "37.2829345",
      "lng": "127.1535067",
      "region": "경기",
      "district": "용인시"
    },
    {
      "id": 159,
      "name": "이디야커피 용인둔전점",
      "address": "경기 용인시 처인구 포곡읍 포곡로 99 (둔전리, 한국유통)",
      "contact": "031-334-3555",
      "lat": "37.2692176695141",
      "lng": "127.216560382366",
      "region": "경기",
      "district": "용인시"
    },
    {
      "id": 160,
      "name": "이디야커피 용인마평점",
      "address": "경기 용인시 처인구 금령로 147 (마평동, 한솔빌딩)",
      "contact": "031-323-0399",
      "lat": "37.23509318860341",
      "lng": "127.21264820610678",
      "region": "경기",
      "district": "용인시"
    },
    {
      "id": 161,
      "name": "이디야커피 용인백암점",
      "address": "경기 용인시 처인구 백암면 덕평로 1-1 (근곡리)",
      "contact": "031-321-4472",
      "lat": "37.17079505053749",
      "lng": "127.37066915489798",
      "region": "경기",
      "district": "용인시"
    },
    {
      "id": 162,
      "name": "이디야커피 용인백현점",
      "address": "경기 용인시 기흥구 동백중앙로 358-8 (동백동)",
      "contact": "031-275-2757",
      "lat": "37.2820777",
      "lng": "127.1600429",
      "region": "경기",
      "district": "용인시"
    },
    {
      "id": 163,
      "name": "이디야커피 용인상현마을점",
      "address": "경기 용인시 수지구 상현로 6 (상현동, 광교상현 솔하임)",
      "contact": "031-263-1006",
      "lat": "37.30254129982916",
      "lng": "127.07468888352936",
      "region": "경기",
      "district": "용인시"
    },
    {
      "id": 164,
      "name": "이디야커피 용인상현중앙점",
      "address": "경기 용인시 수지구 수지로 77 (상현동, 힐프라자)",
      "contact": "031-266-2893",
      "lat": "37.3099478896842",
      "lng": "127.07598195304",
      "region": "경기",
      "district": "용인시"
    },
    {
      "id": 165,
      "name": "이디야커피 용인서천점",
      "address": "경기 용인시 기흥구 서그내로 31 (서천동, 용인서천 효성해링턴플레이스)",
      "contact": "010-9215-7939",
      "lat": "37.2438910",
      "lng": "127.0745301",
      "region": "경기",
      "district": "용인시"
    },
    {
      "id": 166,
      "name": "이디야커피 용인서천중앙점",
      "address": "경기 용인시 기흥구 서천서로20번길 2 (서천동)",
      "contact": null,
      "lat": "37.2407395873774",
      "lng": "127.072734255833",
      "region": "경기",
      "district": "용인시"
    },
    {
      "id": 167,
      "name": "이디야커피 용인성복느티나무점",
      "address": "경기 용인시 수지구 성복1로 80 (성복동, 성복역 서희스타힐스)",
      "contact": "031-266-0609",
      "lat": "37.31565559577082",
      "lng": "127.07147822975194",
      "region": "경기",
      "district": "용인시"
    },
    {
      "id": 168,
      "name": "이디야커피 용인신갈점",
      "address": "경기 용인시 기흥구 새천년로 20 (신갈동)",
      "contact": "031-281-8553",
      "lat": "37.2890935",
      "lng": "127.1114203",
      "region": "경기",
      "district": "용인시"
    },
    {
      "id": 169,
      "name": "이디야커피 용인신갈중앙점",
      "address": "경기 용인시 기흥구 신갈로58번길 33 (신갈동)",
      "contact": "031-284-2266",
      "lat": "37.2731193",
      "lng": "127.1092396",
      "region": "경기",
      "district": "용인시"
    },
    {
      "id": 170,
      "name": "이디야커피 용인신동백점",
      "address": "경기 용인시 기흥구 동백죽전대로527번길 100-3 (중동)",
      "contact": "031-284-0525",
      "lat": "37.2808503",
      "lng": "127.1435038",
      "region": "경기",
      "district": "용인시"
    },
    {
      "id": 171,
      "name": "이디야커피 용인양지점",
      "address": "경기 용인시 처인구 양지면 양대로 13 (양지리, 양지추어탕)",
      "contact": "032-328-6450",
      "lat": "37.2345165858559",
      "lng": "127.285791189675",
      "region": "경기",
      "district": "용인시"
    },
    {
      "id": 172,
      "name": "이디야커피 용인에버랜드역점",
      "address": "경기 용인시 처인구 포곡읍 전대로78번길 19-2",
      "contact": "031-332-2282",
      "lat": "37.2870359",
      "lng": "127.2167596",
      "region": "경기",
      "district": "용인시"
    },
    {
      "id": 173,
      "name": "이디야커피 용인역북중앙점",
      "address": "경기 용인시 처인구 중부대로1313번길 2 (역북동)",
      "contact": "031-334-9030",
      "lat": "37.2360136",
      "lng": "127.1909760",
      "region": "경기",
      "district": "용인시"
    },
    {
      "id": 174,
      "name": "이디야커피 용인외대점",
      "address": "경기 용인시 처인구 모현읍 외대로 36 (왕산리, 우주빌딩)",
      "contact": "031-322-0502",
      "lat": "37.3358070186045",
      "lng": "127.25339347584",
      "region": "경기",
      "district": "용인시"
    },
    {
      "id": 175,
      "name": "이디야커피 용인죽전누리에뜰점",
      "address": "경기 용인시 기흥구 죽전로 20 (보정동, 죽전누리에뜰아파트)",
      "contact": "031-898-2098",
      "lat": "37.3200359097767",
      "lng": "127.110372232953",
      "region": "경기",
      "district": "용인시"
    },
    {
      "id": 176,
      "name": "이디야커피 용인처인구청점",
      "address": "경기 용인시 처인구 금령로12번길 19 (김량장동)",
      "contact": "031-337-4500",
      "lat": "37.2339739",
      "lng": "127.1991607",
      "region": "경기",
      "district": "용인시"
    },
    {
      "id": 177,
      "name": "이디야커피 용인천리점",
      "address": "경기 용인시 처인구 이동읍 백옥대로 618 (천리)",
      "contact": "031-333-2517",
      "lat": "37.185681515970586",
      "lng": "127.20260193105903",
      "region": "경기",
      "district": "용인시"
    },
    {
      "id": 178,
      "name": "이디야커피 용인포곡점",
      "address": "경기 용인시 처인구 포곡읍 포곡로 220 (둔전리)",
      "contact": "031-322-7378",
      "lat": "37.275797890915",
      "lng": "127.227548532465",
      "region": "경기",
      "district": "용인시"
    },
    {
      "id": 179,
      "name": "이디야커피 용인하나로마트점",
      "address": "경기 용인시 기흥구 중부대로 682 (상하동)",
      "contact": "031-285-5989",
      "lat": "37.2660474710871",
      "lng": "127.135844388634",
      "region": "경기",
      "district": "용인시"
    },
    {
      "id": 180,
      "name": "이디야커피 용인한숲시티점",
      "address": "경기 용인시 처인구 남사면 한숲로 123 (완장리, e편한세상 용인 한숲시티)",
      "contact": "031-337-0559",
      "lat": "37.1601406047433",
      "lng": "127.171908511833",
      "region": "경기",
      "district": "용인시"
    },
    {
      "id": 181,
      "name": "이디야커피 주성엔지니어링용인R&D센터점",
      "address": "경기 용인시 기흥구 신정로 79 (신갈동, 주성엔지니어링 R&D센터)",
      "contact": null,
      "lat": "37.2786020848889",
      "lng": "127.101861320366",
      "region": "경기",
      "district": "용인시"
    },
    {
      "id": 182,
      "name": "이디야커피 죽전벽산점",
      "address": "경기 용인시 수지구 용구대로2801번길 2 (죽전동, 디지탈프라자)",
      "contact": "031-262-0627",
      "lat": "37.3357214027414",
      "lng": "127.108163035405",
      "region": "경기",
      "district": "용인시"
    },
    {
      "id": 183,
      "name": "이디야커피 죽전코레일점",
      "address": "경기 용인시 수지구 포은대로 530 (죽전동, 죽전역)",
      "contact": "031-261-1577",
      "lat": "37.3248589967477",
      "lng": "127.107392767338",
      "region": "경기",
      "district": "용인시"
    },
    {
      "id": 184,
      "name": "이디야커피 흥덕이마트점",
      "address": "경기 용인시 기흥구 흥덕중앙로 60 (영덕동)",
      "contact": "031-211-0221",
      "lat": "37.2757484",
      "lng": "127.0733378",
      "region": "경기",
      "district": "용인시"
    },
    {
      "id": 185,
      "name": "이디야커피 덕성여대점",
      "address": "서울 도봉구 삼양로 542 (쌍문동)",
      "contact": "02-998-9799",
      "lat": "37.6516084987977",
      "lng": "127.01319601269354",
      "region": "서울",
      "district": "도봉구"
    },
    {
      "id": 186,
      "name": "이디야커피 도봉구청점",
      "address": "서울 도봉구 도봉로150길 43 (방학동, ESA 아파트)",
      "contact": "02-955-2123",
      "lat": "37.6664777",
      "lng": "127.0455904",
      "region": "서울",
      "district": "도봉구"
    },
    {
      "id": 187,
      "name": "이디야커피 도봉산점",
      "address": "서울 도봉구 도봉산길 18 (도봉동)",
      "contact": "02-3494-3974",
      "lat": "37.68753761913406",
      "lng": "127.04374413595103",
      "region": "서울",
      "district": "도봉구"
    },
    {
      "id": 188,
      "name": "이디야커피 방학역점",
      "address": "서울 도봉구 도봉로153길 15 (방학동)",
      "contact": "02-956-8406",
      "lat": "37.6698038",
      "lng": "127.0425532",
      "region": "서울",
      "district": "도봉구"
    },
    {
      "id": 189,
      "name": "이디야커피 방학점",
      "address": "서울 도봉구 방학로 171 (방학동)",
      "contact": "02-954-6549",
      "lat": "37.6621704",
      "lng": "127.0332666",
      "region": "서울",
      "district": "도봉구"
    },
    {
      "id": 190,
      "name": "이디야커피 선덕고사거리점",
      "address": "서울 도봉구 해등로 255 (쌍문동, 에벤에셀아파트)",
      "contact": "02-906-0256",
      "lat": "37.6573748",
      "lng": "127.0281918",
      "region": "서울",
      "district": "도봉구"
    },
    {
      "id": 191,
      "name": "이디야커피 솔밭공원역점",
      "address": "서울 도봉구 삼양로 594 (쌍문동, 주함해븐빌)",
      "contact": null,
      "lat": "37.6560582306343",
      "lng": "127.013556949839",
      "region": "서울",
      "district": "도봉구"
    },
    {
      "id": 192,
      "name": "이디야커피 신창점",
      "address": "서울 도봉구 덕릉로 235 (창동)",
      "contact": "02-6111-9140",
      "lat": "37.6389379513295",
      "lng": "127.038109547969",
      "region": "서울",
      "district": "도봉구"
    },
    {
      "id": 193,
      "name": "이디야커피 쌍문동점",
      "address": "서울 도봉구 노해로 162 (쌍문동)",
      "contact": "02-988-7007",
      "lat": "37.648691425654484",
      "lng": "127.02717853006696",
      "region": "서울",
      "district": "도봉구"
    },
    {
      "id": 194,
      "name": "이디야커피 쌍문역점",
      "address": "서울 도봉구 도봉로117길 4 (쌍문동)",
      "contact": "02-999-2651",
      "lat": "37.6494415919409",
      "lng": "127.034706714207",
      "region": "서울",
      "district": "도봉구"
    },
    {
      "id": 195,
      "name": "이디야커피 창동대우점",
      "address": "서울 도봉구 덕릉로63가길 30 (창동)",
      "contact": "02-993-3050",
      "lat": "37.64346473981549",
      "lng": "127.03874807786094",
      "region": "서울",
      "district": "도봉구"
    },
    {
      "id": 196,
      "name": "이디야커피 창동역점",
      "address": "서울 도봉구 마들로11길 65 (창동)",
      "contact": "02-900-9307",
      "lat": "37.6534171446527",
      "lng": "127.049667391336",
      "region": "서울",
      "district": "도봉구"
    },
    {
      "id": 197,
      "name": "이디야커피 창동제일점",
      "address": "서울 도봉구 노해로70길 81 (창동)",
      "contact": "02-998-4660",
      "lat": "37.64890361348041",
      "lng": "127.05250451283373",
      "region": "서울",
      "district": "도봉구"
    },
    {
      "id": 198,
      "name": "이디야커피 창동하나로마트점",
      "address": "서울 도봉구 마들로11길 20 (창동, 농협창동유통센타)",
      "contact": "02-999-7337",
      "lat": "37.654796530681295",
      "lng": "127.05139242088684",
      "region": "서울",
      "district": "도봉구"
    },
    {
      "id": 199,
      "name": "이디야커피 창동학원가점",
      "address": "서울 도봉구 해등로16길 61 (창동)",
      "contact": "02-993-3824",
      "lat": "37.6551345",
      "lng": "127.0433741",
      "region": "서울",
      "district": "도봉구"
    },
    {
      "id": 200,
      "name": "이디야커피 강남YMCA점",
      "address": "서울 강남구 논현동",
      "contact": null,
      "lat": "37.511571",
      "lng": "127.028461",
      "region": "서울",
      "district": "강남구"
    },
    {
      "id": 201,
      "name": "이디야커피 강남구청역아이티웨딩점",
      "address": "서울 강남구 학동로 338 (논현동, 강남파라곤)",
      "contact": "02-511-7531",
      "lat": "37.51654171724045",
      "lng": "127.0401601992311",
      "region": "서울",
      "district": "강남구"
    },
    {
      "id": 202,
      "name": "이디야커피 강남나누리병원점",
      "address": "서울 강남구 언주로149길 5 (논현동)",
      "contact": "02-665-4656",
      "lat": "37.5205070",
      "lng": "127.0337032",
      "region": "서울",
      "district": "강남구"
    },
    {
      "id": 203,
      "name": "이디야커피 강남논현학동점",
      "address": "서울 강남구 논현로131길 28 (논현동)",
      "contact": "02-516-1802",
      "lat": "37.51408005446769",
      "lng": "127.02810578707652",
      "region": "서울",
      "district": "강남구"
    },
    {
      "id": 204,
      "name": "이디야커피 강남대치점",
      "address": "서울 강남구 역삼로 415 (대치동, 성진빌딩)",
      "contact": "02-564-1116",
      "lat": "37.50133876179308",
      "lng": "127.05242928262568",
      "region": "서울",
      "district": "강남구"
    },
    {
      "id": 205,
      "name": "이디야커피 강남도산점",
      "address": "서울 강남구 도산대로37길 20 (신사동)",
      "contact": "02-515-0082",
      "lat": "37.5222808",
      "lng": "127.0315014",
      "region": "서울",
      "district": "강남구"
    },
    {
      "id": 206,
      "name": "이디야커피 강남원에디션점",
      "address": "서울 강남구 언주로 563 (역삼동)",
      "contact": "02-553-1033",
      "lat": "37.5079337330229",
      "lng": "127.038168392484",
      "region": "서울",
      "district": "강남구"
    },
    {
      "id": 207,
      "name": "이디야커피 강남율현점",
      "address": "서울 강남구 밤고개로21길 8 (율현동, 세곡프라자)",
      "contact": "02-554-8595",
      "lat": "37.4735487656314",
      "lng": "127.107863694133",
      "region": "서울",
      "district": "강남구"
    },
    {
      "id": 208,
      "name": "이디야커피 강남행복병원점",
      "address": "서울 강남구 헌릉로590길 60 (세곡동, 강남구립 행복요양병원)",
      "contact": "02-3412-1002",
      "lat": "37.4611634",
      "lng": "127.1033786",
      "region": "서울",
      "district": "강남구"
    },
    {
      "id": 209,
      "name": "이디야커피 개포동역점",
      "address": "서울 강남구 개포로82길 11 (개포동, 삼우빌딩)",
      "contact": "02-451-4478",
      "lat": "37.488604436046536",
      "lng": "127.06742226515867",
      "region": "서울",
      "district": "강남구"
    },
    {
      "id": 210,
      "name": "이디야커피 대청역점",
      "address": "서울 강남구 개포로109길 34 (개포동, 대청프라자)",
      "contact": "02-445-3498",
      "lat": "37.49418891219431",
      "lng": "127.07764131137398",
      "region": "서울",
      "district": "강남구"
    },
    {
      "id": 211,
      "name": "이디야커피 대치역점",
      "address": "서울 강남구 남부순환로 2937 (대치동, 까치빌딩)",
      "contact": "02-566-6467",
      "lat": "37.4940924880388",
      "lng": "127.061617564506",
      "region": "서울",
      "district": "강남구"
    },
    {
      "id": 212,
      "name": "이디야커피 도산사거리점",
      "address": "서울 강남구 논현동",
      "contact": "02-518-0372",
      "lat": "37.511571",
      "lng": "127.028461",
      "region": "서울",
      "district": "강남구"
    },
    {
      "id": 213,
      "name": "이디야커피 삼성대치점",
      "address": "서울 강남구 삼성로64길 32 (대치동, 주성빌딩)",
      "contact": "02-508-1235",
      "lat": "37.50043704079942",
      "lng": "127.06310437319587",
      "region": "서울",
      "district": "강남구"
    },
    {
      "id": 214,
      "name": "이디야커피 삼성동점",
      "address": "서울 강남구 테헤란로88길 10 (대치동)",
      "contact": "02-501-9598",
      "lat": "37.5068487",
      "lng": "127.0594706",
      "region": "서울",
      "district": "강남구"
    },
    {
      "id": 215,
      "name": "이디야커피 삼성한전점",
      "address": "서울 강남구 테헤란로107길 11 (삼성동)",
      "contact": "02-555-9984",
      "lat": "37.5104302",
      "lng": "127.0650644",
      "region": "서울",
      "district": "강남구"
    },
    {
      "id": 216,
      "name": "이디야커피 선릉점",
      "address": "서울 강남구 선릉로86길 15 (대치동, 현대선릉 GOLD TOWER)",
      "contact": "02-538-5535",
      "lat": "37.50346806209728",
      "lng": "127.05088702698811",
      "region": "서울",
      "district": "강남구"
    },
    {
      "id": 217,
      "name": "이디야커피 신사역점",
      "address": "서울 강남구 압구정로2길 62 (신사동)",
      "contact": "02-511-9878",
      "lat": "37.517782772275645",
      "lng": "127.02145819084597",
      "region": "서울",
      "district": "강남구"
    },
    {
      "id": 218,
      "name": "이디야커피 압구정현대점",
      "address": "서울 강남구 압구정로 214 (신사동, 현대종합상가빌딩)",
      "contact": "02-516-0083",
      "lat": "37.527994487818226",
      "lng": "127.03073566616045",
      "region": "서울",
      "district": "강남구"
    },
    {
      "id": 219,
      "name": "이디야커피 역삼역점",
      "address": "서울 강남구 테헤란로25길 17 (역삼동)",
      "contact": "070-4213-0047",
      "lat": "37.50178663316214",
      "lng": "127.03523956508853",
      "region": "서울",
      "district": "강남구"
    },
    {
      "id": 220,
      "name": "이디야커피 역삼월드점",
      "address": "서울 강남구 역삼로52길 14 (역삼동, 도곡프라자)",
      "contact": "02-566-6705",
      "lat": "37.49854753271711",
      "lng": "127.04798299548432",
      "region": "서울",
      "district": "강남구"
    },
    {
      "id": 221,
      "name": "이디야커피 역삼점",
      "address": "서울 강남구 논현로72길 13 (역삼동)",
      "contact": "02-565-0372",
      "lat": "37.4958391",
      "lng": "127.0405671",
      "region": "서울",
      "district": "강남구"
    },
    {
      "id": 222,
      "name": "이디야커피 역삼중앙점",
      "address": "서울 강남구 언주로81길 8 (역삼동)",
      "contact": "02-538-9734",
      "lat": "37.5003154494517",
      "lng": "127.04292899982501",
      "region": "서울",
      "district": "강남구"
    },
    {
      "id": 223,
      "name": "이디야커피 역삼초교점",
      "address": "서울 강남구 강남대로 314 (역삼동)",
      "contact": "02-555-6467",
      "lat": "37.4913283",
      "lng": "127.0312708",
      "region": "서울",
      "district": "강남구"
    },
    {
      "id": 224,
      "name": "이디야커피 역삼충현점",
      "address": "서울 강남구 논현로98길 7 (역삼동)",
      "contact": "02-569-0303",
      "lat": "37.5037681",
      "lng": "127.0363736",
      "region": "서울",
      "district": "강남구"
    },
    {
      "id": 225,
      "name": "이디야커피 역삼플래티넘점",
      "address": "서울 강남구 테헤란로4길 46 (역삼동, 쌍용플래티넘밸류)",
      "contact": "02-2051-5698",
      "lat": "37.4955423",
      "lng": "127.0304040",
      "region": "서울",
      "district": "강남구"
    },
    {
      "id": 226,
      "name": "이디야커피 을지병원사거리점",
      "address": "서울 강남구 도산대로30길 7 (논현동)",
      "contact": "02-942-3490",
      "lat": "37.5193861",
      "lng": "127.0294489",
      "region": "서울",
      "district": "강남구"
    },
    {
      "id": 227,
      "name": "이디야커피랩",
      "address": "서울 강남구 논현로 636 (논현동, 이디야빌딩)",
      "contact": "02-545-6467",
      "lat": "37.51047297481296",
      "lng": "127.032981540064",
      "region": "서울",
      "district": "강남구"
    },
    {
      "id": 228,
      "name": "이디야커피 일원동점",
      "address": "서울 강남구 양재대로27길 20 (일원동)",
      "contact": "02-445-7742",
      "lat": "37.49040201406986",
      "lng": "127.08160067456867",
      "region": "서울",
      "district": "강남구"
    },
    {
      "id": 229,
      "name": "이디야커피 청담사거리점",
      "address": "서울 강남구 도산대로 521 (청담동)",
      "contact": "02-3444-3008",
      "lat": "37.524855870334314",
      "lng": "127.05035288418118",
      "region": "서울",
      "district": "강남구"
    },
    {
      "id": 230,
      "name": "이디야커피 청담역점",
      "address": "서울 강남구 삼성로 721 (청담동, 룩희 819)",
      "contact": "02-518-3888",
      "lat": "37.5200643058897",
      "lng": "127.049146860404",
      "region": "서울",
      "district": "강남구"
    },
    {
      "id": 231,
      "name": "이디야커피 학동역점",
      "address": "서울 강남구 학동로 219 (논현동, 국제빌딩)",
      "contact": "02-544-6467",
      "lat": "37.51499417378034",
      "lng": "127.03312378880225",
      "region": "서울",
      "district": "강남구"
    },
    {
      "id": 232,
      "name": "이디야커피 학동제마점",
      "address": "서울 강남구 학동로34길 22 (논현동)",
      "contact": null,
      "lat": "37.5131174134101",
      "lng": "127.033652198273",
      "region": "서울",
      "district": "강남구"
    },
    {
      "id": 233,
      "name": "이디야커피 한티역점",
      "address": "서울 강남구 도곡로69길 8 (대치동)",
      "contact": "02-538-5937",
      "lat": "37.4979490135961",
      "lng": "127.056118735013",
      "region": "서울",
      "district": "강남구"
    },
    {
      "id": 234,
      "name": "이디야커피 강남센트럴시티점",
      "address": "서울 서초구 신반포로 176 (반포동, 센트럴시티)",
      "contact": null,
      "lat": "37.503934456230404",
      "lng": "127.00241119724721",
      "region": "서울",
      "district": "서초구"
    },
    {
      "id": 235,
      "name": "이디야커피 강남역르피에드점",
      "address": "서울 서초구 서운로 136 (서초동)",
      "contact": "02-598-5989",
      "lat": "37.4956189258907",
      "lng": "127.025219660672",
      "region": "서울",
      "district": "서초구"
    },
    {
      "id": 236,
      "name": "이디야커피 교대역점",
      "address": "서울 서초구 서초대로56길 22 (서초동, 성운빌딩)",
      "contact": "02-6465-1203",
      "lat": "37.49348156830381",
      "lng": "127.01711123409879",
      "region": "서울",
      "district": "서초구"
    },
    {
      "id": 237,
      "name": "이디야커피 국립국악원점",
      "address": "서울 서초구 남부순환로 2364 (서초동, 국립국악원)",
      "contact": null,
      "lat": "37.4777188083482",
      "lng": "127.009818464555",
      "region": "서울",
      "district": "서초구"
    },
    {
      "id": 238,
      "name": "이디야커피 국립중앙도서관디지털관점",
      "address": "서울 서초구 반포대로 201 (반포동, 국립중앙도서관)",
      "contact": "02-595-6467",
      "lat": "37.49784541491314",
      "lng": "127.00399194893603",
      "region": "서울",
      "district": "서초구"
    },
    {
      "id": 239,
      "name": "이디야커피 국립중앙도서관본관점",
      "address": "서울 서초구 반포대로 201 (반포동, 국립중앙도서관)",
      "contact": "02-591-6467",
      "lat": "37.49759316196095",
      "lng": "127.0030193959796",
      "region": "서울",
      "district": "서초구"
    },
    {
      "id": 240,
      "name": "이디야커피 남부터미널점",
      "address": "서울 서초구 서초동",
      "contact": "02-522-5579",
      "lat": "37.490119",
      "lng": "127.019508",
      "region": "서울",
      "district": "서초구"
    },
    {
      "id": 241,
      "name": "이디야커피 내방역점",
      "address": "서울 서초구 서초대로 108 (방배동, 삼보빌딩)",
      "contact": "02-525-9862",
      "lat": "37.4875341",
      "lng": "126.9942153",
      "region": "서울",
      "district": "서초구"
    },
    {
      "id": 242,
      "name": "이디야커피 로얄마리나한강점",
      "address": "서울 서초구 한강남자전거길 2351 (잠원동)",
      "contact": "02-535-6466",
      "lat": "37.5192603044676",
      "lng": "127.007842970729",
      "region": "서울",
      "district": "서초구"
    },
    {
      "id": 243,
      "name": "이디야커피 반포지하상가점",
      "address": "서울 서초구 신반포로 지하 200 (잠원동, 강남터미널지하쇼핑몰)",
      "contact": "02-536-1900",
      "lat": "37.506219322319325",
      "lng": "127.0050532634284",
      "region": "서울",
      "district": "서초구"
    },
    {
      "id": 244,
      "name": "이디야커피 방배역점",
      "address": "서울 서초구 방배로 87 (방배동)",
      "contact": "02-3487-2766",
      "lat": "37.4821718",
      "lng": "126.9969232",
      "region": "서울",
      "district": "서초구"
    },
    {
      "id": 245,
      "name": "이디야커피 방배중앙점",
      "address": "서울 서초구 동광로 1 (방배동, 대양빌딩)",
      "contact": "02-533-5563",
      "lat": "37.4910819",
      "lng": "126.9830337",
      "region": "서울",
      "district": "서초구"
    },
    {
      "id": 246,
      "name": "이디야커피 서울고교점",
      "address": "서울 서초구 서초동",
      "contact": "02-522-3288",
      "lat": "37.490119",
      "lng": "127.019508",
      "region": "서울",
      "district": "서초구"
    },
    {
      "id": 247,
      "name": "이디야커피 서울고속버스터미널점",
      "address": "서울 서초구 신반포로 194 (반포동, 강남고속버스터미널)",
      "contact": "02-536-0021",
      "lat": "37.5057291465854",
      "lng": "127.00568884262598",
      "region": "서울",
      "district": "서초구"
    },
    {
      "id": 248,
      "name": "이디야커피 서울교대점",
      "address": "서울 서초구 서초동",
      "contact": "02-522-1133",
      "lat": "37.490119",
      "lng": "127.019508",
      "region": "서울",
      "district": "서초구"
    },
    {
      "id": 249,
      "name": "이디야커피 서초법조타운점",
      "address": "서울 서초구 서초중앙로24길 7 (서초동, 동천빌딩)",
      "contact": "02-534-2602",
      "lat": "37.49479378533478",
      "lng": "127.01448803642147",
      "region": "서울",
      "district": "서초구"
    },
    {
      "id": 250,
      "name": "이디야커피 서초우면중앙점",
      "address": "서울 서초구 양재대로2길 100-11 (우면동, 서초 리슈빌S)",
      "contact": "02-578-5506",
      "lat": "37.45646459702972",
      "lng": "127.01625285612394",
      "region": "서울",
      "district": "서초구"
    },
    {
      "id": 251,
      "name": "이디야커피 서초점",
      "address": "서울 서초구 서초대로48길 16 (서초동)",
      "contact": "02-588-7374",
      "lat": "37.510472981127",
      "lng": "127.0329589189837",
      "region": "서울",
      "district": "서초구"
    },
    {
      "id": 252,
      "name": "이디야커피 신논현역점",
      "address": "서울 서초구 서초대로77길 55 (서초동, 에이프로 스퀘어)",
      "contact": "02-533-6467",
      "lat": "37.502226322085065",
      "lng": "127.0245694495325",
      "region": "서울",
      "district": "서초구"
    },
    {
      "id": 253,
      "name": "이디야커피 신사멀버리힐스점",
      "address": "서울 서초구 강남대로 589 (잠원동)",
      "contact": null,
      "lat": "37.5144406772564",
      "lng": "127.019386390307",
      "region": "서울",
      "district": "서초구"
    },
    {
      "id": 254,
      "name": "이디야커피 양재점",
      "address": "서울 서초구 남부순환로347길 38 (서초동)",
      "contact": "02-523-9003",
      "lat": "37.4860263770271",
      "lng": "127.031487443707",
      "region": "서울",
      "district": "서초구"
    },
    {
      "id": 255,
      "name": "이디야커피 양재중앙점",
      "address": "서울 서초구 강남대로 221 (양재동, 양재역 환승주차장)",
      "contact": "02-571-6413",
      "lat": "37.4836886",
      "lng": "127.0341274",
      "region": "서울",
      "district": "서초구"
    },
    {
      "id": 256,
      "name": "이디야커피 양재하나로마트점",
      "address": "서울 서초구 청계산로 10 (양재동, 농협하나로클럽)",
      "contact": "02-579-3007",
      "lat": "37.4632288",
      "lng": "127.0435302",
      "region": "서울",
      "district": "서초구"
    },
    {
      "id": 257,
      "name": "이디야커피 예술의전당점",
      "address": "서울 서초구 반포대로 32 (서초동, 원일빌딩)",
      "contact": "02-586-0661",
      "lat": "37.48343774983494",
      "lng": "127.01212053082338",
      "region": "서울",
      "district": "서초구"
    },
    {
      "id": 258,
      "name": "이디야커피 우면동점",
      "address": "서울 서초구 바우뫼로 20 (우면동, 고호빌딩)",
      "contact": "02-6013-5571",
      "lat": "37.4699915",
      "lng": "127.0253044",
      "region": "서울",
      "district": "서초구"
    },
    {
      "id": 259,
      "name": "이디야커피 잠원논현점",
      "address": "서울 서초구 신반포로 333 (잠원동)",
      "contact": "02-543-1208",
      "lat": "37.5109294",
      "lng": "127.0201595",
      "region": "서울",
      "district": "서초구"
    },
    {
      "id": 260,
      "name": "이디야커피 청계산입구역점",
      "address": "서울 서초구 신원동",
      "contact": "02-575-7942",
      "lat": "37.4448",
      "lng": "127.0641",
      "region": "서울",
      "district": "서초구"
    },
    {
      "id": 261,
      "name": "이디야커피 함지박사거리점",
      "address": "서울 서초구 방배로 234 우신빌딩",
      "contact": "02-533-4119",
      "lat": "37.4941721",
      "lng": "126.9899239",
      "region": "서울",
      "district": "서초구"
    },
    {
      "id": 262,
      "name": "이디야커피 대부도메르블루점",
      "address": "경기 안산시 단원구 부흥로 287-162 (대부남동)",
      "contact": null,
      "lat": "37.2235781191534",
      "lng": "126.604264041822",
      "region": "경기",
      "district": "안산시"
    },
    {
      "id": 263,
      "name": "이디야커피 대부도펜션타운점",
      "address": "경기 안산시 단원구 참살이2길 12 (선감동)",
      "contact": "070-4283-0358",
      "lat": "37.23325130171915",
      "lng": "126.62439377298054",
      "region": "경기",
      "district": "안산시"
    },
    {
      "id": 264,
      "name": "이디야커피 동안산병원점",
      "address": "경기 안산시 상록구 월피로 81 (월피동)",
      "contact": "031-402-3626",
      "lat": "37.3356530063697",
      "lng": "126.85225489233",
      "region": "경기",
      "district": "안산시"
    },
    {
      "id": 265,
      "name": "이디야커피 안산고대병원점",
      "address": "경기 안산시 단원구 적금로 123 (고잔동, 고려대학병원)",
      "contact": "031-411-3071",
      "lat": "37.318370564762574",
      "lng": "126.82519870385816",
      "region": "경기",
      "district": "안산시"
    },
    {
      "id": 266,
      "name": "이디야커피 안산고잔로데오점",
      "address": "경기 안산시 단원구 광덕2로 164 (고잔동, 메디피아)",
      "contact": "031-413-6059",
      "lat": "37.3096515465555",
      "lng": "126.828346149785",
      "region": "경기",
      "district": "안산시"
    },
    {
      "id": 267,
      "name": "이디야커피 안산고잔주공점",
      "address": "경기 안산시 단원구 예술대학로 83 (고잔동)",
      "contact": "031-403-2422",
      "lat": "37.3244241",
      "lng": "126.8371186",
      "region": "경기",
      "district": "안산시"
    },
    {
      "id": 268,
      "name": "이디야커피 안산단원병원점",
      "address": "경기 안산시 단원구 원포공원1로 19 (초지동, 원포빌딩)",
      "contact": "031-405-6102",
      "lat": "37.30037320590141",
      "lng": "126.81247536805851",
      "region": "경기",
      "district": "안산시"
    },
    {
      "id": 269,
      "name": "이디야커피 안산대부북동점",
      "address": "경기 안산시 단원구 대부황금로 1203 (대부북동)",
      "contact": "032-880-1678",
      "lat": "37.265771927397886",
      "lng": "126.57757018911707",
      "region": "경기",
      "district": "안산시"
    },
    {
      "id": 270,
      "name": "이디야커피 안산롯데마트점",
      "address": "경기 안산시 상록구 항가울로 422 (성포동, 롯데마트)",
      "contact": "031-413-7772",
      "lat": "37.3180950426977",
      "lng": "126.846653522411",
      "region": "경기",
      "district": "안산시"
    },
    {
      "id": 271,
      "name": "이디야커피 안산리더스카이점",
      "address": "경기 안산시 단원구 와동로 125 (와동)",
      "contact": "031-402-1219",
      "lat": "37.3409678609412",
      "lng": "126.824393291498",
      "region": "경기",
      "district": "안산시"
    },
    {
      "id": 272,
      "name": "이디야커피 안산반달섬점",
      "address": "경기 안산시 단원구 엠티브이17로 27 (성곡동, 반달섬 파크프라자)",
      "contact": "031-496-0702",
      "lat": "37.30356734302028",
      "lng": "126.73879001953125",
      "region": "경기",
      "district": "안산시"
    },
    {
      "id": 273,
      "name": "이디야커피 안산반월공단점",
      "address": "경기 안산시 단원구 동산로 76 (원시동, 타원TAKRA2지식산업센타)",
      "contact": "031-380-8190",
      "lat": "37.3131453648899",
      "lng": "126.79875992282532",
      "region": "경기",
      "district": "안산시"
    },
    {
      "id": 274,
      "name": "이디야커피 안산반월동점",
      "address": "경기 안산시 상록구 창말2길 25 (건건동)",
      "contact": "031-408-1334",
      "lat": "37.305775565503815",
      "lng": "126.90295415925453",
      "region": "경기",
      "district": "안산시"
    },
    {
      "id": 275,
      "name": "이디야커피 안산본오동2호점",
      "address": "경기 안산시 상록구 샘골로 184 (본오동)",
      "contact": "031-406-7173",
      "lat": "37.30028631078025",
      "lng": "126.86353326550812",
      "region": "경기",
      "district": "안산시"
    },
    {
      "id": 276,
      "name": "이디야커피 안산본오동점",
      "address": "경기 안산시 상록구 샘골로 154 (본오동)",
      "contact": "031-417-7173",
      "lat": "37.2976382",
      "lng": "126.8634068",
      "region": "경기",
      "district": "안산시"
    },
    {
      "id": 277,
      "name": "이디야커피 안산부곡동점",
      "address": "경기 안산시 상록구 부곡로 115 (부곡동)",
      "contact": "031-502-1587",
      "lat": "37.3324274",
      "lng": "126.8629209",
      "region": "경기",
      "district": "안산시"
    },
    {
      "id": 278,
      "name": "이디야커피 안산사동점",
      "address": "경기 안산시 상록구 감골2로 13 (사동, 예누림 분산상가동)",
      "contact": "031-406-0110",
      "lat": "37.29061149902938",
      "lng": "126.85488057047368",
      "region": "경기",
      "district": "안산시"
    },
    {
      "id": 279,
      "name": "이디야커피 안산사동중앙점",
      "address": "경기 안산시 상록구 항가울로 19 (사동)",
      "contact": "031-408-7177",
      "lat": "37.28377192721451",
      "lng": "126.84716929129239",
      "region": "경기",
      "district": "안산시"
    },
    {
      "id": 280,
      "name": "이디야커피 안산상록구청점",
      "address": "경기 안산시 상록구 석호로 107 (사동)",
      "contact": "031-418-7177",
      "lat": "37.30190117907685",
      "lng": "126.8474709905428",
      "region": "경기",
      "district": "안산시"
    },
    {
      "id": 281,
      "name": "이디야커피 안산상록수역점",
      "address": "경기 안산시 상록구 상록수로 44 (본오동, 상림프라자)",
      "contact": "031-408-1021",
      "lat": "37.3022264956787",
      "lng": "126.864775781111",
      "region": "경기",
      "district": "안산시"
    },
    {
      "id": 282,
      "name": "이디야커피 안산석호로점",
      "address": "경기 안산시 상록구 석호로 223 (사동)",
      "contact": null,
      "lat": "37.2940833697485",
      "lng": "126.855391564421",
      "region": "경기",
      "district": "안산시"
    },
    {
      "id": 283,
      "name": "이디야커피 안산성포동점",
      "address": "경기 안산시 상록구 예술광장1로 124 (성포동)",
      "contact": "031-410-5369",
      "lat": "37.3267522",
      "lng": "126.8444645",
      "region": "경기",
      "district": "안산시"
    },
    {
      "id": 284,
      "name": "이디야커피 안산수암동점",
      "address": "경기 안산시 상록구 수암2길 3 (수암동)",
      "contact": "031-413-2299",
      "lat": "37.36422730220068",
      "lng": "126.87687350407661",
      "region": "경기",
      "district": "안산시"
    },
    {
      "id": 285,
      "name": "이디야커피 안산스포츠파크점",
      "address": "경기 안산시 단원구 첨단로 644 (초지동)",
      "contact": "070-4208-3750",
      "lat": "37.29479447404132",
      "lng": "126.79021486476526",
      "region": "경기",
      "district": "안산시"
    },
    {
      "id": 286,
      "name": "이디야커피 안산식물원사거리점",
      "address": "경기 안산시 상록구 도매시장로 91 (일동)",
      "contact": "031-415-1007",
      "lat": "37.3139159",
      "lng": "126.8630028",
      "region": "경기",
      "district": "안산시"
    },
    {
      "id": 287,
      "name": "이디야커피 안산원시역점",
      "address": "경기 안산시 단원구 별망로 555 (원시동)",
      "contact": "031-8084-9007",
      "lat": "37.3010365050936",
      "lng": "126.786946558547",
      "region": "경기",
      "district": "안산시"
    },
    {
      "id": 288,
      "name": "이디야커피 안산월피동점",
      "address": "경기 안산시 상록구 광덕산2로 17 (월피동)",
      "contact": "031-414-3626",
      "lat": "37.3358632",
      "lng": "126.8452322",
      "region": "경기",
      "district": "안산시"
    },
    {
      "id": 289,
      "name": "이디야커피 안산월피현대점",
      "address": "경기 안산시 상록구 충장로 579 (월피동, 안산현대2차아파트 상가동(B동))",
      "contact": "031-403-4001",
      "lat": "37.33001520388095",
      "lng": "126.85027790654494",
      "region": "경기",
      "district": "안산시"
    },
    {
      "id": 290,
      "name": "이디야커피 안산일동점",
      "address": "경기 안산시 상록구 안산대학로 97 (일동)",
      "contact": "031-407-6731",
      "lat": "37.3093344",
      "lng": "126.8686117",
      "region": "경기",
      "district": "안산시"
    },
    {
      "id": 291,
      "name": "이디야커피 안산중앙역점",
      "address": "경기 안산시 단원구 광덕4로 234 (고잔동, 천혜로데오프라자)",
      "contact": "031-410-5585",
      "lat": "37.31431475847805",
      "lng": "126.83865795548908",
      "region": "경기",
      "district": "안산시"
    },
    {
      "id": 292,
      "name": "이디야커피 안산초지점",
      "address": "경기 안산시 단원구 광덕1로 55 (초지동, 21세기타워)",
      "contact": "031-486-3302",
      "lat": "37.30878076740916",
      "lng": "126.81592316481703",
      "region": "경기",
      "district": "안산시"
    },
    {
      "id": 293,
      "name": "이디야커피 안산초지푸르지오점",
      "address": "경기 안산시 단원구 화랑로 160 (초지동, 단지내 상가)",
      "contact": "031-405-8797",
      "lat": "37.3234584486343",
      "lng": "126.805743217983",
      "region": "경기",
      "district": "안산시"
    },
    {
      "id": 294,
      "name": "이디야커피 안산팔곡이동점",
      "address": "경기 안산시 상록구 해안로 1351 (팔곡이동)",
      "contact": "031-415-8920",
      "lat": "37.2971821947664",
      "lng": "126.888044278808",
      "region": "경기",
      "district": "안산시"
    },
    {
      "id": 295,
      "name": "이디야커피 안산한대앞역점",
      "address": "경기 안산시 상록구 중보로 49 (이동, 숭실프라자)",
      "contact": "031-415-4343",
      "lat": "37.30770963021722",
      "lng": "126.8520276947015",
      "region": "경기",
      "district": "안산시"
    },
    {
      "id": 296,
      "name": "이디야커피 안산한대점",
      "address": "경기 안산시 상록구 한양대학로 40 (사동)",
      "contact": "031-501-6331",
      "lat": "37.30089897634978",
      "lng": "126.839115222664",
      "region": "경기",
      "district": "안산시"
    },
    {
      "id": 297,
      "name": "이디야커피 안산한도병원점",
      "address": "경기 안산시 단원구 선부광장로 95 (선부동)",
      "contact": "031-439-0083",
      "lat": "37.3331998",
      "lng": "126.8081801",
      "region": "경기",
      "district": "안산시"
    },
    {
      "id": 298,
      "name": "이디야커피 안산해양점",
      "address": "경기 안산시 상록구 해양로 14 (사동, 안산고잔9차푸르지오 상가동)",
      "contact": "031-417-8227",
      "lat": "37.2943534313856",
      "lng": "126.820822451393",
      "region": "경기",
      "district": "안산시"
    },
    {
      "id": 299,
      "name": "이디야커피 안산호수동점",
      "address": "경기 안산시 단원구 광덕대로 130 (고잔동, 폴리타운)",
      "contact": "031-405-6059",
      "lat": "37.30829349662904",
      "lng": "126.83052653618031",
      "region": "경기",
      "district": "안산시"
    },
    {
      "id": 300,
      "name": "이디야커피 남성역점",
      "address": "서울 동작구 사당로17가길 13 (사당동)",
      "contact": "02-532-8937",
      "lat": "37.4838080",
      "lng": "126.9734519",
      "region": "서울",
      "district": "동작구"
    },
    {
      "id": 301,
      "name": "이디야커피 노들점",
      "address": "서울 동작구 노량진로 200 (노량진동)",
      "contact": "02-3280-3777",
      "lat": "37.5129016",
      "lng": "126.9479158",
      "region": "서울",
      "district": "동작구"
    },
    {
      "id": 302,
      "name": "이디야커피 노량진CTS점",
      "address": "서울 동작구 노량진로 110 (노량진동)",
      "contact": "02-814-7475",
      "lat": "37.5132094",
      "lng": "126.9380558",
      "region": "서울",
      "district": "동작구"
    },
    {
      "id": 303,
      "name": "이디야커피 노량진드림스퀘어점",
      "address": "서울 동작구 노들로2길 7 (노량진동, 노량진 드림스퀘어 복합빌딩)",
      "contact": "02-3280-2003",
      "lat": "37.514162523894726",
      "lng": "126.93865425871968",
      "region": "서울",
      "district": "동작구"
    },
    {
      "id": 304,
      "name": "이디야커피 노량진역사점",
      "address": "서울 동작구 노량진로 지하 130 (노량진동, 9호선 노량진역)",
      "contact": "02-821-4980",
      "lat": "37.513574825476404",
      "lng": "126.94082532227891",
      "region": "서울",
      "district": "동작구"
    },
    {
      "id": 305,
      "name": "이디야커피 대방역점",
      "address": "서울 동작구 노량진로 24 (대방동, 한신빌딩)",
      "contact": "02-811-0740",
      "lat": "37.51290838049896",
      "lng": "126.92834765518518",
      "region": "서울",
      "district": "동작구"
    },
    {
      "id": 306,
      "name": "이디야커피 보라매공원점",
      "address": "서울 동작구 여의대방로 90 (신대방동)",
      "contact": "02-845-2299",
      "lat": "37.4968093",
      "lng": "126.9166701",
      "region": "서울",
      "district": "동작구"
    },
    {
      "id": 307,
      "name": "이디야커피 보라매점",
      "address": "서울 동작구 보라매로5가길 16 (신대방동, 보라매아카데미타워)",
      "contact": "02-836-1013",
      "lat": "37.4913912",
      "lng": "126.9241379",
      "region": "서울",
      "district": "동작구"
    },
    {
      "id": 308,
      "name": "이디야커피 사당역점",
      "address": "서울 동작구 동작대로7길 100 (사당동)",
      "contact": "02-521-6282",
      "lat": "37.4771659",
      "lng": "126.9775506",
      "region": "서울",
      "district": "동작구"
    },
    {
      "id": 309,
      "name": "이디야커피 상도역점",
      "address": "서울 동작구 상도로 277 (상도1동)",
      "contact": "02-3280-0627",
      "lat": "37.5028197",
      "lng": "126.9483433",
      "region": "서울",
      "district": "동작구"
    },
    {
      "id": 310,
      "name": "이디야커피 상도중앙점",
      "address": "서울 동작구 만양로 17 (상도동)",
      "contact": "02-815-2500",
      "lat": "37.50632113638169",
      "lng": "126.94715442128768",
      "region": "서울",
      "district": "동작구"
    },
    {
      "id": 311,
      "name": "이디야커피 상도파크엘점",
      "address": "서울 동작구 양녕로 220 (상도동, 상도역 롯데캐슬 파크엘)",
      "contact": "02-812-4660",
      "lat": "37.5007111108525",
      "lng": "126.945556219571",
      "region": "서울",
      "district": "동작구"
    },
    {
      "id": 312,
      "name": "이디야커피 이수중앙점",
      "address": "서울 동작구 사당로 285 (사당동)",
      "contact": "02-535-1738",
      "lat": "37.4846469",
      "lng": "126.9791939",
      "region": "서울",
      "district": "동작구"
    },
    {
      "id": 313,
      "name": "이디야커피 중앙대점",
      "address": "서울 동작구 흑석로 79 (흑석동)",
      "contact": "02-813-5660",
      "lat": "37.5070302",
      "lng": "126.9584326",
      "region": "서울",
      "district": "동작구"
    },
    {
      "id": 314,
      "name": "이디야커피 중앙대후문점",
      "address": "서울 동작구 흑석로 20 (상도동)",
      "contact": "02-826-9632",
      "lat": "37.5048307436215",
      "lng": "126.9530308556",
      "region": "서울",
      "district": "동작구"
    },
    {
      "id": 315,
      "name": "이디야커피 총신대점",
      "address": "서울 동작구 사당로16가길 96 (사당동) 1,2층",
      "contact": "02-587-8880",
      "lat": "37.4851000",
      "lng": "126.9688365",
      "region": "서울",
      "district": "동작구"
    },
    {
      "id": 316,
      "name": "이디야커피 해군회관점",
      "address": "서울 동작구 여의대방로 194 (대방동)",
      "contact": "02-814-7472",
      "lat": "37.5042598",
      "lng": "126.9222767",
      "region": "서울",
      "district": "동작구"
    },
    {
      "id": 317,
      "name": "이디야커피 흑석역점",
      "address": "서울 동작구 현충로 100-1 (흑석동)",
      "contact": "02-813-0456",
      "lat": "37.5076446931125",
      "lng": "126.964738341052",
      "region": "서울",
      "district": "동작구"
    },
    {
      "id": 318,
      "name": "이디야커피 대전SK점",
      "address": "대전 서구 문정로 41 (탄방동)",
      "contact": "02-728-1546",
      "lat": "36.3471740",
      "lng": "127.3841194",
      "region": "대전",
      "district": "서구"
    },
    {
      "id": 319,
      "name": "이디야커피 대전가수원동점",
      "address": "대전 서구 도안동로11번길 28 (가수원동, 럭키프라자3)",
      "contact": "042-542-9939",
      "lat": "36.3061635",
      "lng": "127.3512911",
      "region": "대전",
      "district": "서구"
    },
    {
      "id": 320,
      "name": "이디야커피 대전갈마동점",
      "address": "대전 서구 신갈마로 203 (갈마동)",
      "contact": "042-523-4805",
      "lat": "36.3517959998526",
      "lng": "127.368084521706",
      "region": "대전",
      "district": "서구"
    },
    {
      "id": 321,
      "name": "이디야커피 대전건양대병원점",
      "address": "대전 서구 관저동로 162 (관저동, 건양프라자)",
      "contact": "042-545-3203",
      "lat": "36.30656788966143",
      "lng": "127.34114659845896",
      "region": "대전",
      "district": "서구"
    },
    {
      "id": 322,
      "name": "이디야커피 대전관저동점",
      "address": "대전 서구 도안대로 25 (관저동)",
      "contact": "042-541-0977",
      "lat": "36.3038191",
      "lng": "127.3343923",
      "region": "대전",
      "district": "서구"
    },
    {
      "id": 323,
      "name": "이디야커피 대전관저제일점",
      "address": "대전 서구 관저동로73번길 15-4 (관저동)",
      "contact": "042-541-7270",
      "lat": "36.298444025266306",
      "lng": "127.33945685914993",
      "region": "대전",
      "district": "서구"
    },
    {
      "id": 324,
      "name": "이디야커피 대전관저중앙점",
      "address": "대전 서구 관저로 31 (관저동, 엠디메디컬센터)",
      "contact": "042-543-3291",
      "lat": "36.296934458918614",
      "lng": "127.32621345900074",
      "region": "대전",
      "district": "서구"
    },
    {
      "id": 325,
      "name": "이디야커피 대전괴정점",
      "address": "대전 서구 괴정로 19 (괴정동)",
      "contact": null,
      "lat": "36.3406303864393",
      "lng": "127.376230254359",
      "region": "대전",
      "district": "서구"
    },
    {
      "id": 326,
      "name": "이디야커피 대전도마사거리점",
      "address": "대전 서구 도산로 41 (도마동)",
      "contact": "042-585-8050",
      "lat": "36.3124401219937",
      "lng": "127.380656417371",
      "region": "대전",
      "district": "서구"
    },
    {
      "id": 327,
      "name": "이디야커피 대전둔산은하수점",
      "address": "대전 서구 둔산로 52 (둔산동)",
      "contact": "042-488-7776",
      "lat": "36.3510333991808",
      "lng": "127.3797282718",
      "region": "대전",
      "district": "서구"
    },
    {
      "id": 328,
      "name": "이디야커피 대전둔산이편한세상점",
      "address": "대전 서구 계룡로629번길 62 (탄방동, 모닝갤러리)",
      "contact": "042-523-8208",
      "lat": "36.3409061686367",
      "lng": "127.394746385176",
      "region": "대전",
      "district": "서구"
    },
    {
      "id": 329,
      "name": "이디야커피 대전목원대점",
      "address": "대전 서구 도안북로117번길 12 (도안동)",
      "contact": "042-822-7720",
      "lat": "36.3306243308266",
      "lng": "127.341792396509",
      "region": "대전",
      "district": "서구"
    },
    {
      "id": 330,
      "name": "이디야커피 대전배재대점",
      "address": "대전 서구 배재로 182 (도마동)",
      "contact": "042-536-7373",
      "lat": "36.324626498882765",
      "lng": "127.3705638054971",
      "region": "대전",
      "district": "서구"
    },
    {
      "id": 331,
      "name": "이디야커피 대전세이브존점",
      "address": "대전 서구 둔산로 201 (둔산동) 세이브존 대전점",
      "contact": "042-488-1292",
      "lat": "36.351593754810466",
      "lng": "127.39572432939204",
      "region": "대전",
      "district": "서구"
    },
    {
      "id": 332,
      "name": "이디야커피 대전시청점",
      "address": "대전 서구 둔산중로 38 (둔산동, 둔산메트로존)",
      "contact": "042-524-5900",
      "lat": "36.3499633715866",
      "lng": "127.387245447251",
      "region": "대전",
      "district": "서구"
    },
    {
      "id": 333,
      "name": "이디야커피 대전용문역점",
      "address": "대전 서구 도산로 372-1 (용문동)",
      "contact": "042-522-9713",
      "lat": "36.337435692911534",
      "lng": "127.39248936501664",
      "region": "대전",
      "district": "서구"
    },
    {
      "id": 334,
      "name": "이디야커피 대전월평중앙점",
      "address": "대전 서구 월평로 57 (월평동)",
      "contact": null,
      "lat": "36.3563657389001",
      "lng": "127.363234764028",
      "region": "대전",
      "district": "서구"
    },
    {
      "id": 335,
      "name": "이디야커피 대전청사후생동점",
      "address": "대전 서구 청사로 189 (둔산동, 정부대전청사)",
      "contact": null,
      "lat": "36.3626829863103",
      "lng": "127.384903880328",
      "region": "대전",
      "district": "서구"
    },
    {
      "id": 336,
      "name": "이디야커피 대전충남고점",
      "address": "대전 서구 둔산남로 164 (탄방동)",
      "contact": "042-472-0966",
      "lat": "36.3488057305027",
      "lng": "127.395715456007",
      "region": "대전",
      "district": "서구"
    },
    {
      "id": 337,
      "name": "이디야커피 대전탄방동점",
      "address": "대전 서구 문정로40번길 64 (탄방동, 메이저타운)",
      "contact": null,
      "lat": "36.34366198746753",
      "lng": "127.3834464569794",
      "region": "대전",
      "district": "서구"
    },
    {
      "id": 338,
      "name": "이디야커피 대전한가람네거리점",
      "address": "대전 서구 문정로 96 (탄방동)",
      "contact": "042-488-1017",
      "lat": "36.3464334770327",
      "lng": "127.389903522194",
      "region": "대전",
      "district": "서구"
    },
    {
      "id": 339,
      "name": "이디야커피 둔산이마트점",
      "address": "대전 서구 둔산북로 41 (둔산동)",
      "contact": "042-485-8335",
      "lat": "36.3563707",
      "lng": "127.3777775",
      "region": "대전",
      "district": "서구"
    },
    {
      "id": 340,
      "name": "이디야커피 전북대구정문점",
      "address": "전북 전주시 덕진구 권삼득로 313 (금암동)",
      "contact": "070-4639-5776",
      "lat": "35.84368636113165",
      "lng": "127.12769352490748",
      "region": "전북",
      "district": "전주시"
    },
    {
      "id": 341,
      "name": "이디야커피 전북도청점",
      "address": "전북 전주시 완산구 홍산중앙로 46 (효자동3가)",
      "contact": "063-224-6330",
      "lat": "35.81762209593479",
      "lng": "127.10927196269631",
      "region": "전북",
      "district": "전주시"
    },
    {
      "id": 342,
      "name": "이디야커피 전주KBS점",
      "address": "전북 전주시 완산구 마전2길 17-8 (효자동3가)",
      "contact": "063-227-4684",
      "lat": "35.8222779",
      "lng": "127.1026943",
      "region": "전북",
      "district": "전주시"
    },
    {
      "id": 343,
      "name": "이디야커피 전주고사점",
      "address": "전북 전주시 완산구 전주객사5길 32 (고사동)",
      "contact": "063-288-1725",
      "lat": "35.8196178",
      "lng": "127.1454455",
      "region": "전북",
      "district": "전주시"
    },
    {
      "id": 344,
      "name": "이디야커피 전주고속터미널점",
      "address": "전북 전주시 덕진구 가리내로 70 (금암동, 전주고속버스터미널)",
      "contact": "063-251-3955",
      "lat": "35.8345597",
      "lng": "127.1292062",
      "region": "전북",
      "district": "전주시"
    },
    {
      "id": 345,
      "name": "이디야커피 전주근영여고점",
      "address": "전북 전주시 완산구 백제대로 276 (중화산동2가)",
      "contact": "063-226-3777",
      "lat": "35.81783384295986",
      "lng": "127.12329782413485",
      "region": "전북",
      "district": "전주시"
    },
    {
      "id": 346,
      "name": "이디야커피 전주기지제호수점",
      "address": "전북 전주시 덕진구 중동로 104-6 (장동)",
      "contact": "070-7755-0907",
      "lat": "35.8426593679098",
      "lng": "127.06446902552",
      "region": "전북",
      "district": "전주시"
    },
    {
      "id": 347,
      "name": "이디야커피 전주만성골드점",
      "address": "전북 전주시 덕진구 만성북로 51-5 (만성동)",
      "contact": "063-213-9960",
      "lat": "35.8488162071051",
      "lng": "127.080470158051",
      "region": "전북",
      "district": "전주시"
    },
    {
      "id": 348,
      "name": "이디야커피 전주만성점",
      "address": "전북 전주시 덕진구 만성로 128 (만성동)",
      "contact": "063-211-7233",
      "lat": "35.8426393136693",
      "lng": "127.07653099657464",
      "region": "전북",
      "district": "전주시"
    },
    {
      "id": 349,
      "name": "이디야커피 전주반월동점",
      "address": "전북 전주시 덕진구 쪽구름로 107 (반월동)",
      "contact": "063-212-9937",
      "lat": "35.87373895514124",
      "lng": "127.07358217314514",
      "region": "전북",
      "district": "전주시"
    },
    {
      "id": 350,
      "name": "이디야커피 전주백제로점",
      "address": "전북 전주시 덕진구 백제대로 750 (인후동2가)",
      "contact": "063-245-5557",
      "lat": "35.8457878",
      "lng": "127.1510088",
      "region": "전북",
      "district": "전주시"
    },
    {
      "id": 351,
      "name": "이디야커피 전주본병원점",
      "address": "전북 전주시 완산구 중화산동2가 751-1",
      "contact": "063-221-5607",
      "lat": "35.8212706",
      "lng": "127.1158429",
      "region": "전북",
      "district": "전주시"
    },
    {
      "id": 352,
      "name": "이디야커피 전주북일점",
      "address": "전북 전주시 덕진구 안골4길 4 (인후동1가)",
      "contact": "063-243-2121",
      "lat": "35.8412352745924",
      "lng": "127.155206596418",
      "region": "전북",
      "district": "전주시"
    },
    {
      "id": 353,
      "name": "이디야커피 전주삼천점",
      "address": "전북 전주시 완산구 용리로 43 (효자동1가)",
      "contact": "063-236-8503",
      "lat": "35.7988211",
      "lng": "127.1146559",
      "region": "전북",
      "district": "전주시"
    },
    {
      "id": 354,
      "name": "이디야커피 전주서곡지구점",
      "address": "전북 전주시 완산구 서곡1길 13-8 (효자동3가)",
      "contact": "063-271-1000",
      "lat": "35.8348325",
      "lng": "127.0992610",
      "region": "전북",
      "district": "전주시"
    },
    {
      "id": 355,
      "name": "이디야커피 전주서부시장점",
      "address": "전북 전주시 완산구 용머리로 167 (효자동1가)",
      "contact": "063-229-8503",
      "lat": "35.8066255",
      "lng": "127.1284212",
      "region": "전북",
      "district": "전주시"
    },
    {
      "id": 356,
      "name": "이디야커피 전주서신바구멀점",
      "address": "전북 전주시 완산구 전룡로 102 (서신동)",
      "contact": "063-255-2608",
      "lat": "35.828439622268",
      "lng": "127.123711754181",
      "region": "전북",
      "district": "전주시"
    },
    {
      "id": 357,
      "name": "이디야커피 전주서신점",
      "address": "전북 전주시 완산구 여울로 17-8 (서신동, 호암빌딩)",
      "contact": "063-254-1060",
      "lat": "35.835099854210796",
      "lng": "127.12094492617108",
      "region": "전북",
      "district": "전주시"
    },
    {
      "id": 358,
      "name": "이디야커피 전주서신주민센터점",
      "address": "전북 전주시 완산구 서신로 47 (서신동)",
      "contact": "063-251-1060",
      "lat": "35.82969299655294",
      "lng": "127.11566320763435",
      "region": "전북",
      "district": "전주시"
    },
    {
      "id": 359,
      "name": "이디야커피 전주신시가지점",
      "address": "전북 전주시 완산구 홍산북로 11-3 (효자동2가)",
      "contact": "010-7178-1581",
      "lat": "35.817663894269415",
      "lng": "127.10275443039035",
      "region": "전북",
      "district": "전주시"
    },
    {
      "id": 360,
      "name": "이디야커피 전주아중리점",
      "address": "전북 전주시 덕진구 석소로 10 (우아동2가)",
      "contact": "063-241-8802",
      "lat": "35.8284057",
      "lng": "127.1700064",
      "region": "전북",
      "district": "전주시"
    },
    {
      "id": 361,
      "name": "이디야커피 전주안골네거리점",
      "address": "전북 전주시 덕진구 안덕원로 248 (인후동1가)",
      "contact": "063-244-1725",
      "lat": "35.8362701",
      "lng": "127.1540649",
      "region": "전북",
      "district": "전주시"
    },
    {
      "id": 362,
      "name": "이디야커피 전주에코점",
      "address": "전북 전주시 덕진구 세병서로 22 (송천동2가)",
      "contact": "063-271-3103",
      "lat": "35.871639301943475",
      "lng": "127.12461134116684",
      "region": "전북",
      "district": "전주시"
    },
    {
      "id": 363,
      "name": "이디야커피 전주우아동점",
      "address": "전북 전주시 덕진구 호성1길 7 (우아동3가)",
      "contact": "063-244-5558",
      "lat": "35.8556724",
      "lng": "127.1553135",
      "region": "전북",
      "district": "전주시"
    },
    {
      "id": 364,
      "name": "이디야커피 전주우아한시티점",
      "address": "전북 전주시 덕진구 우아로 32 (우아동3가)",
      "contact": "063-242-9142",
      "lat": "35.8507374936119",
      "lng": "127.156035775127",
      "region": "전북",
      "district": "전주시"
    },
    {
      "id": 365,
      "name": "이디야커피 전주인후점",
      "address": "전북 전주시 덕진구 건산로 250 (인후동1가)",
      "contact": "063-247-1340",
      "lat": "35.8346239",
      "lng": "127.1645827",
      "region": "전북",
      "district": "전주시"
    },
    {
      "id": 366,
      "name": "이디야커피 전주중산점",
      "address": "전북 전주시 완산구 중산중앙로 7 (중화산동2가)",
      "contact": "063-229-2824",
      "lat": "35.8165923",
      "lng": "127.1189159",
      "region": "전북",
      "district": "전주시"
    },
    {
      "id": 367,
      "name": "이디야커피 전주중화산동점",
      "address": "전북 전주시 완산구 서원로 283 (중화산동2가) 이디야커피 전주중화산동점",
      "contact": "063-227-7277",
      "lat": "35.8122161",
      "lng": "127.1255929",
      "region": "전북",
      "district": "전주시"
    },
    {
      "id": 368,
      "name": "이디야커피 전주진북점",
      "address": "전북 전주시 덕진구 태진로 110 (진북동)",
      "contact": "063-276-2116",
      "lat": "35.83078914265754",
      "lng": "127.13610893575608",
      "region": "전북",
      "district": "전주시"
    },
    {
      "id": 369,
      "name": "이디야커피 전주팔복동점",
      "address": "전북 전주시 덕진구 기린대로 693 (팔복동2가)",
      "contact": "063-211-3358",
      "lat": "35.85303574809437",
      "lng": "127.10566729092062",
      "region": "전북",
      "district": "전주시"
    },
    {
      "id": 370,
      "name": "이디야커피 전주평화사거리점",
      "address": "전북 전주시 완산구 모악로 4764 (평화동1가, 백산한의원)",
      "contact": "063-223-0445",
      "lat": "35.79449732598449",
      "lng": "127.13273441061129",
      "region": "전북",
      "district": "전주시"
    },
    {
      "id": 371,
      "name": "이디야커피 전주평화점",
      "address": "전북 전주시 완산구 소대배기로 12 (평화동2가)",
      "contact": "063-228-5302",
      "lat": "35.7871972",
      "lng": "127.1314134",
      "region": "전북",
      "district": "전주시"
    },
    {
      "id": 372,
      "name": "이디야커피 전주한옥마을점",
      "address": "전북 전주시 완산구 팔달로 126 (전동)",
      "contact": "063-288-8393",
      "lat": "35.8140124",
      "lng": "127.1487432",
      "region": "전북",
      "district": "전주시"
    },
    {
      "id": 373,
      "name": "이디야커피 전주효자우전점",
      "address": "전북 전주시 완산구 우전2길 34 (효자동2가)",
      "contact": "063-222-8971",
      "lat": "35.8074255767828",
      "lng": "127.107480657416",
      "region": "전북",
      "district": "전주시"
    },
    {
      "id": 374,
      "name": "이디야커피 전주효자점",
      "address": "전북 전주시 완산구 효자천변2길 11 (효자동1가)",
      "contact": "070-221-1205",
      "lat": "35.8050684393614",
      "lng": "127.114009641777",
      "region": "전북",
      "district": "전주시"
    },
    {
      "id": 375,
      "name": "이디야커피 전주효천우미린점",
      "address": "전북 전주시 완산구 효천천변길 20 (효자동2가)",
      "contact": "063-222-2263",
      "lat": "35.8022488399884",
      "lng": "127.102497265018",
      "region": "전북",
      "district": "전주시"
    },
    {
      "id": 376,
      "name": "이디야커피 개봉북부점",
      "address": "서울 구로구 경인로40길 12 (개봉동)",
      "contact": "02-2688-3903",
      "lat": "37.4962479",
      "lng": "126.8591391",
      "region": "서울",
      "district": "구로구"
    },
    {
      "id": 377,
      "name": "이디야커피 개봉역점",
      "address": "서울 구로구 남부순환로97길 11 (개봉동)",
      "contact": "02-2616-6876",
      "lat": "37.49425567906598",
      "lng": "126.85837744421302",
      "region": "서울",
      "district": "구로구"
    },
    {
      "id": 378,
      "name": "이디야커피 개봉현대점",
      "address": "서울 구로구 개봉로 69 (개봉동)",
      "contact": "02-2060-2731",
      "lat": "37.4919134",
      "lng": "126.8556252",
      "region": "서울",
      "district": "구로구"
    },
    {
      "id": 379,
      "name": "이디야커피 고척사거리점",
      "address": "서울 구로구 고척로 228-6 (고척동, 종만빌딩)",
      "contact": "02-2060-7843",
      "lat": "37.50590782693333",
      "lng": "126.8582904039366",
      "region": "서울",
      "district": "구로구"
    },
    {
      "id": 380,
      "name": "이디야커피 고척스카이돔점",
      "address": "서울 구로구 경인로 397 (고척동, 골든타워빌딩)",
      "contact": "02-2060-0223",
      "lat": "37.49757339497824",
      "lng": "126.86392369544526",
      "region": "서울",
      "district": "구로구"
    },
    {
      "id": 381,
      "name": "이디야커피 구로NC점",
      "address": "서울 구로구 구로동로 240 (구로동)",
      "contact": "02-864-2438",
      "lat": "37.4999929",
      "lng": "126.8827321",
      "region": "서울",
      "district": "구로구"
    },
    {
      "id": 382,
      "name": "이디야커피 구로구청점",
      "address": "서울 구로구 가마산로25길 9 (구로동, 네오팰리스)",
      "contact": "02-868-1422",
      "lat": "37.4966251468796",
      "lng": "126.890315032666",
      "region": "서울",
      "district": "구로구"
    },
    {
      "id": 383,
      "name": "이디야커피 구로궁동점",
      "address": "서울 구로구 오리로 1304 (궁동) 1층",
      "contact": "02-2066-3303",
      "lat": "37.497825883946476",
      "lng": "126.82937821925746",
      "region": "서울",
      "district": "구로구"
    },
    {
      "id": 384,
      "name": "이디야커피 구로미성점",
      "address": "서울 구로구 구로중앙로 228 (신도림동, 기임빌딩)",
      "contact": "070-7786-2240",
      "lat": "37.50618302845446",
      "lng": "126.87671651690317",
      "region": "서울",
      "district": "구로구"
    },
    {
      "id": 385,
      "name": "이디야커피 구로역광장점",
      "address": "서울 구로구 경인로 572 (구로동, 스타팰리스)",
      "contact": "02-2633-1422",
      "lat": "37.50330519053889",
      "lng": "126.88108330547095",
      "region": "서울",
      "district": "구로구"
    },
    {
      "id": 386,
      "name": "이디야커피 구로이마트점",
      "address": "서울 구로구 디지털로32길 43 (구로동)",
      "contact": "02-857-3323",
      "lat": "37.4844087",
      "lng": "126.8979273",
      "region": "서울",
      "district": "구로구"
    },
    {
      "id": 387,
      "name": "이디야커피 구로코레일점",
      "address": "서울 구로구 구로중앙로 174 (구로동, 구로역)",
      "contact": "02-855-7994",
      "lat": "37.50246213304171",
      "lng": "126.88136511388151",
      "region": "서울",
      "district": "구로구"
    },
    {
      "id": 388,
      "name": "이디야커피 구로하버라인점",
      "address": "서울 구로구 항동로3길 6 (항동, 가온 프라자)",
      "contact": "02-2688-2694",
      "lat": "37.4808134179081",
      "lng": "126.824263948518",
      "region": "서울",
      "district": "구로구"
    },
    {
      "id": 389,
      "name": "이디야커피 남구로역점",
      "address": "서울 구로구 디지털로27길 127 (가리봉동)",
      "contact": "02-830-8618",
      "lat": "37.4847501",
      "lng": "126.8871172",
      "region": "서울",
      "district": "구로구"
    },
    {
      "id": 390,
      "name": "이디야커피 성공회대점",
      "address": "서울 구로구 연동로 312 (항동)",
      "contact": "02-2689-2060",
      "lat": "37.4877465",
      "lng": "126.8243859",
      "region": "서울",
      "district": "구로구"
    },
    {
      "id": 391,
      "name": "이디야커피 신도림메르디앙점",
      "address": "서울 구로구 신도림로 65 (신도림동, 신도림월드메르디앙오피스텔)",
      "contact": "02-3667-3350",
      "lat": "37.5095584",
      "lng": "126.8820617",
      "region": "서울",
      "district": "구로구"
    },
    {
      "id": 392,
      "name": "이디야커피 신도림테크노마트점",
      "address": "서울 구로구 새말로 97 (구로동)",
      "contact": "02-2111-1000",
      "lat": "37.5070143",
      "lng": "126.8902633",
      "region": "서울",
      "district": "구로구"
    },
    {
      "id": 393,
      "name": "이디야커피 제주삼도점",
      "address": "제주특별자치도 제주시 서사로 90 (삼도일동)",
      "contact": "064-759-9595",
      "lat": "33.50457325281268",
      "lng": "126.51964141764821",
      "region": "제주특별자치도",
      "district": "제주시"
    },
    {
      "id": 394,
      "name": "이디야커피 제주삼화점",
      "address": "제주특별자치도 제주시 건주로 66 (도련일동)",
      "contact": "064-727-0222",
      "lat": "33.5135263672391",
      "lng": "126.58033791004",
      "region": "제주특별자치도",
      "district": "제주시"
    },
    {
      "id": 395,
      "name": "이디야커피 제주시청고산동산점",
      "address": "제주특별자치도 제주시 중앙로 264 (이도이동, 위드빌)",
      "contact": "064-752-7333",
      "lat": "33.4963988484378",
      "lng": "126.531763597125",
      "region": "제주특별자치도",
      "district": "제주시"
    },
    {
      "id": 396,
      "name": "이디야커피 제주연동점",
      "address": "제주특별자치도 제주시 신광로 27 (연동)",
      "contact": "064-744-8666",
      "lat": "33.489642682744474",
      "lng": "126.49025164960447",
      "region": "제주특별자치도",
      "district": "제주시"
    },
    {
      "id": 397,
      "name": "이디야커피 제주연북로점",
      "address": "제주특별자치도 제주시 연북로 34 (노형동)",
      "contact": "064-747-0941",
      "lat": "33.48174093800744",
      "lng": "126.48497212172589",
      "region": "제주특별자치도",
      "district": "제주시"
    },
    {
      "id": 398,
      "name": "이디야커피 제주외도점",
      "address": "제주특별자치도 제주시 우정로5길 4 (외도일동)",
      "contact": "064-749-6789",
      "lat": "33.4901978581657",
      "lng": "126.431160741311",
      "region": "제주특별자치도",
      "district": "제주시"
    },
    {
      "id": 399,
      "name": "이디야커피 제주중앙점",
      "address": "제주특별자치도 제주시 관덕로13길 2 (일도일동)",
      "contact": "064-722-0907",
      "lat": "33.51332496742832",
      "lng": "126.52595408341625",
      "region": "제주특별자치도",
      "district": "제주시"
    },
    {
      "id": 400,
      "name": "이디야커피 제주한림점",
      "address": "제주특별자치도 제주시 한림읍 한림로 711 (대림리, 정다운아파트)",
      "contact": "064-796-2025",
      "lat": "33.418390778279495",
      "lng": "126.26422410545636",
      "region": "제주특별자치도",
      "district": "제주시"
    },
    {
      "id": 401,
      "name": "이디야커피 제주화북점",
      "address": "제주특별자치도 제주시 동화로 12 (화북일동)",
      "contact": "064-755-3309",
      "lat": "33.518886487102904",
      "lng": "126.57268194890551",
      "region": "제주특별자치도",
      "district": "제주시"
    },
    {
      "id": 402,
      "name": "이디야커피 군산나운로데오점",
      "address": "전북 군산시 수송로 34 (나운동)",
      "contact": "063-464-7711",
      "lat": "35.9672553",
      "lng": "126.6998829",
      "region": "전북",
      "district": "군산시"
    },
    {
      "id": 403,
      "name": "이디야커피 군산미장점",
      "address": "전북 군산시 미장안길 7 (미장동)",
      "contact": "063-453-1144",
      "lat": "35.9646705",
      "lng": "126.7264871",
      "region": "전북",
      "district": "군산시"
    },