{
  "meta": {
    "brand_id": "3ff36838a25043da883cd106bbec15a1",
    "brand_name": "이디야커피",
    "totalCount": 2408,
    "extractedAt": "2026-03-17T06:41:59.721448+00:00",
    "sourceUrl": "https://members.ediya.com/store"
  },
  "stores": [
    {
      "name": "이디야커피 강동구청점",
      "address": "서울 강동구 성내동 556-2",
      "contact": null,
      "lat": "37.529023524588",
      "lng": "127.122346986378",
      "region": "서울",
      "district": "강동구",
      "id": 1
    },
    {
      "name": "이디야커피 제주중앙점",
      "address": "제주 제주시 일도1동 1473-1",
      "contact": null,
      "lat": "33.513265406047",
      "lng": "126.52593933983",
      "region": "제주",
      "district": "제주시",
      "id": 2
    },
    {
      "name": "이디야커피 성결대점",
      "address": "경기 안양시 만안구 냉천로 2 지상1층",
      "contact": null,
      "lat": "37.382179406644",
      "lng": "126.929922022167",
      "region": "경기",
      "district": "안양시",
      "id": 3
    },
    {
      "name": "이디야커피 가톨릭대점",
      "address": "경기도 부천시 원미구 지봉로 48 1층 103호, 104호",
      "contact": null,
      "lat": "37.486088748802",
      "lng": "126.805092362212",
      "region": "경기도",
      "district": "부천시",
      "id": 4
    },
    {
      "name": "이디야커피 당산역점",
      "address": "서울 영등포구 당산동5가 11-33 당산디오빌 1층",
      "contact": null,
      "lat": "37.533234313659",
      "lng": "126.90226986624",
      "region": "서울",
      "district": "영등포구",
      "id": 5
    },
    {
      "name": "이디야커피 범계점",
      "address": "경기 안양시 동안구 호계동 1042 에메랄드빌딩104호",
      "contact": null,
      "lat": "37.391464349861",
      "lng": "126.953474335326",
      "region": "경기",
      "district": "안양시",
      "id": 6
    },
    {
      "name": "이디야커피 신설점",
      "address": "서울 종로구 난계로29길 30 (숭인동) 1층",
      "contact": null,
      "lat": "37.574216847878",
      "lng": "127.021465883074",
      "region": "서울",
      "district": "종로구",
      "id": 7
    },
    {
      "name": "이디야커피 한성대점",
      "address": "서울 성북구 삼선교로10길 45 1층",
      "contact": null,
      "lat": "37.586224118763",
      "lng": "127.010002981512",
      "region": "서울",
      "district": "성북구",
      "id": 8
    },
    {
      "name": "이디야커피 구미삼성5호점",
      "address": "경북 구미시 임수동 94-1",
      "contact": null,
      "lat": "36.1081889146",
      "lng": "128.413956984133",
      "region": "경북",
      "district": "구미시",
      "id": 9
    },
    {
      "name": "이디야커피 제주연동점",
      "address": "제주 제주시 연동 272-1",
      "contact": null,
      "lat": "33.489689874191",
      "lng": "126.490326694563",
      "region": "제주",
      "district": "제주시",
      "id": 10
    },
    {
      "name": "이디야커피 흥덕이마트점",
      "address": "경기 용인시 기흥구 영덕동 흥덕지구 508블록 이마트 1층",
      "contact": null,
      "lat": "37.275756514492",
      "lng": "127.073368569047",
      "region": "경기",
      "district": "용인시",
      "id": 11
    },
    {
      "name": "이디야커피 덕성여대점",
      "address": "서울 도봉구 삼양로 542 1층(쌍문동)",
      "contact": null,
      "lat": "37.651574284212",
      "lng": "127.012990899109",
      "region": "서울",
      "district": "도봉구",
      "id": 12
    },
    {
      "name": "이디야커피 삼성동점",
      "address": "서울 강남구 테헤란로88길 10 101호",
      "contact": null,
      "lat": "37.506882033169",
      "lng": "127.059436310398",
      "region": "서울",
      "district": "강남구",
      "id": 13
    },
    {
      "name": "이디야커피 창동역점",
      "address": "서울 도봉구 창동 13번지 103호",
      "contact": null,
      "lat": "37.653384510291",
      "lng": "127.049712018397",
      "region": "서울",
      "district": "도봉구",
      "id": 14
    },
    {
      "name": "이디야커피 역삼월드점",
      "address": "서울 강남구 역삼동 754-2 도곡프라자 102",
      "contact": null,
      "lat": "37.498529526371",
      "lng": "127.047949057745",
      "region": "서울",
      "district": "강남구",
      "id": 15
    },
    {
      "name": "이디야커피 방배역점",
      "address": "서울 서초구 방배동 910-9",
      "contact": null,
      "lat": "37.482180522338",
      "lng": "126.996888512874",
      "region": "서울",
      "district": "서초구",
      "id": 16
    },
    {
      "name": "이디야커피 역삼플래티넘점",
      "address": "서울 강남구 역삼동 826-37 쌍용플래티넘상가 B-108",
      "contact": null,
      "lat": "37.495399841537",
      "lng": "127.030405671834",
      "region": "서울",
      "district": "강남구",
      "id": 17
    },
    {
      "name": "이디야커피 천호현대점",
      "address": "서울 강동구 천호동 432-2",
      "contact": null,
      "lat": "37.541030630046",
      "lng": "127.123715369459",
      "region": "서울",
      "district": "강동구",
      "id": 18
    },
    {
      "name": "이디야커피 고잔이마트점",
      "address": "경기 안산시 단원구 고잔동 742-6 이마트고잔점 3층",
      "contact": null,
      "lat": "37.303124523709",
      "lng": "126.813334794579",
      "region": "경기",
      "district": "안산시",
      "id": 19
    },
    {
      "name": "이디야커피 중앙대점",
      "address": "서울 동작구 흑석동 195-19",
      "contact": null,
      "lat": "37.507051845846",
      "lng": "126.95841077392",
      "region": "서울",
      "district": "동작구",
      "id": 20
    },
    {
      "name": "이디야커피 배화여대점",
      "address": "서울 종로구 필운동 46",
      "contact": null,
      "lat": "37.577797584683",
      "lng": "126.967514068701",
      "region": "서울",
      "district": "종로구",
      "id": 21
    },
    {
      "name": "이디야커피 수원영통점",
      "address": "경기 수원시 영통구 영통동 995-5",
      "contact": null,
      "lat": "37.252763680168",
      "lng": "127.073443205547",
      "region": "경기",
      "district": "수원시",
      "id": 22
    },
    {
      "name": "이디야커피 둔산이마트점",
      "address": "대전 서구 둔산동 959-2 이마트 3층",
      "contact": null,
      "lat": "36.356349281134",
      "lng": "127.378183180925",
      "region": "대전",
      "district": "서구",
      "id": 23
    },
    {
      "name": "이디야커피 전주평화점",
      "address": "전북 전주시 완산구 평화동2가 890-2",
      "contact": null,
      "lat": "35.787144464595",
      "lng": "127.131408103901",
      "region": "전북",
      "district": "전주시",
      "id": 24
    },
    {
      "name": "이디야커피 구로이마트점",
      "address": "서울 구로구 구로동 188-26",
      "contact": null,
      "lat": "37.484349346153",
      "lng": "126.897924004844",
      "region": "서울",
      "district": "구로구",
      "id": 25
    },
    {
      "name": "이디야커피 제주일도점",
      "address": "제주특별자치도 제주시 연수로3길 3",
      "contact": null,
      "lat": "33.5024864",
      "lng": "126.5432028",
      "region": "제주특별자치도",
      "district": "제주시",
      "id": 26
    },
    {
      "name": "이디야커피 군산이마트점",
      "address": "전북 군산시 경암동 590-296",
      "contact": null,
      "lat": "35.982739626925",
      "lng": "126.734722892242",
      "region": "전북",
      "district": "군산시",
      "id": 27
    },
    {
      "name": "이디야커피 광운대점",
      "address": "서울 노원구 월계동 465-10",
      "contact": null,
      "lat": "37.620332384361",
      "lng": "127.058425510493",
      "region": "서울",
      "district": "노원구",
      "id": 28
    },
    {
      "name": "이디야커피 남동공단점",
      "address": "인천 남동구 고잔동 637",
      "contact": null,
      "lat": "37.404936518729",
      "lng": "126.69729447713",
      "region": "인천",
      "district": "남동구",
      "id": 29
    },
    {
      "name": "이디야커피 한국수출입은행점",
      "address": "서울특별시 영등포구 은행로 38 (여의도동 한국수출입은행 )",
      "contact": null,
      "lat": "37.52863678341",
      "lng": "126.923400022358",
      "region": "서울특별시",
      "district": "영등포구",
      "id": 30
    },
    {
      "name": "이디야커피 상명대점",
      "address": "서울 종로구 홍지동 60-2",
      "contact": null,
      "lat": "37.601360295893",
      "lng": "126.956229366226",
      "region": "서울",
      "district": "종로구",
      "id": 31
    },
    {
      "name": "이디야커피 서초법조타운점",
      "address": "서울 서초구 서초중앙로24길 7 (서초동,동천빌딩) 1층 101호",
      "contact": null,
      "lat": "37.494786575615",
      "lng": "127.01450160484",
      "region": "서울",
      "district": "서초구",
      "id": 32
    },
    {
      "name": "이디야커피 명지대점",
      "address": "서울 서대문구 남가좌동 거북골로 35",
      "contact": null,
      "lat": "37.579439078229",
      "lng": "126.924086134056",
      "region": "서울",
      "district": "서대문구",
      "id": 33
    },
    {
      "name": "이디야커피 전주고사점",
      "address": "전북 전주시 완산구 고사동 55-6",
      "contact": null,
      "lat": "35.819620619917",
      "lng": "127.145444329316",
      "region": "전북",
      "district": "전주시",
      "id": 34
    },
    {
      "name": "이디야커피 을지로3가점",
      "address": "서울 중구 저동2가 78 비즈센터 102",
      "contact": null,
      "lat": "37.565454365517",
      "lng": "126.989677209156",
      "region": "서울",
      "district": "중구",
      "id": 35
    },
    {
      "name": "이디야커피 서수원이마트점",
      "address": "경기 수원시 권선구 수인로 291",
      "contact": null,
      "lat": "37.2826287942",
      "lng": "126.9701447216",
      "region": "경기",
      "district": "수원시",
      "id": 36
    },
    {
      "name": "이디야커피 올림픽공원점",
      "address": "서울 송파구 방이동 35-4 아이스페이스잠실2 105",
      "contact": null,
      "lat": "37.516108505271",
      "lng": "127.109553081237",
      "region": "서울",
      "district": "송파구",
      "id": 37
    },
    {
      "name": "이디야커피 숭인점",
      "address": "서울 종로구 숭인동 1054번지",
      "contact": null,
      "lat": "37.575280897444",
      "lng": "127.021603730592",
      "region": "서울",
      "district": "종로구",
      "id": 38
    },
    {
      "name": "이디야커피 목동파라곤점",
      "address": "서울 양천구 목동 917 목동파라곤 지하1층",
      "contact": null,
      "lat": "37.529503855685",
      "lng": "126.875163279289",
      "region": "서울",
      "district": "양천구",
      "id": 39
    },
    {
      "name": "이디야커피 전주고속터미널점",
      "address": "전북 전주시 덕진구 금암동 767-2 고속터미널 106호",
      "contact": null,
      "lat": "35.834848979479",
      "lng": "127.129056209695",
      "region": "전북",
      "district": "전주시",
      "id": 40
    },
    {
      "name": "이디야커피 건대역점",
      "address": "서울 광진구 화양동 7-3 한림타워 101호",
      "contact": null,
      "lat": "37.540790534676",
      "lng": "127.069044858856",
      "region": "서울",
      "district": "광진구",
      "id": 41
    },
    {
      "name": "이디야커피 동대문점",
      "address": "서울 중구 을지로6가 18-37 삼정빌딩 1층",
      "contact": null,
      "lat": "37.567707051304",
      "lng": "127.007764964668",
      "region": "서울",
      "district": "중구",
      "id": 42
    },
    {
      "name": "이디야커피 종로3가점",
      "address": "서울 종로구 종로3가 124번지",
      "contact": null,
      "lat": "37.570100047637",
      "lng": "126.991537502469",
      "region": "서울",
      "district": "종로구",
      "id": 43
    },
    {
      "name": "이디야커피 수원매탄점",
      "address": "경기 수원시 영통구 효원로 393 1층",
      "contact": null,
      "lat": "37.259135837792",
      "lng": "127.044550311567",
      "region": "경기",
      "district": "수원시",
      "id": 44
    },
    {
      "name": "이디야커피 평촌학원가점",
      "address": "경기 안양시 동안구 호계동 1058-6",
      "contact": null,
      "lat": "37.383829382222",
      "lng": "126.959174481283",
      "region": "경기",
      "district": "안양시",
      "id": 45
    },
    {
      "name": "이디야커피 대학로점",
      "address": "서울 종로구 대학로10길 17 동숭동복합건물 1층 9-1호",
      "contact": null,
      "lat": "37.582087138779",
      "lng": "127.003179039931",
      "region": "서울",
      "district": "종로구",
      "id": 46
    },
    {
      "name": "이디야커피 정동점",
      "address": "서울 중구 정동 갑도빌딩 1층 23-8",
      "contact": null,
      "lat": "37.567980836444",
      "lng": "126.969356575735",
      "region": "서울",
      "district": "중구",
      "id": 47
    },
    {
      "name": "이디야커피 거여점",
      "address": "서울 송파구 거여동 26-2 1층",
      "contact": null,
      "lat": "37.493502935737",
      "lng": "127.144190305957",
      "region": "서울",
      "district": "송파구",
      "id": 48
    },
    {
      "name": "이디야커피 삼성한전점",
      "address": "서울 강남구 테헤란로 107길 11(삼성동 169-10)",
      "contact": null,
      "lat": "37.510429028986",
      "lng": "127.065058195925",
      "region": "서울",
      "district": "강남구",
      "id": 49
    },
    {
      "name": "이디야커피 사상이마트점",
      "address": "부산 사상구 괘법동 531-2번지 이마트 사상점내",
      "contact": null,
      "lat": "35.164167930774",
      "lng": "128.978873849757",
      "region": "부산",
      "district": "사상구",
      "id": 50
    },
    {
      "name": "이디야커피 종로5가점",
      "address": "서울 종로구 대학로 33 1층 103호(효제동, 포레스트힐시티)",
      "contact": null,
      "lat": "37.574223289189",
      "lng": "127.00189895964",
      "region": "서울",
      "district": "종로구",
      "id": 51
    },
    {
      "name": "이디야커피 구미삼성점(해피플러스)",
      "address": "경북 구미시 공단동 259번지 (삼성전자1사업장내)",
      "contact": null,
      "lat": "36.099708604587",
      "lng": "128.391383986075",
      "region": "경북",
      "district": "구미시",
      "id": 52
    },
    {
      "name": "이디야커피 둔촌점",
      "address": "서울 강동구 양재대로 1377 1층 9호",
      "contact": null,
      "lat": "37.529325419929",
      "lng": "127.136281038938",
      "region": "서울",
      "district": "강동구",
      "id": 53
    },
    {
      "name": "이디야커피 동서울대점",
      "address": "경기 성남시 수정구 복정동 686-1",
      "contact": null,
      "lat": "37.458999731623",
      "lng": "127.1268759949",
      "region": "경기",
      "district": "성남시",
      "id": 54
    },
    {
      "name": "이디야커피 강동역점",
      "address": "서울 강동구 천호동 450번지 강동상떼빌 제엘106호",
      "contact": null,
      "lat": "37.537012165004",
      "lng": "127.130420516704",
      "region": "서울",
      "district": "강동구",
      "id": 55
    },
    {
      "name": "이디야커피 태평역점",
      "address": "경기 성남시 수정구 태평동 6455번지 동인트루빌 101호",
      "contact": null,
      "lat": "37.440342858872",
      "lng": "127.128996003441",
      "region": "경기",
      "district": "성남시",
      "id": 56
    },
    {
      "name": "이디야커피 인하대점",
      "address": "인천 남구 용현동 199-12 1층",
      "contact": null,
      "lat": "37.451949486899",
      "lng": "126.654533970208",
      "region": "인천",
      "district": "남구",
      "id": 57
    },
    {
      "name": "이디야커피 잠원논현점",
      "address": "서울 서초구 잠원동 38-26",
      "contact": null,
      "lat": "37.510920970564",
      "lng": "127.020069545608",
      "region": "서울",
      "district": "서초구",
      "id": 58
    },
    {
      "name": "이디야커피 성빈센트병원점",
      "address": "경기 수원시 팔달구 지동 성빈센트병원 93-6 1층",
      "contact": null,
      "lat": "37.277969180605",
      "lng": "127.027530652046",
      "region": "경기",
      "district": "수원시",
      "id": 59
    },
    {
      "name": "이디야커피 의정부중앙점",
      "address": "경기 의정부시 행복로 25 지하1층,지상1층",
      "contact": null,
      "lat": "37.741485403444",
      "lng": "127.050011405608",
      "region": "경기",
      "district": "의정부시",
      "id": 60
    },
    {
      "name": "이디야커피 남양주마석점",
      "address": "경기 남양주시 화도읍 마석우리 383-1",
      "contact": null,
      "lat": "37.657225036908",
      "lng": "127.301986139883",
      "region": "경기",
      "district": "남양주시",
      "id": 61
    },
    {
      "name": "이디야커피 인천시청점",
      "address": "인천 남동구 간석동 482-20",
      "contact": null,
      "lat": "37.456913578713",
      "lng": "126.704173989811",
      "region": "인천",
      "district": "남동구",
      "id": 62
    },
    {
      "name": "이디야커피 한림대점",
      "address": "강원 춘천시 교동 11-1 번지",
      "contact": null,
      "lat": "37.883219221241",
      "lng": "127.737665144032",
      "region": "강원",
      "district": "춘천시",
      "id": 63
    },
    {
      "name": "이디야커피 동대문역점",
      "address": "서울 종로구 율곡로 286 (종로6가, 야드인빌딩) 2층",
      "contact": null,
      "lat": "37.571516406027",
      "lng": "127.008548688014",
      "region": "서울",
      "district": "종로구",
      "id": 64
    },
    {
      "name": "이디야커피 전주삼천점",
      "address": "전북 전주시 완산구 효자동1가 669-4 이디야 커피",
      "contact": null,
      "lat": "35.798849200175",
      "lng": "127.11465601146",
      "region": "전북",
      "district": "전주시",
      "id": 65
    },
    {
      "name": "이디야커피 성수아카데미점",
      "address": "서울 성동구 성수동2가 277-17성수아카데미타워",
      "contact": null,
      "lat": "37.545193441876",
      "lng": "127.057819135529",
      "region": "서울",
      "district": "성동구",
      "id": 66
    },
    {
      "name": "이디야커피 양재점",
      "address": "서울 서초구 남부순환로347길 38 1층",
      "contact": null,
      "lat": "37.486026377027",
      "lng": "127.031487443707",
      "region": "서울",
      "district": "서초구",
      "id": 67
    },
    {
      "name": "이디야커피 청량리점",
      "address": "서울 동대문구 왕산로 225 미주상가 1층 10호",
      "contact": null,
      "lat": "37.582121037563",
      "lng": "127.047087850763",
      "region": "서울",
      "district": "동대문구",
      "id": 68
    },
    {
      "name": "이디야커피 갈산역점",
      "address": "인천 부평구 청천동 남광 센트렉스 1층 108호",
      "contact": null,
      "lat": "37.518299897567",
      "lng": "126.720812252501",
      "region": "인천",
      "district": "부평구",
      "id": 69
    },
    {
      "name": "이디야커피 미아역점",
      "address": "서울 강북구 미아동 207-3",
      "contact": null,
      "lat": "37.627072676494",
      "lng": "127.025447639102",
      "region": "서울",
      "district": "강북구",
      "id": 70
    },
    {
      "name": "이디야커피 역삼역점",
      "address": "서울 강남구 역삼동 643-10",
      "contact": null,
      "lat": "37.501810067403",
      "lng": "127.035212433939",
      "region": "서울",
      "district": "강남구",
      "id": 71
    },
    {
      "name": "이디야커피 전주효자점",
      "address": "전북 전주시 완산구 효자천변2길 11 1층",
      "contact": null,
      "lat": "35.805068439361",
      "lng": "127.114009641777",
      "region": "전북",
      "district": "전주시",
      "id": 72
    },
    {
      "name": "이디야커피 노량진CTS점",
      "address": "서울 동작구 노량진동 41-5건설상가102호",
      "contact": null,
      "lat": "37.513198571752",
      "lng": "126.938025027706",
      "region": "서울",
      "district": "동작구",
      "id": 73
    },
    {
      "name": "이디야커피 광명소하이마트점",
      "address": "경기 광명시 소하로 97",
      "contact": null,
      "lat": "37.446595493317",
      "lng": "126.884554356152",
      "region": "경기",
      "district": "광명시",
      "id": 74
    },
    {
      "name": "이디야커피 미금점",
      "address": "경기 성남시 분당구 금곡동 155 우방코아 104",
      "contact": null,
      "lat": "37.350404028065",
      "lng": "127.110034175711",
      "region": "경기",
      "district": "성남시",
      "id": 75
    },
    {
      "name": "이디야커피 전주서신점",
      "address": "전라북도 전주시 완산구 여울로 17-8 (서신동 호암빌딩 )",
      "contact": null,
      "lat": "35.835145835002",
      "lng": "127.120928394041",
      "region": "전라북도",
      "district": "전주시",
      "id": 76
    },
    {
      "name": "이디야커피 신당점",
      "address": "서울 중구 신당동 241-5",
      "contact": null,
      "lat": "37.563554586767",
      "lng": "127.014818261582",
      "region": "서울",
      "district": "중구",
      "id": 77
    },
    {
      "name": "이디야커피 진접이마트점",
      "address": "경기 남양주시 진접읍 연평리 101-14 외11필지2층",
      "contact": null,
      "lat": "37.708928022628",
      "lng": "127.181840204559",
      "region": "경기",
      "district": "남양주시",
      "id": 78
    },
    {
      "name": "이디야커피 부산남천동점",
      "address": "부산 수영구 남천동 293 1층",
      "contact": null,
      "lat": "35.138844042709",
      "lng": "129.107778484766",
      "region": "부산",
      "district": "수영구",
      "id": 79
    },
    {
      "name": "이디야커피 군자역점",
      "address": "서울 광진구 능동로 290 (능동, 삼일빌딩) 1층 105호",
      "contact": null,
      "lat": "37.555600329625",
      "lng": "127.078977051761",
      "region": "서울",
      "district": "광진구",
      "id": 80
    },
    {
      "name": "이디야커피 서초점",
      "address": "서울 서초구 서초3동 서초대로48길 16      (1555-17번지) 1층",
      "contact": null,
      "lat": "37.49205506958",
      "lng": "127.011321333465",
      "region": "서울",
      "district": "서초구",
      "id": 81
    },
    {
      "name": "이디야커피 평택동점",
      "address": "경기 평택시 평택동 37-23",
      "contact": null,
      "lat": "36.993056931143",
      "lng": "127.087382832474",
      "region": "경기",
      "district": "평택시",
      "id": 82
    },
    {
      "name": "이디야커피 수유역점",
      "address": "서울 강북구 수유동 191-2",
      "contact": null,
      "lat": "37.639390665593",
      "lng": "127.026747998462",
      "region": "서울",
      "district": "강북구",
      "id": 83
    },
    {
      "name": "이디야커피 중계점",
      "address": "서울 노원구 동일로204가길 34 103호",
      "contact": null,
      "lat": "37.640750669937",
      "lng": "127.068235375362",
      "region": "서울",
      "district": "노원구",
      "id": 84
    },
    {
      "name": "이디야커피 강서구청점",
      "address": "서울 강서구 화곡동 981-1",
      "contact": null,
      "lat": "37.550340155202",
      "lng": "126.848774542457",
      "region": "서울",
      "district": "강서구",
      "id": 85
    },
    {
      "name": "이디야커피 의정부민락점",
      "address": "경기 의정부시 민락동 700-3 한영빌딩 104호0",
      "contact": null,
      "lat": "37.740413910127",
      "lng": "127.093368397938",
      "region": "경기",
      "district": "의정부시",
      "id": 86
    },
    {
      "name": "이디야커피 남양주호평점",
      "address": "경기 남양주시 호평동 640 메인씨네마타워 111호",
      "contact": null,
      "lat": "37.655074184073",
      "lng": "127.244077896992",
      "region": "경기",
      "district": "남양주시",
      "id": 87
    },
    {
      "name": "이디야커피 춘천점",
      "address": "강원 춘천시 시청길10번길 4-1 1층,2층",
      "contact": null,
      "lat": "37.880075746223",
      "lng": "127.72857233949",
      "region": "강원",
      "district": "춘천시",
      "id": 88
    },
    {
      "name": "이디야커피 서현점",
      "address": "경기 성남시 분당구 서현동 250-4 금호리빙스텔 108호",
      "contact": null,
      "lat": "37.386172073078",
      "lng": "127.123687442002",
      "region": "경기",
      "district": "성남시",
      "id": 89
    },
    {
      "name": "이디야커피 문산점",
      "address": "경기 파주시 문산읍 문향로 70 (문산리, 동양슈퍼마켓) 2층",
      "contact": null,
      "lat": "37.85796403852",
      "lng": "126.785422196853",
      "region": "경기",
      "district": "파주시",
      "id": 90
    },
    {
      "name": "이디야커피 고대점",
      "address": "서울 성북구 안암동5가 103-101",
      "contact": null,
      "lat": "37.584238647848",
      "lng": "127.029594905417",
      "region": "서울",
      "district": "성북구",
      "id": 91
    },
    {
      "name": "이디야커피 경주점",
      "address": "경북 경주시 화랑로 101",
      "contact": null,
      "lat": "35.844723586695",
      "lng": "129.211379699816",
      "region": "경북",
      "district": "경주시",
      "id": 92
    },
    {
      "name": "이디야커피 마포점",
      "address": "서울 마포구 도화동 250-1",
      "contact": null,
      "lat": "37.539789864268",
      "lng": "126.947353714441",
      "region": "서울",
      "district": "마포구",
      "id": 93
    },
    {
      "name": "이디야커피 은평구청점",
      "address": "서울 은평구 녹번동 212",
      "contact": null,
      "lat": "37.601590213528",
      "lng": "126.929567817393",
      "region": "서울",
      "district": "은평구",
      "id": 94
    },
    {
      "name": "이디야커피 인천원당점",
      "address": "인천 서구 원당동 희림타워1층 104호",
      "contact": null,
      "lat": "37.593210355094",
      "lng": "126.698802642615",
      "region": "인천",
      "district": "서구",
      "id": 95
    },
    {
      "name": "이디야커피 안동점",
      "address": "경북 안동시 삼산동 111-1번지",
      "contact": null,
      "lat": "36.565987256856",
      "lng": "128.731399809735",
      "region": "경북",
      "district": "안동시",
      "id": 96
    },
    {
      "name": "이디야커피 안양점",
      "address": "경기 안양시 만안구 안양동 668-33",
      "contact": null,
      "lat": "37.400529132731",
      "lng": "126.920580616648",
      "region": "경기",
      "district": "안양시",
      "id": 97
    },
    {
      "name": "이디야커피 평촌점",
      "address": "경기 안양시 동안구 관양동 벌말프라자 107호 1604-4",
      "contact": null,
      "lat": "37.3938501004",
      "lng": "126.9632661456",
      "region": "경기",
      "district": "안양시",
      "id": 98
    },
    {
      "name": "이디야커피 단대죽전점",
      "address": "경기 용인시 수지구 죽전로144번길 7-5 1층 108호",
      "contact": null,
      "lat": "37.323747863002",
      "lng": "127.124648996293",
      "region": "경기",
      "district": "용인시",
      "id": 99
    },
    {
      "name": "이디야커피 서귀포이마트점",
      "address": "제주 서귀포시 법환동 841-2 이마트서귀포점 내 1층(푸드코트옆)",
      "contact": null,
      "lat": "33.248280877283",
      "lng": "126.508824082298",
      "region": "제주",
      "district": "서귀포시",
      "id": 100
    },
    {
      "name": "이디야커피 문경점촌역점",
      "address": "경북 문경시 신흥로 163 (점촌동, 중앙관광) 0545525111",
      "contact": null,
      "lat": "36.595641456075",
      "lng": "128.202275716654",
      "region": "경북",
      "district": "문경시",
      "id": 101
    },
    {
      "name": "이디야커피 대부도펜션타운점",
      "address": "경기 안산시 단원구 참살이2길 12 (선감동) 나동 2층",
      "contact": null,
      "lat": "37.233223423147",
      "lng": "126.624382304288",
      "region": "경기",
      "district": "안산시",
      "id": 102
    },
    {
      "name": "이디야커피 목포법원점",
      "address": "전남 목포시 후광대로105번길 13 (옥암동) 1층",
      "contact": null,
      "lat": "34.812223519631",
      "lng": "126.44341059253",
      "region": "전남",
      "district": "목포시",
      "id": 103
    },
    {
      "name": "이디야커피 수원삼성정문점",
      "address": "경기 수원시 영통구 삼성로 186-1 (매탄동) 1층",
      "contact": null,
      "lat": "37.259433149218",
      "lng": "127.058315481174",
      "region": "경기",
      "district": "수원시",
      "id": 104
    },
    {
      "name": "이디야커피 포항영일대점",
      "address": "경북 포항시 북구 해안로 115 (두호동) 1층",
      "contact": null,
      "lat": "36.058969392673",
      "lng": "129.378877084129",
      "region": "경북",
      "district": "포항시",
      "id": 105
    },
    {
      "name": "이디야커피 대전송촌동점",
      "address": "대전 대덕구 선비마을로 14 (송촌동) 이디야커피",
      "contact": null,
      "lat": "36.362415267251",
      "lng": "127.446733500337",
      "region": "대전",
      "district": "대덕구",
      "id": 106
    },
    {
      "name": "이디야커피 고흥군청점",
      "address": "전남 고흥군 고흥읍 고흥군청로 26 102호",
      "contact": null,
      "lat": "34.604751865605",
      "lng": "127.279547849871",
      "region": "전남",
      "district": "고흥군",
      "id": 107
    },
    {
      "name": "이디야커피 동탄산척중앙점",
      "address": "경기 화성시 동탄산척로2나길 10-11 (산척동) 1층 101호",
      "contact": null,
      "lat": "37.174778602124",
      "lng": "127.112916203095",
      "region": "경기",
      "district": "화성시",
      "id": 108
    },
    {
      "name": "이디야커피 하남덕풍초교점",
      "address": "경기 하남시 신장로 200 (덕풍동) 1층",
      "contact": null,
      "lat": "37.542985212659",
      "lng": "127.199146416603",
      "region": "경기",
      "district": "하남시",
      "id": 109
    },
    {
      "name": "이디야커피 춘천삭주로점",
      "address": "강원 춘천시 삭주로 197-1 (후평동) 1층",
      "contact": null,
      "lat": "37.886912000003",
      "lng": "127.752164348927",
      "region": "강원",
      "district": "춘천시",
      "id": 110
    },
    {
      "name": "이디야커피 수원터미널점",
      "address": "경기 수원시 권선구 경수대로 270 (권선동, 터미널동, 할인점동) 1305호",
      "contact": null,
      "lat": "37.250188108822",
      "lng": "127.020700595916",
      "region": "경기",
      "district": "수원시",
      "id": 111
    },
    {
      "name": "이디야커피 평택안중홈플러스점",
      "address": "경기 평택시 안중읍 서동대로 1489 홈플러스 내",
      "contact": null,
      "lat": "36.990235828187",
      "lng": "126.916382789894",
      "region": "경기",
      "district": "평택시",
      "id": 112
    },
    {
      "name": "이디야커피 서울삼성내과점",
      "address": "서울 송파구 백제고분로 126 (잠실동, 오룡빌딩) 1층 103호, 104호",
      "contact": null,
      "lat": "37.506170203987",
      "lng": "127.08075330646",
      "region": "서울",
      "district": "송파구",
      "id": 113
    },
    {
      "name": "이디야커피 성남고등동점",
      "address": "경기 성남시 수정구 청계산로4길 31 (고등동) 1층",
      "contact": null,
      "lat": "37.423837508157",
      "lng": "127.101027969785",
      "region": "경기",
      "district": "성남시",
      "id": 114
    },
    {
      "name": "이디야커피 진주혁신소호점",
      "address": "경남 진주시 범골로54번길 17 (충무공동) 1층 105,105호",
      "contact": null,
      "lat": "35.168826016635",
      "lng": "128.132285517128",
      "region": "경남",
      "district": "진주시",
      "id": 115
    },
    {
      "name": "이디야커피 군산시민문화회관점",
      "address": "전북 군산시 대학로 316 (나운동, 시민프라자) 1층 106호",
      "contact": null,
      "lat": "35.965663321752",
      "lng": "126.694379307984",
      "region": "전북",
      "district": "군산시",
      "id": 116
    },
    {
      "name": "이디야커피 구의자양로점",
      "address": "서울 광진구 자양로 251 (구의동) 1층",
      "contact": null,
      "lat": "37.548999103663",
      "lng": "127.089309502858",
      "region": "서울",
      "district": "광진구",
      "id": 117
    },
    {
      "name": "이디야커피 순천연향2지구점",
      "address": "전남 순천시 율산길 48 (연향동, 투다리) 1층",
      "contact": null,
      "lat": "34.940758240346",
      "lng": "127.527124473637",
      "region": "전남",
      "district": "순천시",
      "id": 118
    },
    {
      "name": "이디야커피 양주IC점",
      "address": "경기 양주시 화합로 1631 (회암동) 1층 A동",
      "contact": null,
      "lat": "37.838408749898",
      "lng": "127.087192766828",
      "region": "경기",
      "district": "양주시",
      "id": 119
    },
    {
      "name": "이디야커피 안산대부북동점",
      "address": "경기 안산시 단원구 대부황금로 1203 (대부북동) 이디야커피",
      "contact": null,
      "lat": "37.265771055328",
      "lng": "126.577553057877",
      "region": "경기",
      "district": "안산시",
      "id": 120
    },
    {
      "name": "이디야커피 동탄하나로유통센터점",
      "address": "경기 화성시 동탄순환대로27길 30 (영천동) 1층",
      "contact": null,
      "lat": "37.208177958728",
      "lng": "127.105651750706",
      "region": "경기",
      "district": "화성시",
      "id": 121
    },
    {
      "name": "이디야커피 홍성점",
      "address": "충남 홍성군 홍성읍 조양로247번길 9 (롯데마트, 홍성터미널) 4층 406호, 407호",
      "contact": null,
      "lat": "36.601039436815",
      "lng": "126.676313860442",
      "region": "충남",
      "district": "홍성군",
      "id": 122
    },
    {
      "name": "이디야커피 충남당진신평점",
      "address": "충남 당진시 신평면 거산3거리길 43 1~2호",
      "contact": null,
      "lat": "36.881548132073",
      "lng": "126.755020305052",
      "region": "충남",
      "district": "당진시",
      "id": 123
    },
    {
      "name": "이디야커피 남양주팔당한강점",
      "address": "경기 남양주시 와부읍 팔당로 151 3층",
      "contact": null,
      "lat": "37.544635335951",
      "lng": "127.247785480212",
      "region": "경기",
      "district": "남양주시",
      "id": 124
    },
    {
      "name": "이디야커피 동대구우방유쉘점",
      "address": "대구 동구 아양로 28 (신암동) 이디야커피",
      "contact": null,
      "lat": "35.881459485771",
      "lng": "128.617165527827",
      "region": "대구",
      "district": "동구",
      "id": 125
    },
    {
      "name": "이디야커피 충주문화점",
      "address": "충북 충주시 중원대로 3364 (문화동) 1층 이디야커피 충주문화점",
      "contact": null,
      "lat": "36.967586903823",
      "lng": "127.924013030224",
      "region": "충북",
      "district": "충주시",
      "id": 126
    },
    {
      "name": "이디야커피 포항장량점",
      "address": "경북 포항시 북구 장량로 55 (장성동) 101호",
      "contact": null,
      "lat": "36.082791697965",
      "lng": "129.38642517689",
      "region": "경북",
      "district": "포항시",
      "id": 127
    },
    {
      "name": "이디야커피 대구팔달시장점",
      "address": "대구 북구 팔달로35길 20 (노원동2가) 1층 101호",
      "contact": null,
      "lat": "35.88946194794",
      "lng": "128.569959583604",
      "region": "대구",
      "district": "북구",
      "id": 128
    },
    {
      "name": "이디야커피 의정부신곡제일점",
      "address": "경기 의정부시 금신로 308 (신곡동) 1층 101,102호",
      "contact": null,
      "lat": "37.744669315825",
      "lng": "127.063691934305",
      "region": "경기",
      "district": "의정부시",
      "id": 129
    },
    {
      "name": "이디야커피 동탄솔빛나루점",
      "address": "경기 화성시 동탄솔빛로 57 (반송동, 케이에이치스퀘어) 1층 104호",
      "contact": null,
      "lat": "37.194113210277",
      "lng": "127.07356228837",
      "region": "경기",
      "district": "화성시",
      "id": 130
    },
    {
      "name": "이디야커피 김포구래아크라시티점",
      "address": "경기 김포시 김포한강10로133번길 84 (구래동) 스위트엠아크라시티2차 R동 1층 101,102,103,104호",
      "contact": null,
      "lat": "37.641646923504",
      "lng": "126.620441612987",
      "region": "경기",
      "district": "김포시",
      "id": 131
    },
    {
      "name": "이디야커피 강원진부점",
      "address": "강원 평창군 진부면 진부중앙로 12 1층",
      "contact": null,
      "lat": "37.633201348687",
      "lng": "128.555000100571",
      "region": "강원",
      "district": "평창군",
      "id": 132
    },
    {
      "name": "이디야커피 장위뉴타운점",
      "address": "서울 성북구 장월로 144-1 (장위동) 1층",
      "contact": null,
      "lat": "37.617710059571",
      "lng": "127.051043617995",
      "region": "서울",
      "district": "성북구",
      "id": 133
    },
    {
      "name": "이디야커피 천안성거길점",
      "address": "충남 천안시 서북구 성거읍 성거길 123 (대주프라자) 107호",
      "contact": null,
      "lat": "36.876273574013",
      "lng": "127.202619483067",
      "region": "충남",
      "district": "천안시",
      "id": 134
    },
    {
      "name": "이디야커피 무안점",
      "address": "전남 무안군 무안읍 불무로 28 (황소식당) 1층",
      "contact": null,
      "lat": "34.987285356443",
      "lng": "126.47376897638",
      "region": "전남",
      "district": "무안군",
      "id": 135
    },
    {
      "name": "이디야커피 파주운정호수공원점",
      "address": "경기 파주시 가온로 172 (와동동) 101호",
      "contact": null,
      "lat": "37.719691052787",
      "lng": "126.751435810995",
      "region": "경기",
      "district": "파주시",
      "id": 136
    },
    {
      "name": "이디야커피 전주우아한시티점",
      "address": "전북 전주시 덕진구 우아로 32 1층",
      "contact": null,
      "lat": "35.850738117733",
      "lng": "127.156040979298",
      "region": "전북",
      "district": "전주시",
      "id": 137
    },
    {
      "name": "이디야커피 남양주오남역점",
      "address": "경기 남양주시 오남읍 양지리 722-2 이디야커피",
      "contact": null,
      "lat": "37.705723201372",
      "lng": "127.191606660717",
      "region": "경기",
      "district": "남양주시",
      "id": 138
    },
    {
      "name": "이디야커피 예산수덕사점",
      "address": "충남 예산군 덕산면 수덕사안길 42 (수덕사집단시설지구) 108호, 208호",
      "contact": null,
      "lat": "36.65749123941",
      "lng": "126.620608952166",
      "region": "충남",
      "district": "예산군",
      "id": 139
    },
    {
      "name": "이디야커피 진주금산점",
      "address": "경남 진주시 금산면 중천로 83 1층 일부",
      "contact": null,
      "lat": "35.217692367024",
      "lng": "128.146369477791",
      "region": "경남",
      "district": "진주시",
      "id": 140
    },
    {
      "name": "이디야커피 안산원시역점",
      "address": "경기 안산시 단원구 별망로 555 (원시동) 141호",
      "contact": null,
      "lat": "37.301036505094",
      "lng": "126.786946558547",
      "region": "경기",
      "district": "안산시",
      "id": 141
    },
    {
      "name": "이디야커피 영천완산점",
      "address": "경북 영천시 시장로 128 (완산동) 1층, 2층(104호,105호,202호)",
      "contact": null,
      "lat": "35.963535180426",
      "lng": "128.944436185942",
      "region": "경북",
      "district": "영천시",
      "id": 142
    },
    {
      "name": "이디야커피 분당서현시범단지점",
      "address": "경기 성남시 분당구 중앙공원로40번길 8 (서현동, 현대근린상가) 1층 146호",
      "contact": null,
      "lat": "37.379705588385",
      "lng": "127.130169972948",
      "region": "경기",
      "district": "성남시",
      "id": 143
    },
    {
      "name": "이디야커피 동안산병원점",
      "address": "경기 안산시 상록구 월피로 81 (월피동) 이디야커피",
      "contact": null,
      "lat": "37.33565300637",
      "lng": "126.85225489233",
      "region": "경기",
      "district": "안산시",
      "id": 144
    },
    {
      "name": "이디야커피 망리단길점",
      "address": "서울 마포구 포은로 81-1 (망원동, S-빌딩) 1층",
      "contact": null,
      "lat": "37.554313556757",
      "lng": "126.905265725284",
      "region": "서울",
      "district": "마포구",
      "id": 145
    },
    {
      "name": "이디야커피 성남하대원점",
      "address": "경기 성남시 중원구 둔촌대로 272 (하대원동) 1층 일부호",
      "contact": null,
      "lat": "37.428810070089",
      "lng": "127.148399235704",
      "region": "경기",
      "district": "성남시",
      "id": 146
    },
    {
      "name": "이디야커피 용인천리점",
      "address": "경기 용인시 처인구 이동읍 백옥대로 618 1층 일부",
      "contact": null,
      "lat": "37.1919796487",
      "lng": "127.207261976421",
      "region": "경기",
      "district": "용인시",
      "id": 147
    },
    {
      "name": "이디야커피 평택시청점",
      "address": "경기 평택시 평택5로20번길 30 (합정동) 1층",
      "contact": null,
      "lat": "36.989102294191",
      "lng": "127.114096261034",
      "region": "경기",
      "district": "평택시",
      "id": 148
    },
    {
      "name": "이디야커피 인천숭의점",
      "address": "인천 미추홀구 제물량로24번길 51 (숭의동, 솔루나) 117,118호",
      "contact": null,
      "lat": "37.461999758824",
      "lng": "126.639739685966",
      "region": "인천",
      "district": "미추홀구",
      "id": 149
    },
    {
      "name": "이디야커피 충남청양점",
      "address": "충남 청양군 청양읍 중앙로 135-2 이디야커피",
      "contact": null,
      "lat": "36.45175630012",
      "lng": "126.802959393562",
      "region": "충남",
      "district": "청양군",
      "id": 150
    },
    {
      "name": "이디야커피 대림1동점",
      "address": "서울 영등포구 도림로 198 (대림동) 1층",
      "contact": null,
      "lat": "37.496430584661",
      "lng": "126.902830683831",
      "region": "서울",
      "district": "영등포구",
      "id": 151
    },
    {
      "name": "이디야커피 포천내촌점",
      "address": "경기 포천시 내촌면 금강로 2004 2동 1층",
      "contact": null,
      "lat": "37.758823759748",
      "lng": "127.221166321748",
      "region": "경기",
      "district": "포천시",
      "id": 152
    },
    {
      "name": "이디야커피 단양중앙점",
      "address": "충북 단양군 단양읍 삼봉로 292-1 (LG컴퓨터대리점)",
      "contact": null,
      "lat": "36.982874888558",
      "lng": "128.369388191553",
      "region": "충북",
      "district": "단양군",
      "id": 153
    },
    {
      "name": "이디야커피 포천신북점",
      "address": "경기 포천시 신북면 호국로 2000 1동",
      "contact": null,
      "lat": "37.928775850315",
      "lng": "127.223804397659",
      "region": "경기",
      "district": "포천시",
      "id": 154
    },
    {
      "name": "이디야커피 부산사상중앙점",
      "address": "부산 사상구 광장로 79 (괘법동)",
      "contact": null,
      "lat": "35.162596563361",
      "lng": "128.985177561125",
      "region": "부산",
      "district": "사상구",
      "id": 155
    },
    {
      "name": "이디야커피 석수푸르지오점",
      "address": "서울 금천구 삼성산길 11 (시흥동, 위너스타워) 101호",
      "contact": null,
      "lat": "37.434105764233",
      "lng": "126.904835424206",
      "region": "서울",
      "district": "금천구",
      "id": 156
    },
    {
      "name": "이디야커피 대구용산점",
      "address": "대구 달서구 평리로 50 (용산동) 1층",
      "contact": null,
      "lat": "35.858503131704",
      "lng": "128.529866702593",
      "region": "대구",
      "district": "달서구",
      "id": 157
    },
    {
      "name": "이디야커피 대구설화명곡점",
      "address": "대구 달성군 화원읍 비슬로 2503 1층",
      "contact": null,
      "lat": "35.800479022407",
      "lng": "128.491521075706",
      "region": "대구",
      "district": "달성군",
      "id": 158
    },
    {
      "name": "이디야커피 동탄호수공원점",
      "address": "경기 화성시 동탄대로5길 32 (송동) 지2층 B206,207호",
      "contact": null,
      "lat": "37.167018569196",
      "lng": "127.103908821114",
      "region": "경기",
      "district": "화성시",
      "id": 159
    },
    {
      "name": "이디야커피 창동제일점",
      "address": "서울 도봉구 노해로70길 81 (창동) 1층 101호",
      "contact": null,
      "lat": "37.64883051469",
      "lng": "127.052569730754",
      "region": "서울",
      "district": "도봉구",
      "id": 160
    },
    {
      "name": "이디야커피 대전학하점",
      "address": "대전 유성구 학하복용서로 23 (학하동) 1층",
      "contact": null,
      "lat": "36.339268656017",
      "lng": "127.308626650976",
      "region": "대전",
      "district": "유성구",
      "id": 161
    },
    {
      "name": "이디야커피 강남대치점",
      "address": "서울 강남구 역삼로 415 (대치동, 성진빌딩) 1층",
      "contact": null,
      "lat": "37.501289041182",
      "lng": "127.052395659668",
      "region": "서울",
      "district": "강남구",
      "id": 162
    },
    {
      "name": "이디야커피 울산신천점",
      "address": "울산 북구 호계로 366-2 (신천동) 1층",
      "contact": null,
      "lat": "35.635263114417",
      "lng": "129.348439954189",
      "region": "울산",
      "district": "북구",
      "id": 163
    },
    {
      "name": "이디야커피 면목경남아너스빌점",
      "address": "서울 중랑구 면목로27길 92 (면목동) 1층",
      "contact": null,
      "lat": "37.574266843646",
      "lng": "127.080518532414",
      "region": "서울",
      "district": "중랑구",
      "id": 164
    },
    {
      "name": "이디야커피 용인상현마을점",
      "address": "경기 용인시 수지구 상현로 6 (상현동, 광교상현 솔하임) 1층",
      "contact": null,
      "lat": "37.302511589984",
      "lng": "127.074650278871",
      "region": "경기",
      "district": "용인시",
      "id": 165
    },
    {
      "name": "이디야커피 하남현대지식산업센터2차점",
      "address": "경기 하남시 미사대로 520 (덕풍동) 디씨동 1층 01-029호",
      "contact": null,
      "lat": "37.558865633163",
      "lng": "127.20458060367",
      "region": "경기",
      "district": "하남시",
      "id": 166
    },
    {
      "name": "이디야커피 부산동래시장점",
      "address": "부산 동래구 명륜로112번길 36 (수안동) 1층",
      "contact": null,
      "lat": "35.203136403277",
      "lng": "129.084759829493",
      "region": "부산",
      "district": "동래구",
      "id": 167
    },
    {
      "name": "이디야커피 창동하나로마트점",
      "address": "서울 도봉구 마들로11길 20 (창동, 농협창동유통센타) 1층",
      "contact": null,
      "lat": "37.655110585923",
      "lng": "127.050831341385",
      "region": "서울",
      "district": "도봉구",
      "id": 168
    },
    {
      "name": "이디야커피 칠곡왜관석전점",
      "address": "경북 칠곡군 왜관읍 석전로7길 9 101호",
      "contact": null,
      "lat": "36.001335314428",
      "lng": "128.40842468085",
      "region": "경북",
      "district": "칠곡군",
      "id": 169
    },
    {
      "name": "이디야커피 울산어은로점",
      "address": "울산 남구 어은로 10 (무거동) 1층",
      "contact": null,
      "lat": "35.549987643285",
      "lng": "129.273467338573",
      "region": "울산",
      "district": "남구",
      "id": 170
    },
    {
      "name": "이디야커피 영등포KNK점",
      "address": "서울 영등포구 영신로 220 (영등포동8가, KnK디지털타워) 1층 105호",
      "contact": null,
      "lat": "37.526803427228",
      "lng": "126.904261652136",
      "region": "서울",
      "district": "영등포구",
      "id": 171
    },
    {
      "name": "이디야커피 예원문화센터점",
      "address": "서울 강서구 화곡로63길 65 (등촌동, 예원교회) 2층",
      "contact": null,
      "lat": "37.557832948434",
      "lng": "126.849559561626",
      "region": "서울",
      "district": "강서구",
      "id": 172
    },
    {
      "name": "이디야커피 아산배방월천점",
      "address": "충남 아산시 배방읍 북수리 1727 1~2층",
      "contact": null,
      "lat": "36.770660232993",
      "lng": "127.074065704399",
      "region": "충남",
      "district": "아산시",
      "id": 173
    },
    {
      "name": "이디야커피 순천조례주공점",
      "address": "전남 순천시 이수로 281 (조례동, 주공2차아파트) 108,109호",
      "contact": null,
      "lat": "34.95217878515",
      "lng": "127.515150834705",
      "region": "전남",
      "district": "순천시",
      "id": 174
    },
    {
      "name": "이디야커피 국립중앙도서관본관점",
      "address": "서울 서초구 반포동 산 60-1 (국립중앙도서관) 본관 및 디지털도서관 1",
      "contact": null,
      "lat": "37.497393128485",
      "lng": "127.003388951961",
      "region": "서울",
      "district": "서초구",
      "id": 175
    },
    {
      "name": "이디야커피 여수웅천웅동점",
      "address": "전남 여수시 웅천5길 11 (웅천동) 2층",
      "contact": null,
      "lat": "34.749105321965",
      "lng": "127.684364362215",
      "region": "전남",
      "district": "여수시",
      "id": 176
    },
    {
      "name": "이디야커피 안동대점",
      "address": "경북 안동시 송천2길 78-2 (송천동) 1층",
      "contact": null,
      "lat": "36.543679532042",
      "lng": "128.79275850711",
      "region": "경북",
      "district": "안동시",
      "id": 177
    },
    {
      "name": "이디야커피 광명중대병원점",
      "address": "경기 광명시 덕안로104번길 17 (일직동) 1층 109호(일직동,M클러스터)",
      "contact": null,
      "lat": "37.42421461897",
      "lng": "126.887063229173",
      "region": "경기",
      "district": "광명시",
      "id": 178
    },
    {
      "name": "이디야커피 인천계양더프리미어점",
      "address": "인천 계양구 안남로 513 (효성동) 1층 일부호",
      "contact": null,
      "lat": "37.528903438482",
      "lng": "126.710976673536",
      "region": "인천",
      "district": "계양구",
      "id": 179
    },
    {
      "name": "이디야커피 증평송산점",
      "address": "충북 증평군 증평읍 송산로1길 17-25 1층 101호",
      "contact": null,
      "lat": "36.789767071431",
      "lng": "127.577834026087",
      "region": "충북",
      "district": "증평군",
      "id": 180
    },
    {
      "name": "이디야커피 춘천우두중앙점",
      "address": "강원 춘천시 우두1길 25 (우두동) 1층 101호,102호",
      "contact": null,
      "lat": "37.910721840805",
      "lng": "127.738494029323",
      "region": "강원",
      "district": "춘천시",
      "id": 181
    },
    {
      "name": "이디야커피 영등포점",
      "address": "서울 영등포구 영중로 16-1 (영등포동3가) 1층,2층(영등포동3가)",
      "contact": null,
      "lat": "37.517878540862",
      "lng": "126.906161197095",
      "region": "서울",
      "district": "영등포구",
      "id": 182
    },
    {
      "name": "이디야커피 광주봉선방림점",
      "address": "광주 남구 봉선1로 120-1 (봉선동) 1층",
      "contact": null,
      "lat": "35.127470014125",
      "lng": "126.917938490124",
      "region": "광주",
      "district": "남구",
      "id": 183
    },
    {
      "name": "이디야커피 제주삼화점",
      "address": "제주특별자치도 제주시 건주로 66 (도련일동) 102,103호 (도련일동)",
      "contact": null,
      "lat": "33.513526367239",
      "lng": "126.58033791004",
      "region": "제주특별자치도",
      "district": "제주시",
      "id": 184
    },
    {
      "name": "이디야커피 판교파미어스몰점",
      "address": "경기 성남시 수정구 창업로 17 (시흥동) C2블록 B1층 B103-2호",
      "contact": null,
      "lat": "37.412184709925",
      "lng": "127.097618286098",
      "region": "경기",
      "district": "성남시",
      "id": 185
    },
    {
      "name": "이디야커피 함평점",
      "address": "전남 함평군 함평읍 중앙길 35 (일반상가) 1층",
      "contact": null,
      "lat": "35.061400851964",
      "lng": "126.52314115935",
      "region": "전남",
      "district": "함평군",
      "id": 186
    },
    {
      "name": "이디야커피 국립중앙도서관디지털관점",
      "address": "서울 서초구 반포동 산 60-1 (국립중앙도서관) 본관 및 디지털도서관",
      "contact": null,
      "lat": "37.497393128485",
      "lng": "127.003388951961",
      "region": "서울",
      "district": "서초구",
      "id": 187
    },
    {
      "name": "이디야커피 수원광교에듀타운점",
      "address": "경기 수원시 영통구 도청로17번길 40 (이의동) 1층 107호,108호",
      "contact": null,
      "lat": "37.28501332316",
      "lng": "127.052776247176",
      "region": "경기",
      "district": "수원시",
      "id": 188
    },
    {
      "name": "이디야커피 강릉송정점",
      "address": "강원 강릉시 팔송길 1 (송정동) 1층",
      "contact": null,
      "lat": "37.775074139838",
      "lng": "128.93253813312",
      "region": "강원",
      "district": "강릉시",
      "id": 189
    },
    {
      "name": "이디야커피 제천의림지DI점",
      "address": "충북 제천시 의림대로47길 32 (모산동) 1층",
      "contact": null,
      "lat": "37.177128408459",
      "lng": "128.20769441289",
      "region": "충북",
      "district": "제천시",
      "id": 190
    },
    {
      "name": "이디야커피 고양지축초교점",
      "address": "경기 고양시 덕양구 오부자1길 42 (지축동) 1층",
      "contact": null,
      "lat": "37.65237168077",
      "lng": "126.913541726557",
      "region": "경기",
      "district": "고양시",
      "id": 191
    },
    {
      "name": "이디야커피 여수진남관점",
      "address": "전남 여수시 진남상가길 2 (중앙동) 1층,2층",
      "contact": null,
      "lat": "34.741081625301",
      "lng": "127.736351712792",
      "region": "전남",
      "district": "여수시",
      "id": 192
    },
    {
      "name": "이디야커피 사천선진점",
      "address": "경남 사천시 용현면 선진리 103-7 1층",
      "contact": null,
      "lat": "35.041702580306",
      "lng": "128.065889755088",
      "region": "경남",
      "district": "사천시",
      "id": 193
    },
    {
      "name": "이디야커피 포항해병1사단점",
      "address": "경북 포항시 남구 오천읍 충무로 70 3층",
      "contact": null,
      "lat": "35.976193036384",
      "lng": "129.413418356404",
      "region": "경북",
      "district": "포항시",
      "id": 194
    },
    {
      "name": "이디야커피 춘천포레스트점",
      "address": "강원 춘천시 옛경춘로 610 (온의동) 1층",
      "contact": null,
      "lat": "37.853055549609",
      "lng": "127.711494450882",
      "region": "강원",
      "district": "춘천시",
      "id": 195
    },
    {
      "name": "이디야커피 동광주홈플러스점",
      "address": "광주 북구 동문대로 200 (두암동, 삼성홈플러스) B1층",
      "contact": null,
      "lat": "35.179341646818",
      "lng": "126.930416612572",
      "region": "광주",
      "district": "북구",
      "id": 196
    },
    {
      "name": "이디야커피 대구산격동점",
      "address": "대구 북구 동북로 154 (산격동) 1층",
      "contact": null,
      "lat": "35.899748055057",
      "lng": "128.609393260253",
      "region": "대구",
      "district": "북구",
      "id": 197
    },
    {
      "name": "이디야커피 순천와온해변점",
      "address": "전남 순천시 해룡면 와온길 241 1층",
      "contact": null,
      "lat": "34.844570832891",
      "lng": "127.527009547907",
      "region": "전남",
      "district": "순천시",
      "id": 198
    },
    {
      "name": "이디야커피 춘천신북점",
      "address": "강원 춘천시 신북읍 신북로 228 1층",
      "contact": null,
      "lat": "37.945846519407",
      "lng": "127.751910361792",
      "region": "강원",
      "district": "춘천시",
      "id": 199
    },
    {
      "name": "이디야커피 부산연지래미안점",
      "address": "부산 부산진구 성지로 30-1 (연지동) 1층",
      "contact": null,
      "lat": "35.17347107863",
      "lng": "129.055118297488",
      "region": "부산",
      "district": "부산진구",
      "id": 200
    },
    {
      "name": "이디야커피 병점한신점",
      "address": "경기 화성시 병점1로 66-2 (병점동) 1층 101-1, 102호",
      "contact": null,
      "lat": "37.202894241393",
      "lng": "127.041164699436",
      "region": "경기",
      "district": "화성시",
      "id": 201
    },
    {
      "name": "이디야커피 전주만성골드점",
      "address": "전북 전주시 덕진구 만성북로 51-5 (만성동) 1층 101호",
      "contact": null,
      "lat": "35.848816207105",
      "lng": "127.080470158051",
      "region": "전북",
      "district": "전주시",
      "id": 202
    },
    {
      "name": "이디야커피 부천세무서점",
      "address": "경기 부천시 신흥로 266 (중동) 102호",
      "contact": null,
      "lat": "37.50729326729",
      "lng": "126.775450739427",
      "region": "경기",
      "district": "부천시",
      "id": 203
    },
    {
      "name": "이디야커피 속초여고점",
      "address": "강원 속초시 동해대로 4280 (교동, 대운빌딩) 1층 3호",
      "contact": null,
      "lat": "38.19863781378",
      "lng": "128.572942157443",
      "region": "강원",
      "district": "속초시",
      "id": 204
    },
    {
      "name": "이디야커피 가평역점",
      "address": "경기 가평군 가평읍 문화로 13-39 1층",
      "contact": null,
      "lat": "37.813592568287",
      "lng": "127.511746490178",
      "region": "경기",
      "district": "가평군",
      "id": 205
    },
    {
      "name": "이디야커피 전주기지제호수점",
      "address": "전북 전주시 덕진구 중동로 104-6 (장동) 1층 101호",
      "contact": null,
      "lat": "35.84265936791",
      "lng": "127.06446902552",
      "region": "전북",
      "district": "전주시",
      "id": 206
    },
    {
      "name": "이디야커피 강릉회산점",
      "address": "강원 강릉시 회산로 372 (회산동) 1층 5호",
      "contact": null,
      "lat": "37.741021583919",
      "lng": "128.868396813783",
      "region": "강원",
      "district": "강릉시",
      "id": 207
    },
    {
      "name": "이디야커피 춘천소양강점",
      "address": "강원 춘천시 신북읍 신샘밭로 655-1 신샘밭로 661 1,2층",
      "contact": null,
      "lat": "37.930114695425",
      "lng": "127.78283610836",
      "region": "강원",
      "district": "춘천시",
      "id": 208
    },
    {
      "name": "이디야커피 아산삼성8라인점",
      "address": "충남 아산시 탕정면 삼성로 181 8라인(1동) 2층",
      "contact": null,
      "lat": "36.811646587947",
      "lng": "127.065465882945",
      "region": "충남",
      "district": "아산시",
      "id": 209
    },
    {
      "name": "이디야커피 아산삼성MOD점",
      "address": "충남 아산시 탕정면 삼성로 181 8라인(MOD동) 2층",
      "contact": null,
      "lat": "36.811646587947",
      "lng": "127.065465882945",
      "region": "충남",
      "district": "아산시",
      "id": 210
    },
    {
      "name": "이디야커피 대구매천점",
      "address": "대구 북구 매전로4길 14 (매천동) 1층",
      "contact": null,
      "lat": "35.907317436069",
      "lng": "128.543377628351",
      "region": "대구",
      "district": "북구",
      "id": 211
    },
    {
      "name": "이디야커피 아산삼성블루홀점",
      "address": "충남 아산시 탕정면 삼성로 181 정문주차타워동 3층",
      "contact": null,
      "lat": "36.811646587947",
      "lng": "127.065465882945",
      "region": "충남",
      "district": "아산시",
      "id": 212
    },
    {
      "name": "이디야커피 아산삼성7라인점",
      "address": "충남 아산시 탕정면 삼성로 181 7라인(2동) 지하1층",
      "contact": null,
      "lat": "36.811646587947",
      "lng": "127.065465882945",
      "region": "충남",
      "district": "아산시",
      "id": 213
    },
    {
      "name": "이디야커피 아산삼성A3점",
      "address": "충남 아산시 탕정면 탕정로 380-2 (삼성SMD) A3공장 지하1층",
      "contact": null,
      "lat": "36.819187948213",
      "lng": "127.063361951565",
      "region": "충남",
      "district": "아산시",
      "id": 214
    },
    {
      "name": "이디야커피 세종고려대점",
      "address": "세종특별자치시 조치원읍 세종로 2511 (고려대학교세종캠퍼스) 1층",
      "contact": null,
      "lat": "36.611694620154",
      "lng": "127.291002698042",
      "region": "세종특별자치시",
      "district": "조치원읍",
      "id": 215
    },
    {
      "name": "이디야커피 이천가좌로점",
      "address": "경기 이천시 부발읍 가좌로 45 (아이펙스) 1층",
      "contact": null,
      "lat": "37.256696761403",
      "lng": "127.469876613159",
      "region": "경기",
      "district": "이천시",
      "id": 216
    },
    {
      "name": "이디야커피 대구율하세영점",
      "address": "대구 동구 율하동로15길 45 (율하동) 1층",
      "contact": null,
      "lat": "35.867664366854",
      "lng": "128.696631357436",
      "region": "대구",
      "district": "동구",
      "id": 217
    },
    {
      "name": "이디야커피 안산상록구청점",
      "address": "경기 안산시 상록구 석호로 107 (사동) 1층 101호",
      "contact": null,
      "lat": "37.30173834691",
      "lng": "126.847389432416",
      "region": "경기",
      "district": "안산시",
      "id": 218
    },
    {
      "name": "이디야커피 오산홈플러스점",
      "address": "경기 오산시 청학로 238 (수청동, 홈플러스) 홈플러스 오산점 1F",
      "contact": null,
      "lat": "37.170058801176",
      "lng": "127.06179880034",
      "region": "경기",
      "district": "오산시",
      "id": 219
    },
    {
      "name": "이디야커피 아산메가마트점",
      "address": "충남 아산시 외암로 1560 (풍기동) 1층",
      "contact": null,
      "lat": "36.773406386285",
      "lng": "127.01453518285",
      "region": "충남",
      "district": "아산시",
      "id": 220
    },
    {
      "name": "이디야커피 천안성환점",
      "address": "충남 천안시 서북구 성환읍 성환3로 3-7 101, 102호",
      "contact": null,
      "lat": "36.915897366825",
      "lng": "127.128395771407",
      "region": "충남",
      "district": "천안시",
      "id": 221
    },
    {
      "name": "이디야커피 여주남한강점",
      "address": "경기 여주시 강변북로 31 (오학동) 1,2층",
      "contact": null,
      "lat": "37.30103636249",
      "lng": "127.646079144364",
      "region": "경기",
      "district": "여주시",
      "id": 222
    },
    {
      "name": "이디야커피 평택성모병원점",
      "address": "경기 평택시 평택로 286 (세교동) 105-106호",
      "contact": null,
      "lat": "37.008849986403",
      "lng": "127.073315170786",
      "region": "경기",
      "district": "평택시",
      "id": 223
    },
    {
      "name": "이디야커피 거제상동점",
      "address": "경남 거제시 상동5길 25 (상동동) 1층 101호",
      "contact": null,
      "lat": "34.867506524528",
      "lng": "128.63551382239",
      "region": "경남",
      "district": "거제시",
      "id": 224
    },
    {
      "name": "이디야커피 화곡본동시장점",
      "address": "서울 강서구 까치산로4길 11 (화곡동) 1층",
      "contact": null,
      "lat": "37.542218555203",
      "lng": "126.844267080951",
      "region": "서울",
      "district": "강서구",
      "id": 225
    },
    {
      "name": "이디야커피 용인하나로마트점",
      "address": "경기 용인시 기흥구 중부대로 682 (상하동) 농협하나로클럽용인점 내 이디야커피",
      "contact": null,
      "lat": "37.266047471087",
      "lng": "127.135844388634",
      "region": "경기",
      "district": "용인시",
      "id": 226
    },
    {
      "name": "이디야커피 광주풍암운리점",
      "address": "광주 서구 풍금로 3 (풍암동) 1층",
      "contact": null,
      "lat": "35.120555328336",
      "lng": "126.865921125471",
      "region": "광주",
      "district": "서구",
      "id": 227
    },
    {
      "name": "이디야커피 대구남산점",
      "address": "대구 중구 남산로7길 7 (남산동, 남산역 화성파크드림) 302동 지하1층 101,102호",
      "contact": null,
      "lat": "35.858335533096",
      "lng": "128.581694213449",
      "region": "대구",
      "district": "중구",
      "id": 228
    },
    {
      "name": "이디야커피 충주칠금점",
      "address": "충북 충주시 신립로 80 (칠금동) 1층,2층",
      "contact": null,
      "lat": "36.987021523904",
      "lng": "127.92214943895",
      "region": "충북",
      "district": "충주시",
      "id": 229
    },
    {
      "name": "이디야커피 세종시갈매점",
      "address": "세종특별자치시 갈매로 353 (어진동, 에비뉴힐) A동 1층 1002,1004호",
      "contact": null,
      "lat": "36.495609640211",
      "lng": "127.262433749613",
      "region": "세종특별자치시",
      "district": "갈매로",
      "id": 230
    },
    {
      "name": "이디야커피 대구비산점",
      "address": "대구 서구 달서로 172 (비산동) 1층",
      "contact": null,
      "lat": "35.877491256604",
      "lng": "128.571528778157",
      "region": "대구",
      "district": "서구",
      "id": 231
    },
    {
      "name": "이디야커피 양원역점",
      "address": "서울 중랑구 양원역로14가길 24 (망우동) 101호",
      "contact": null,
      "lat": "37.607421257534",
      "lng": "127.106772327645",
      "region": "서울",
      "district": "중랑구",
      "id": 232
    },
    {
      "name": "이디야커피 제주외도점",
      "address": "제주특별자치도 제주시 우정로5길 4 (외도일동) 1층",
      "contact": null,
      "lat": "33.490197858166",
      "lng": "126.431160741311",
      "region": "제주특별자치도",
      "district": "제주시",
      "id": 233
    },
    {
      "name": "이디야커피 광주오치점",
      "address": "광주 북구 설죽로 342 (오치동) 1층",
      "contact": null,
      "lat": "35.189974080374",
      "lng": "126.899424986968",
      "region": "광주",
      "district": "북구",
      "id": 234
    },
    {
      "name": "이디야커피 동탄무봉산점",
      "address": "경기 화성시 동탄치동천로4길 6-58 (영천동) 1층",
      "contact": null,
      "lat": "37.20252707602",
      "lng": "127.127730926858",
      "region": "경기",
      "district": "화성시",
      "id": 235
    },
    {
      "name": "이디야커피 화순삼천리점",
      "address": "전남 화순군 화순읍 쌍충로 27",
      "contact": null,
      "lat": "35.054393184255",
      "lng": "126.981337799462",
      "region": "전남",
      "district": "화순군",
      "id": 236
    },
    {
      "name": "이디야커피 신안임자하나로마트점",
      "address": "전남 신안군 임자면 임자로 123",
      "contact": null,
      "lat": "35.085243764714",
      "lng": "126.109181002886",
      "region": "전남",
      "district": "신안군",
      "id": 237
    },
    {
      "name": "이디야커피 당진석문산업단지점",
      "address": "충남 당진시 석문면 산단3로9길 10-8 110호",
      "contact": null,
      "lat": "37.006669037145",
      "lng": "126.597605731604",
      "region": "충남",
      "district": "당진시",
      "id": 238
    },
    {
      "name": "이디야커피 군포대야미점",
      "address": "경기 군포시 대야1로15번길 5 (대야미동) 1층",
      "contact": null,
      "lat": "37.326663418026",
      "lng": "126.917690112148",
      "region": "경기",
      "district": "군포시",
      "id": 239
    },
    {
      "name": "이디야커피 충주한스타워점",
      "address": "충북 충주시 국원대로 107 (교현동) 지하1층 B 112,113호",
      "contact": null,
      "lat": "36.981019041835",
      "lng": "127.927958251413",
      "region": "충북",
      "district": "충주시",
      "id": 240
    },
    {
      "name": "이디야커피 과천역점",
      "address": "경기 과천시 별양로 164 (부림동, 과천센트럴파크푸르지오써밋) 상가동 7-2호",
      "contact": null,
      "lat": "37.432795785519",
      "lng": "126.998858477825",
      "region": "경기",
      "district": "과천시",
      "id": 241
    },
    {
      "name": "이디야커피 경주불국점",
      "address": "경북 경주시 산업로 2984 1층",
      "contact": null,
      "lat": "35.773551254738",
      "lng": "129.302376644524",
      "region": "경북",
      "district": "경주시",
      "id": 242
    },
    {
      "name": "이디야커피 대전세이브존점",
      "address": "대전 서구 둔산로 201 (둔산동, 국화아파트) 세이브존 지하1층",
      "contact": null,
      "lat": "36.355106516659",
      "lng": "127.398143110467",
      "region": "대전",
      "district": "서구",
      "id": 243
    },
    {
      "name": "이디야커피 울산삼산초교점",
      "address": "울산 남구 돋질로 410 (삼산동) 1층",
      "contact": null,
      "lat": "35.542979837357",
      "lng": "129.349705337183",
      "region": "울산",
      "district": "남구",
      "id": 244
    },
    {
      "name": "이디야커피 대구죽전역점",
      "address": "대구 달서구 와룡로 169 (감삼동, 월드마크웨스트엔드) 판매시설동 1층 102-106호",
      "contact": null,
      "lat": "35.84873230956",
      "lng": "128.536389073619",
      "region": "대구",
      "district": "달서구",
      "id": 245
    },
    {
      "name": "이디야커피 노량진드림스퀘어점",
      "address": "서울 동작구 노들로2길 7 (노량진동, 노량진 드림스퀘어 복합빌딩) 1층 씨113호",
      "contact": null,
      "lat": "37.514194293925",
      "lng": "126.938586139882",
      "region": "서울",
      "district": "동작구",
      "id": 246
    },
    {
      "name": "이디야커피 광주용봉비엔날레점",
      "address": "광주 북구 비엔날레로 101 (용봉동) 1층",
      "contact": null,
      "lat": "35.180920453351",
      "lng": "126.889831899069",
      "region": "광주",
      "district": "북구",
      "id": 247
    },
    {
      "name": "이디야커피 용인성복느티나무점",
      "address": "경기 용인시 수지구 성복1로 80 (성복동, 성복역 서희스타힐스) 1층 105호",
      "contact": null,
      "lat": "37.315672662022",
      "lng": "127.071267962717",
      "region": "경기",
      "district": "용인시",
      "id": 248
    },
    {
      "name": "이디야커피 창원상남햇살점",
      "address": "경남 창원시 성산구 마디미로64번길 13",
      "contact": null,
      "lat": "35.219887982605",
      "lng": "128.680638877467",
      "region": "경남",
      "district": "창원시",
      "id": 249
    },
    {
      "name": "이디야커피 산청점",
      "address": "경남 산청군 산청읍 산엔청로 15 (멋쟁이헤어샵) 이디야커피",
      "contact": null,
      "lat": "35.414804819656",
      "lng": "127.875234954432",
      "region": "경남",
      "district": "산청군",
      "id": 250
    },
    {
      "name": "이디야커피 대전도마사거리점",
      "address": "대전 서구 도산로 41 (도마동) 이디야커피",
      "contact": null,
      "lat": "36.312440121994",
      "lng": "127.380656417371",
      "region": "대전",
      "district": "서구",
      "id": 251
    },
    {
      "name": "이디야커피 대구신천리버점",
      "address": "대구 동구 국채보상로 775 (신천동) 1층 이디야커피",
      "contact": null,
      "lat": "35.868226330164",
      "lng": "128.615599892493",
      "region": "대구",
      "district": "동구",
      "id": 252
    },
    {
      "name": "이디야커피 강남율현점",
      "address": "서울 강남구 밤고개로21길 8 (율현동, 세곡프라자) 지상1층 104,105호",
      "contact": null,
      "lat": "37.473548765631",
      "lng": "127.107863694133",
      "region": "서울",
      "district": "강남구",
      "id": 253
    },
    {
      "name": "이디야커피 수원아주대점",
      "address": "경기 수원시 영통구 월드컵로 191 (원천동, 동문빌딩) 1층",
      "contact": null,
      "lat": "37.279086633477",
      "lng": "127.044712599556",
      "region": "경기",
      "district": "수원시",
      "id": 254
    },
    {
      "name": "이디야커피 청주용정점",
      "address": "충북 청주시 상당구 용정로 44-1 (용정동) 1층 101호",
      "contact": null,
      "lat": "36.629815034689",
      "lng": "127.51820172866",
      "region": "충북",
      "district": "청주시",
      "id": 255
    },
    {
      "name": "이디야커피 천안성정중앙점",
      "address": "충남 천안시 서북구 성정공원3길 4 (성정동, 학산리젠다빌 3차) 1층 106호",
      "contact": null,
      "lat": "36.826159843382",
      "lng": "127.141338247074",
      "region": "충남",
      "district": "천안시",
      "id": 256
    },
    {
      "name": "이디야커피 성남단대점",
      "address": "경기 성남시 수정구 산성대로 383 (단대동) 1층 일부",
      "contact": null,
      "lat": "37.446504053664",
      "lng": "127.157155642826",
      "region": "경기",
      "district": "성남시",
      "id": 257
    },
    {
      "name": "이디야커피 대구수성못점",
      "address": "대구 수성구 수성못길 10 (두산동) 4층",
      "contact": null,
      "lat": "35.826123407224",
      "lng": "128.62208666669",
      "region": "대구",
      "district": "수성구",
      "id": 258
    },
    {
      "name": "이디야커피 양주장흥점",
      "address": "경기 양주시 장흥면 권율로 6 1층",
      "contact": null,
      "lat": "37.717317561756",
      "lng": "126.941529713946",
      "region": "경기",
      "district": "양주시",
      "id": 259
    },
    {
      "name": "이디야커피 서하남IC점",
      "address": "경기 하남시 서하남로 31 (감북동) 1,2층",
      "contact": null,
      "lat": "37.51688910355",
      "lng": "127.147720024719",
      "region": "경기",
      "district": "하남시",
      "id": 260
    },
    {
      "name": "이디야커피 고덕그라시움후문점",
      "address": "서울 강동구 동남로82길 121 (고덕동) 1층",
      "contact": null,
      "lat": "37.560396662652",
      "lng": "127.163700188736",
      "region": "서울",
      "district": "강동구",
      "id": 261
    },
    {
      "name": "이디야커피 당산버드나루점",
      "address": "서울 영등포구 버드나루로 87 (영등포동7가) 1층 102호",
      "contact": null,
      "lat": "37.525966595231",
      "lng": "126.908723162668",
      "region": "서울",
      "district": "영등포구",
      "id": 262
    },
    {
      "name": "이디야커피 일산국립암센터점",
      "address": "경기 고양시 일산동구 일산로330번길 12-2 (마두동) 1층 전체호",
      "contact": null,
      "lat": "37.66490420709",
      "lng": "126.784786856891",
      "region": "경기",
      "district": "고양시",
      "id": 263
    },
    {
      "name": "이디야커피 답십리파크자이점",
      "address": "서울 동대문구 한천로 55 (답십리동, 영진빌딩) 1층",
      "contact": null,
      "lat": "37.566909025875",
      "lng": "127.061879087285",
      "region": "서울",
      "district": "동대문구",
      "id": 264
    },
    {
      "name": "이디야커피 분당미금제일점",
      "address": "경기 성남시 분당구 미금일로86번길 11 (구미동) 1층",
      "contact": null,
      "lat": "37.347098878232",
      "lng": "127.110223471314",
      "region": "경기",
      "district": "성남시",
      "id": 265
    },
    {
      "name": "이디야커피 용인에버랜드역점",
      "address": "경기 용인시 처인구 포곡읍 전대로78번길 19-2 (전대리 , 골든튤립에버호텔) 102호",
      "contact": null,
      "lat": "37.287040173197",
      "lng": "127.216775640427",
      "region": "경기",
      "district": "용인시",
      "id": 266
    },
    {
      "name": "이디야커피 순천용당점",
      "address": "전남 순천시 삼산로 103-9 (용당동) 2동 1층 2호",
      "contact": null,
      "lat": "34.973704348036",
      "lng": "127.493319183378",
      "region": "전남",
      "district": "순천시",
      "id": 267
    },
    {
      "name": "이디야커피 부안내소사점",
      "address": "전북 부안군 진서면 내소사로 183 (석포리) 이디야커피",
      "contact": null,
      "lat": "35.611684685037",
      "lng": "126.588838811046",
      "region": "전북",
      "district": "부안군",
      "id": 268
    },
    {
      "name": "이디야커피 안산호수동점",
      "address": "경기 안산시 단원구 광덕대로 130 (고잔동, 폴리타운) 1층 103,4호",
      "contact": null,
      "lat": "37.308115266791",
      "lng": "126.830648761789",
      "region": "경기",
      "district": "안산시",
      "id": 269
    },
    {
      "name": "이디야커피 영등포홈플러스점",
      "address": "서울 영등포구 당산로 42 (문래동3가, 홈플러스) 2층 x4y4호",
      "contact": null,
      "lat": "37.51823978908",
      "lng": "126.895882472736",
      "region": "서울",
      "district": "영등포구",
      "id": 270
    },
    {
      "name": "이디야커피 파주경찰서점",
      "address": "경기 파주시 쇠재로 128 (금릉동) 103,104,105호",
      "contact": null,
      "lat": "37.752617218422",
      "lng": "126.777842699728",
      "region": "경기",
      "district": "파주시",
      "id": 271
    },
    {
      "name": "이디야커피 좋은선린병원점",
      "address": "경북 포항시 북구 대신로 43 (대신동, 선린병원) 1층",
      "contact": null,
      "lat": "36.04770435674",
      "lng": "129.367021538089",
      "region": "경북",
      "district": "포항시",
      "id": 272
    },
    {
      "name": "이디야커피 대구대신중앙점",
      "address": "대구 중구 달구벌대로 1943 (대신동, 대신e편한세상) 상가101동 1층 105호",
      "contact": null,
      "lat": "35.863696489055",
      "lng": "128.576928029639",
      "region": "대구",
      "district": "중구",
      "id": 273
    },
    {
      "name": "이디야커피 판교봇들마을점",
      "address": "경기 성남시 분당구 판교로 375 (삼평동, 메가스페이스1) 1층 106, 107호",
      "contact": null,
      "lat": "37.404406105615",
      "lng": "127.115615811132",
      "region": "경기",
      "district": "성남시",
      "id": 274
    },
    {
      "name": "이디야커피 대전건양대병원점",
      "address": "대전 서구 관저동로 162 (관저동, 건양프라자) 102,103호",
      "contact": null,
      "lat": "36.306567889661",
      "lng": "127.341146598459",
      "region": "대전",
      "district": "서구",
      "id": 275
    },
    {
      "name": "이디야커피 남양주다산역점",
      "address": "경기 남양주시 다산중앙로123번길 22-16 (다산동) 1층 104호",
      "contact": null,
      "lat": "37.624372739454",
      "lng": "127.151320934786",
      "region": "경기",
      "district": "남양주시",
      "id": 276
    },
    {
      "name": "이디야커피 울산전하스위첸점",
      "address": "울산 동구 바드래1길 45 (전하동, 현대중공업임원숙소) 1층",
      "contact": null,
      "lat": "35.517134370153",
      "lng": "129.42854466152",
      "region": "울산",
      "district": "동구",
      "id": 277
    },
    {
      "name": "이디야커피 춘천김유정역점",
      "address": "강원 춘천시 신동면 김유정로 1417 (증리) 유정프라자 B동 1층 101-1호, 101-2호",
      "contact": null,
      "lat": "37.817881505862",
      "lng": "127.715199806793",
      "region": "강원",
      "district": "춘천시",
      "id": 278
    },
    {
      "name": "이디야커피 광화문점",
      "address": "서울 종로구 세종대로23길 15 (도렴동) 이디야커피",
      "contact": null,
      "lat": "37.571506997084",
      "lng": "126.975653448436",
      "region": "서울",
      "district": "종로구",
      "id": 279
    },
    {
      "name": "이디야커피 광주금호운천점",
      "address": "광주 서구 운천로 129 (쌍촌동) 1층 104호, 2층 202호",
      "contact": null,
      "lat": "35.144033675432",
      "lng": "126.85709323867",
      "region": "광주",
      "district": "서구",
      "id": 280
    },
    {
      "name": "이디야커피 미사청아초교점",
      "address": "경기 하남시 미사강변중앙로111번길 4 (풍산동) 101호",
      "contact": null,
      "lat": "37.556790223679",
      "lng": "127.191673747428",
      "region": "경기",
      "district": "하남시",
      "id": 281
    },
    {
      "name": "이디야커피 천안불당동점",
      "address": "충남 천안시 서북구 불당11로 13 (불당동) 1층 104호",
      "contact": null,
      "lat": "36.804710848582",
      "lng": "127.107751324124",
      "region": "충남",
      "district": "천안시",
      "id": 282
    },
    {
      "name": "이디야커피 송파문정점",
      "address": "서울 송파구 송이로 159 (가락동) 1층 101호",
      "contact": null,
      "lat": "37.492958600515",
      "lng": "127.125345787985",
      "region": "서울",
      "district": "송파구",
      "id": 283
    },
    {
      "name": "이디야커피 전주만성점",
      "address": "전북 전주시 덕진구 만성로 128 (만성동) 1층 107호",
      "contact": null,
      "lat": "35.842590623248",
      "lng": "127.076566370542",
      "region": "전북",
      "district": "전주시",
      "id": 284
    },
    {
      "name": "이디야커피 여수신기점",
      "address": "전남 여수시 새터로 61 (신기동) 1층 2호",
      "contact": null,
      "lat": "34.761660973557",
      "lng": "127.673875456176",
      "region": "전남",
      "district": "여수시",
      "id": 285
    },
    {
      "name": "이디야커피 울산진장점",
      "address": "울산 북구 진장로 30 1층",
      "contact": null,
      "lat": "35.563712646526",
      "lng": "129.357495792051",
      "region": "울산",
      "district": "북구",
      "id": 286
    },
    {
      "name": "이디야커피 광주유덕점",
      "address": "광주 서구 쌍촌동 1078 외4필지",
      "contact": null,
      "lat": "35.16668964251",
      "lng": "126.862809753249",
      "region": "광주",
      "district": "서구",
      "id": 287
    },
    {
      "name": "이디야커피 쌍문동점",
      "address": "서울 도봉구 노해로 162 (쌍문동) 1층",
      "contact": null,
      "lat": "37.648836454915",
      "lng": "127.027304362472",
      "region": "서울",
      "district": "도봉구",
      "id": 288
    },
    {
      "name": "이디야커피 광주신가사거리점",
      "address": "광주 광산구 수등로 243 (신가동) 1층",
      "contact": null,
      "lat": "35.185328279741",
      "lng": "126.835611699355",
      "region": "광주",
      "district": "광산구",
      "id": 289
    },
    {
      "name": "이디야커피 울진북면점",
      "address": "경북 울진군 북면 울진북로 2094 (부구리) 1,2층 101,201호",
      "contact": null,
      "lat": "37.103092721896",
      "lng": "129.374154472053",
      "region": "경북",
      "district": "울진군",
      "id": 290
    },
    {
      "name": "이디야커피 경북군위점",
      "address": "대구 군위군 군위읍 도군로 2645 이디야커피",
      "contact": null,
      "lat": "36.246000323295",
      "lng": "128.563323084007",
      "region": "대구",
      "district": "군위군",
      "id": 291
    },
    {
      "name": "이디야커피 대전탄방동점",
      "address": "대전 서구 문정로40번길 64 (탄방동, 메이저타운) 1층 105호",
      "contact": null,
      "lat": "36.343661987467",
      "lng": "127.383446456979",
      "region": "대전",
      "district": "서구",
      "id": 292
    },
    {
      "name": "이디야커피 제주화북점",
      "address": "제주특별자치도 제주시 동화로 12 (화북일동) 101호",
      "contact": null,
      "lat": "33.518776576456",
      "lng": "126.572706169823",
      "region": "제주특별자치도",
      "district": "제주시",
      "id": 293
    },
    {
      "name": "이디야커피 시흥배곧고등학교점",
      "address": "경기 시흥시 배곧4로 87 (정왕동, 베스트프라자) 1층 116, 117호",
      "contact": null,
      "lat": "37.374597786627",
      "lng": "126.733400152461",
      "region": "경기",
      "district": "시흥시",
      "id": 294
    },
    {
      "name": "이디야커피 안양SKV1점",
      "address": "경기 안양시 동안구 엘에스로116번길 25-32 (호계동, 안양 SK V1 center) 153호",
      "contact": null,
      "lat": "37.374058234812",
      "lng": "126.948788437024",
      "region": "경기",
      "district": "안양시",
      "id": 295
    },
    {
      "name": "이디야커피 남양주진접역점",
      "address": "경기 남양주시 진접읍 경복대로 233 주건축물제1동 103호, 104호",
      "contact": null,
      "lat": "37.719543846451",
      "lng": "127.202495411206",
      "region": "경기",
      "district": "남양주시",
      "id": 296
    },
    {
      "name": "이디야커피 강릉역점",
      "address": "강원 강릉시 용지로 174-6 (교동) 1층",
      "contact": null,
      "lat": "37.763861009024",
      "lng": "128.900268753271",
      "region": "강원",
      "district": "강릉시",
      "id": 297
    },
    {
      "name": "이디야커피 창원대중앙점",
      "address": "경남 창원시 의창구 용동로83번안길 36 (사림동) SM비즈타운 208호",
      "contact": null,
      "lat": "35.239509989821",
      "lng": "128.699995796933",
      "region": "경남",
      "district": "창원시",
      "id": 298
    },
    {
      "name": "이디야커피 김해율하중앙점",
      "address": "경남 김해시 율하3로 38 (율하동) 1층 111호",
      "contact": null,
      "lat": "35.171257207515",
      "lng": "128.814391316979",
      "region": "경남",
      "district": "김해시",
      "id": 299
    },
    {
      "name": "이디야커피 당진푸르지오점",
      "address": "충남 당진시 북문로1길 22 (읍내동) 1층",
      "contact": null,
      "lat": "36.899656443055",
      "lng": "126.629685965738",
      "region": "충남",
      "district": "당진시",
      "id": 300
    },
    {
      "name": "이디야커피 김포하성점",
      "address": "경기 김포시 하성면 애기봉로 868 (마곡리) 스카이빌딩 1층 102호",
      "contact": null,
      "lat": "37.719639338746",
      "lng": "126.633863149689",
      "region": "경기",
      "district": "김포시",
      "id": 301
    },
    {
      "name": "이디야커피 순천호수공원점",
      "address": "전남 순천시 왕지동 882-14 이디야커피",
      "contact": null,
      "lat": "34.968059257959",
      "lng": "127.52570585971",
      "region": "전남",
      "district": "순천시",
      "id": 302
    },
    {
      "name": "이디야커피 강릉입암남부점",
      "address": "강원 강릉시 성덕포남로 74 (입암동) 1층",
      "contact": null,
      "lat": "37.761292022676",
      "lng": "128.91782268225",
      "region": "강원",
      "district": "강릉시",
      "id": 303
    },
    {
      "name": "이디야커피 광주쌍촌엘리체점",
      "address": "광주 서구 상무대로955번길 30-15 (쌍촌동) 1층",
      "contact": null,
      "lat": "35.154360575626",
      "lng": "126.867413596843",
      "region": "광주",
      "district": "서구",
      "id": 304
    },
    {
      "name": "이디야커피 안성공도점",
      "address": "경기 안성시 공도읍 공도3로 14 (만정리) 1층",
      "contact": null,
      "lat": "37.001072687245",
      "lng": "127.17056422759",
      "region": "경기",
      "district": "안성시",
      "id": 305
    },
    {
      "name": "이디야커피 울산송정중앙점",
      "address": "울산 북구 송정16길 16 (송정동) 1층",
      "contact": null,
      "lat": "35.601055176854",
      "lng": "129.363039439243",
      "region": "울산",
      "district": "북구",
      "id": 306
    },
    {
      "name": "이디야커피 대구동촌유원지점",
      "address": "대구 동구 효동로6길 84-8 1,2층",
      "contact": null,
      "lat": "35.881265677757",
      "lng": "128.651443078563",
      "region": "대구",
      "district": "동구",
      "id": 307
    },
    {
      "name": "이디야커피 부산큰솔2병원점",
      "address": "부산 사상구 학장로 189 (학장동) 이디야커피",
      "contact": null,
      "lat": "35.143653933735",
      "lng": "128.987215484402",
      "region": "부산",
      "district": "사상구",
      "id": 308
    },
    {
      "name": "이디야커피 까치산로점",
      "address": "서울 강서구 까치산로 182 101호, 102호",
      "contact": null,
      "lat": "37.553312683024",
      "lng": "126.853892875359",
      "region": "서울",
      "district": "강서구",
      "id": 309
    },
    {
      "name": "이디야커피 춘천사농동점",
      "address": "강원 춘천시 사우로 38 1층 101호(사농동)",
      "contact": null,
      "lat": "37.906691583142",
      "lng": "127.728761938345",
      "region": "강원",
      "district": "춘천시",
      "id": 310
    },
    {
      "name": "이디야커피 청도프로방스점",
      "address": "경북 청도군 화양읍 이슬미로 321",
      "contact": null,
      "lat": "35.688560380737",
      "lng": "128.717157404014",
      "region": "경북",
      "district": "청도군",
      "id": 311
    },
    {
      "name": "이디야커피 경주용황점",
      "address": "경북 경주시 용강동 657-3",
      "contact": null,
      "lat": "35.884723126154",
      "lng": "129.225202620808",
      "region": "경북",
      "district": "경주시",
      "id": 312
    },
    {
      "name": "이디야커피 서귀포동홍점",
      "address": "제주특별자치도 서귀포시 동홍동로 9 1층",
      "contact": null,
      "lat": "33.255693448692",
      "lng": "126.574725314569",
      "region": "제주특별자치도",
      "district": "서귀포시",
      "id": 313
    },
    {
      "name": "이디야커피 광주첨단쌍암점",
      "address": "광주 광산구 월계로 223-13",
      "contact": null,
      "lat": "35.214676207352",
      "lng": "126.849386831142",
      "region": "광주",
      "district": "광산구",
      "id": 314
    },
    {
      "name": "이디야커피 송도센트럴점",
      "address": "인천 연수구 테크노파크로111번길 8 101호 (송도동, 송도S타워)",
      "contact": null,
      "lat": "37.385873896378",
      "lng": "126.643997288602",
      "region": "인천",
      "district": "연수구",
      "id": 315
    },
    {
      "name": "이디야커피 총신대점",
      "address": "서울 동작구 사당로16가길 96 1,2층",
      "contact": null,
      "lat": "37.48510653045",
      "lng": "126.968825120781",
      "region": "서울",
      "district": "동작구",
      "id": 316
    },
    {
      "name": "이디야커피 남양주화도점",
      "address": "경기 남양주시 화도읍 경춘로 1896-8 1층 일부",
      "contact": null,
      "lat": "37.652044515989",
      "lng": "127.298402398313",
      "region": "경기",
      "district": "남양주시",
      "id": 317
    },
    {
      "name": "이디야커피 남현홈플러스점",
      "address": "서울 관악구 과천대로 909 홈플러스서울남현점 1층",
      "contact": null,
      "lat": "37.471471663899",
      "lng": "126.982468729152",
      "region": "서울",
      "district": "관악구",
      "id": 318
    },
    {
      "name": "이디야커피 원주봉화산점",
      "address": "강원 원주시 바우골길 8 프렌티어스빌딩 1층 104호(단계동)",
      "contact": null,
      "lat": "37.355334576198",
      "lng": "127.917898087606",
      "region": "강원",
      "district": "원주시",
      "id": 319
    },
    {
      "name": "이디야커피 의정부홈플러스점",
      "address": "경기 의정부시 청사로 38 1층(금오동)",
      "contact": null,
      "lat": "37.752163715019",
      "lng": "127.071001888144",
      "region": "경기",
      "district": "의정부시",
      "id": 320
    },
    {
      "name": "이디야커피 오산수청점",
      "address": "경기 오산시 내삼미로79번길 31 109호 110호",
      "contact": null,
      "lat": "37.170708445341",
      "lng": "127.064536112431",
      "region": "경기",
      "district": "오산시",
      "id": 321
    },
    {
      "name": "이디야커피 고척사거리점",
      "address": "서울 구로구 고척로 228-6 1층 (고척동, 종만빌딩)",
      "contact": null,
      "lat": "37.505788391863",
      "lng": "126.858247086864",
      "region": "서울",
      "district": "구로구",
      "id": 322
    },
    {
      "name": "이디야커피 광명역코레일점",
      "address": "경기 광명시 광명역로 21 1층 고객라운지내서편맞이방호(일직동, 고속철도 광명역)",
      "contact": null,
      "lat": "37.416364914594",
      "lng": "126.88487640462",
      "region": "경기",
      "district": "광명시",
      "id": 323
    },
    {
      "name": "이디야커피 포천개성인삼농협점",
      "address": "경기 포천시 호국로 1423 (어룡동)",
      "contact": null,
      "lat": "37.88583182118",
      "lng": "127.191800486379",
      "region": "경기",
      "district": "포천시",
      "id": 324
    },
    {
      "name": "이디야커피 김제금산사점",
      "address": "전북 김제시 금산면 모악로 464 1층",
      "contact": null,
      "lat": "35.718402596876",
      "lng": "127.041161258959",
      "region": "전북",
      "district": "김제시",
      "id": 325
    },
    {
      "name": "이디야커피 인천답동점",
      "address": "인천 중구 제물량로 128 (답동)",
      "contact": null,
      "lat": "37.469357675892",
      "lng": "126.629778877092",
      "region": "인천",
      "district": "중구",
      "id": 326
    },
    {
      "name": "이디야커피 울산매곡에일린점",
      "address": "울산 북구 호계매곡1로 65 지상1층 (호계동)",
      "contact": null,
      "lat": "35.634043700236",
      "lng": "129.363613217712",
      "region": "울산",
      "district": "북구",
      "id": 327
    },
    {
      "name": "이디야커피 김해외동사거리점",
      "address": "경남 김해시 금관대로 1165 1층 (외동)",
      "contact": null,
      "lat": "35.231599884159",
      "lng": "128.85092091348",
      "region": "경남",
      "district": "김해시",
      "id": 328
    },
    {
      "name": "이디야커피 안중백병원점",
      "address": "경기 평택시 안중읍 서동대로 1931-21 1층",
      "contact": null,
      "lat": "37.003426315211",
      "lng": "126.958637277033",
      "region": "경기",
      "district": "평택시",
      "id": 329
    },
    {
      "name": "이디야커피 대구대실역점",
      "address": "대구 달성군 다사읍 대실역남로 16 1층",
      "contact": null,
      "lat": "35.856339235168",
      "lng": "128.46418169396",
      "region": "대구",
      "district": "달성군",
      "id": 330
    },
    {
      "name": "이디야커피 제주연북로점",
      "address": "제주특별자치도 제주시 연북로 34 (노형동) 1층",
      "contact": null,
      "lat": "33.481668722944",
      "lng": "126.484951030665",
      "region": "제주특별자치도",
      "district": "제주시",
      "id": 331
    },
    {
      "name": "이디야커피 신림대학동점",
      "address": "서울 관악구 호암로26길 17 (신림동) 1층",
      "contact": null,
      "lat": "37.470748476851",
      "lng": "126.93460542095",
      "region": "서울",
      "district": "관악구",
      "id": 332
    },
    {
      "name": "이디야커피 경주동국대병원점",
      "address": "경북 경주시 동대로 87 (석장동, 동국대학교 경주병원) 2층",
      "contact": null,
      "lat": "35.85850287206",
      "lng": "129.192875048474",
      "region": "경북",
      "district": "경주시",
      "id": 333
    },
    {
      "name": "이디야커피 방이초교점",
      "address": "서울 송파구 가락로 280 (방이동) 1층 102호",
      "contact": null,
      "lat": "37.512732187139",
      "lng": "127.120017493794",
      "region": "서울",
      "district": "송파구",
      "id": 334
    },
    {
      "name": "이디야커피 경주석장점",
      "address": "경북 경주시 석장길 59-2 (석장동) 이디야커피",
      "contact": null,
      "lat": "35.861215712725",
      "lng": "129.190368510617",
      "region": "경북",
      "district": "경주시",
      "id": 335
    },
    {
      "name": "이디야커피 경주성동중앙점",
      "address": "경북 경주시 원화로 287 (성동동) 1층",
      "contact": null,
      "lat": "35.846370976506",
      "lng": "129.217034155258",
      "region": "경북",
      "district": "경주시",
      "id": 336
    },
    {
      "name": "이디야커피 대구구지점",
      "address": "대구 달성군 구지면 과학마을로4길 4 (응암리) 이디야커피",
      "contact": null,
      "lat": "35.655309805439",
      "lng": "128.418901083608",
      "region": "대구",
      "district": "달성군",
      "id": 337
    },
    {
      "name": "이디야커피 종로교차로점",
      "address": "서울특별시 종로구 동호로 406-1 이디야커피",
      "contact": null,
      "lat": "37.570601282828",
      "lng": "127.002254869993",
      "region": "서울특별시",
      "district": "종로구",
      "id": 338
    },
    {
      "name": "이디야커피 광주소촌점",
      "address": "광주광역시 광산구 소촌로 92 (소촌동) 1층",
      "contact": null,
      "lat": "35.152659385565",
      "lng": "126.793174522979",
      "region": "광주광역시",
      "district": "광산구",
      "id": 339
    },
    {
      "name": "이디야커피 제천시청점",
      "address": "충청북도 제천시 원뜰로 24 이디야커피",
      "contact": null,
      "lat": "37.132507357677",
      "lng": "128.195186904361",
      "region": "충청북도",
      "district": "제천시",
      "id": 340
    },
    {
      "name": "이디야커피 합정역사거리점",
      "address": "서울특별시 마포구 독막로2길 5 (합정동) 1층",
      "contact": null,
      "lat": "37.548258346241",
      "lng": "126.914897289909",
      "region": "서울특별시",
      "district": "마포구",
      "id": 341
    },
    {
      "name": "이디야커피 창덕궁점",
      "address": "서울특별시 종로구 돈화문로 41-1 1층",
      "contact": null,
      "lat": "37.572280448246",
      "lng": "126.99142858489",
      "region": "서울특별시",
      "district": "종로구",
      "id": 342
    },
    {
      "name": "이디야커피 송파풍납점",
      "address": "서울특별시 송파구 강동대로9길 17-1 1층",
      "contact": null,
      "lat": "37.528095956254",
      "lng": "127.116544064515",
      "region": "서울특별시",
      "district": "송파구",
      "id": 343
    },
    {
      "name": "이디야커피 예천하나로마트신도청점",
      "address": "경북 예천군 호명면 산합리 1482-4번지 8-9호",
      "contact": null,
      "lat": "36.574736930006",
      "lng": "128.481756162869",
      "region": "경북",
      "district": "예천군",
      "id": 344
    },
    {
      "name": "이디야커피 서산음암점",
      "address": "충청남도 서산시 음암면 운암로 210 (도당리) 1층",
      "contact": null,
      "lat": "36.789551774861",
      "lng": "126.505480253357",
      "region": "충청남도",
      "district": "서산시",
      "id": 345
    },
    {
      "name": "이디야커피 석촌백제점",
      "address": "서울 송파구 석촌동 백제고분로39길 15 (삼경빌딩) 1층 101호",
      "contact": null,
      "lat": "37.505661474401",
      "lng": "127.104457446289",
      "region": "서울",
      "district": "송파구",
      "id": 346
    },
    {
      "name": "이디야커피 여수죽림점",
      "address": "전라남도 여수시 소라면 죽림2길 34-11 (죽림리) 1층",
      "contact": null,
      "lat": "34.761465994968",
      "lng": "127.639153536035",
      "region": "전라남도",
      "district": "여수시",
      "id": 347
    },
    {
      "name": "이디야커피 세종시부강DI점",
      "address": "세종특별자치시 부강면 청연로 123 ------이디야커피 세종시부강DI점",
      "contact": null,
      "lat": "36.532523669513",
      "lng": "127.361574859693",
      "region": "세종특별자치시",
      "district": "부강면",
      "id": 348
    },
    {
      "name": "이디야커피 신도림메르디앙점",
      "address": "서울특별시 구로구 신도림로 65 (신도림동) 신도림월드메르디앙오피스텔 1층 101호",
      "contact": null,
      "lat": "37.50956632702",
      "lng": "126.882037019484",
      "region": "서울특별시",
      "district": "구로구",
      "id": 349
    },
    {
      "name": "이디야커피 경주홈플러스점",
      "address": "경북 경주시 공단로 97 (용강동, 홈플러스) 이디야커피",
      "contact": null,
      "lat": "35.873441189029",
      "lng": "129.224864808253",
      "region": "경북",
      "district": "경주시",
      "id": 350
    },
    {
      "name": "이디야커피 춘천학곡점",
      "address": "강원 춘천시 동내면 영서로 1783",
      "contact": null,
      "lat": "37.835884317626",
      "lng": "127.759758626005",
      "region": "강원",
      "district": "춘천시",
      "id": 351
    },
    {
      "name": "이디야커피 이천롯데마트점",
      "address": "경기 이천시 구만리로 191 1층",
      "contact": null,
      "lat": "37.274278044666",
      "lng": "127.454448784286",
      "region": "경기",
      "district": "이천시",
      "id": 352
    },
    {
      "name": "이디야커피 오창중부점",
      "address": "충북 청주시 청원구 오창읍 중부로 760 상가동 1층 109호",
      "contact": null,
      "lat": "36.711556458762",
      "lng": "127.437095725055",
      "region": "충북",
      "district": "청주시",
      "id": 353
    },
    {
      "name": "이디야커피 제천왕암점",
      "address": "충북 제천시 소새로7길 10 (왕암동)",
      "contact": null,
      "lat": "37.154205541792",
      "lng": "128.171169113185",
      "region": "충북",
      "district": "제천시",
      "id": 354
    },
    {
      "name": "이디야커피 화성발안점",
      "address": "경기 화성시 향남읍 발안공단로 90 (구문천리) 1층 108호",
      "contact": null,
      "lat": "37.086961059335",
      "lng": "126.909405231492",
      "region": "경기",
      "district": "화성시",
      "id": 355
    },
    {
      "name": "이디야커피 춘천여고점",
      "address": "강원 춘천시 동면 만천양지길 93 (만천리) 이디야커피",
      "contact": null,
      "lat": "37.887512886488",
      "lng": "127.763962882673",
      "region": "강원",
      "district": "춘천시",
      "id": 356
    },
    {
      "name": "이디야커피 여주터미널점",
      "address": "경기 여주시 세종로 85 (홍문동, 여주종합터미널) 1층",
      "contact": null,
      "lat": "37.290347234469",
      "lng": "127.635601319991",
      "region": "경기",
      "district": "여주시",
      "id": 357
    },
    {
      "name": "이디야커피 경기광주시청점",
      "address": "경기 광주시 행정타운로 49-6 (송정동) 지하1층 103호",
      "contact": null,
      "lat": "37.427465748091",
      "lng": "127.251905462641",
      "region": "경기",
      "district": "광주시",
      "id": 358
    },
    {
      "name": "이디야커피 청룡중앙점",
      "address": "서울특별시 관악구 쑥고개로 80 (봉천동) 1층",
      "contact": null,
      "lat": "37.479212576235",
      "lng": "126.945266224203",
      "region": "서울특별시",
      "district": "관악구",
      "id": 359
    },
    {
      "name": "이디야커피 옥천역점",
      "address": "충북 옥천군 옥천읍 중앙로1길 6-1 (금구리) 이디야커피",
      "contact": null,
      "lat": "36.298127199161",
      "lng": "127.566702173455",
      "region": "충북",
      "district": "옥천군",
      "id": 360
    },
    {
      "name": "이디야커피 대구반야월점",
      "address": "대구광역시 동구 반야월로 369 이디야커피",
      "contact": null,
      "lat": "35.871956413223",
      "lng": "128.728958782217",
      "region": "대구광역시",
      "district": "동구",
      "id": 361
    },
    {
      "name": "이디야커피 홍은사거리점",
      "address": "서울특별시 서대문구 통일로 510(홍은동) 일원 북한산 더샵 단지 내 상가 110호",
      "contact": null,
      "lat": "37.592053052131",
      "lng": "126.941641895663",
      "region": "서울특별시",
      "district": "서대문구",
      "id": 362
    },
    {
      "name": "이디야커피 주문진점",
      "address": "강원도 강릉시 주문진읍 항구로 50 1층",
      "contact": null,
      "lat": "37.893192721104",
      "lng": "128.826937254709",
      "region": "강원도",
      "district": "강릉시",
      "id": 363
    },
    {
      "name": "이디야커피 대전연구단지점",
      "address": "대전 유성구 대덕대로 594 (도룡동, 타워코리아나 주상복합) 1층 101호",
      "contact": null,
      "lat": "36.385941164749",
      "lng": "127.379004078575",
      "region": "대전",
      "district": "유성구",
      "id": 364
    },
    {
      "name": "이디야커피 경산정평점",
      "address": "경북 경산시 대학로13길 89 1층 102호",
      "contact": null,
      "lat": "35.837511508333",
      "lng": "128.725718651902",
      "region": "경북",
      "district": "경산시",
      "id": 365
    },
    {
      "name": "이디야커피 대구칠곡홈플러스점",
      "address": "대구 북구 동암로12길 8 2층내",
      "contact": null,
      "lat": "35.944849272737",
      "lng": "128.555967537945",
      "region": "대구",
      "district": "북구",
      "id": 366
    },
    {
      "name": "이디야커피 아산온천동점",
      "address": "충남 아산시 아산로 118-3 1층 102호",
      "contact": null,
      "lat": "36.79272069878",
      "lng": "126.99534355857",
      "region": "충남",
      "district": "아산시",
      "id": 367
    },
    {
      "name": "이디야커피 경기광주능평점",
      "address": "경기 광주시 오포읍 능평로 210 1층",
      "contact": null,
      "lat": "37.344462679033",
      "lng": "127.177960441628",
      "region": "경기",
      "district": "광주시",
      "id": 368
    },
    {
      "name": "이디야커피 대전관저중앙점",
      "address": "대전 서구 관저로 31 (관저동, 엠디메디컬센터) 1층",
      "contact": null,
      "lat": "36.296934458919",
      "lng": "127.326213459001",
      "region": "대전",
      "district": "서구",
      "id": 369
    },
    {
      "name": "이디야커피 성남복정도서관점",
      "address": "경기 성남시 수정구 복정로 121 (복정동) 1층 101호",
      "contact": null,
      "lat": "37.46382197496",
      "lng": "127.126847971765",
      "region": "경기",
      "district": "성남시",
      "id": 370
    },
    {
      "name": "이디야커피 대구황금롯데캐슬점",
      "address": "대구 수성구 청수로45길 37 (황금동) 1층",
      "contact": null,
      "lat": "35.842210646787",
      "lng": "128.632437964296",
      "region": "대구",
      "district": "수성구",
      "id": 371
    },
    {
      "name": "이디야커피 천호중앙점",
      "address": "서울 강동구 올림픽로 660 (천호동, 천호엘크루주상복합) 1층 105호",
      "contact": null,
      "lat": "37.54016837688",
      "lng": "127.12456936024",
      "region": "서울",
      "district": "강동구",
      "id": 372
    },
    {
      "name": "이디야커피 강남구청역아이티웨딩점",
      "address": "서울 강남구 학동로 338 (논현동, 강남파라곤) 이디야커피",
      "contact": null,
      "lat": "37.516541717241",
      "lng": "127.040160199231",
      "region": "서울",
      "district": "강남구",
      "id": 373
    },
    {
      "name": "이디야커피 부천심곡본동점",
      "address": "경기 부천시 성주로176번길 28 (심곡본동) 1층, 2층",
      "contact": null,
      "lat": "37.477635076226",
      "lng": "126.775416845506",
      "region": "경기",
      "district": "부천시",
      "id": 374
    },
    {
      "name": "이디야커피 삼척해변점",
      "address": "강원 삼척시 새천년도로 513 (교동, 해변타운) 101호",
      "contact": null,
      "lat": "37.465544922511",
      "lng": "129.171901001866",
      "region": "강원",
      "district": "삼척시",
      "id": 375
    },
    {
      "name": "이디야커피 신림역점",
      "address": "서울 관악구 신림로 312 (신림동) 1층 좌측호",
      "contact": null,
      "lat": "37.482188748299",
      "lng": "126.930149824391",
      "region": "서울",
      "district": "관악구",
      "id": 376
    },
    {
      "name": "이디야커피 남양주다산한강초교점",
      "address": "경기 남양주시 다산지금로146번길 8-31 (다산동) 1층 일부",
      "contact": null,
      "lat": "37.600535121695",
      "lng": "127.17308295563",
      "region": "경기",
      "district": "남양주시",
      "id": 377
    },
    {
      "name": "이디야커피 사천실안점",
      "address": "경남 사천시 해안관광로 21 (실안동) 이디야커피",
      "contact": null,
      "lat": "34.941851716868",
      "lng": "128.043570348357",
      "region": "경남",
      "district": "사천시",
      "id": 378
    },
    {
      "name": "이디야커피 광주첨단지식산업센터점",
      "address": "광주 북구 첨단과기로208번길 43-10 (오룡동) 1층 108호 (IBC 지식산업센터)",
      "contact": null,
      "lat": "35.222690794787",
      "lng": "126.849213853136",
      "region": "광주",
      "district": "북구",
      "id": 379
    },
    {
      "name": "이디야커피 대구현풍케이스마트점",
      "address": "대구 달성군 유가읍 테크노순환로4길 8 이디야커피",
      "contact": null,
      "lat": "35.675663787703",
      "lng": "128.455916711319",
      "region": "대구",
      "district": "달성군",
      "id": 380
    },
    {
      "name": "이디야커피 국립대구박물관점",
      "address": "대구 수성구 청호로 321 (황금동, 국립대구박물관) 2층",
      "contact": null,
      "lat": "35.845576241335",
      "lng": "128.638341983221",
      "region": "대구",
      "district": "수성구",
      "id": 381
    },
    {
      "name": "이디야커피 강남센트럴시티점",
      "address": "서울 서초구 신반포로 176 (반포동, 센트럴시티) 1층 104호",
      "contact": null,
      "lat": "37.50393445623",
      "lng": "127.002411197247",
      "region": "서울",
      "district": "서초구",
      "id": 382
    },
    {
      "name": "이디야커피 당진터미널점",
      "address": "충남 당진시 당진중앙2로 447 (수청동, G1부경파크빌) 상가동 109,201호",
      "contact": null,
      "lat": "36.900736442255",
      "lng": "126.647017660291",
      "region": "충남",
      "district": "당진시",
      "id": 383
    },
    {
      "name": "이디야커피 마산어시장점",
      "address": "경남 창원시 마산합포구 해안대로 331 (남성동, 한백마리나타운) 159-1,227호",
      "contact": null,
      "lat": "35.201632429825",
      "lng": "128.576482382221",
      "region": "경남",
      "district": "창원시",
      "id": 384
    },
    {
      "name": "이디야커피 화정별빛마을점",
      "address": "경기 고양시 덕양구 화신로 319 (화정동, 문정빌딩) 1층 일부",
      "contact": null,
      "lat": "37.632652599207",
      "lng": "126.82629425607",
      "region": "경기",
      "district": "고양시",
      "id": 385
    },
    {
      "name": "이디야커피 하남테크노밸리U1점",
      "address": "경기 하남시 풍산동 633 힐즈파크프라자 B03,04호",
      "contact": null,
      "lat": "37.544521843566",
      "lng": "127.194127253305",
      "region": "경기",
      "district": "하남시",
      "id": 386
    },
    {
      "name": "이디야커피 구로역광장점",
      "address": "서울 구로구 경인로 572 (구로동, 스타팰리스) 109호,110호",
      "contact": null,
      "lat": "37.503305190539",
      "lng": "126.881083305471",
      "region": "서울",
      "district": "구로구",
      "id": 387
    },
    {
      "name": "이디야커피 예산삽교점",
      "address": "충남 예산군 삽교읍 삽교로 108 이디야커피",
      "contact": null,
      "lat": "36.685929062288",
      "lng": "126.740522455604",
      "region": "충남",
      "district": "예산군",
      "id": 388
    },
    {
      "name": "이디야커피 용인백암점",
      "address": "경기 용인시 처인구 백암면 덕평로 1-1 1층 이디야커피",
      "contact": null,
      "lat": "37.170795050537",
      "lng": "127.370669154898",
      "region": "경기",
      "district": "용인시",
      "id": 389
    },
    {
      "name": "이디야커피 위례포레샤인점",
      "address": "서울 송파구 위례순환로 477 (장지동, 위례포레샤인23단지) 근린생활시설2동 1층 101호, 102호",
      "contact": null,
      "lat": "37.475027172985",
      "lng": "127.136345178775",
      "region": "서울",
      "district": "송파구",
      "id": 390
    },
    {
      "name": "이디야커피 울산방어진점",
      "address": "울산 동구 내진길 27 (방어동) 1층",
      "contact": null,
      "lat": "35.48547695399",
      "lng": "129.425956504978",
      "region": "울산",
      "district": "동구",
      "id": 391
    },
    {
      "name": "이디야커피 창원대원점",
      "address": "경남 창원시 의창구 두대로 43 (대원동) 1층",
      "contact": null,
      "lat": "35.232466148743",
      "lng": "128.649459060671",
      "region": "경남",
      "district": "창원시",
      "id": 392
    },
    {
      "name": "이디야커피 천안백석대점",
      "address": "충남 천안시 동남구 문암로 62 (안서동) 101호 201호",
      "contact": null,
      "lat": "36.840443431819",
      "lng": "127.180570371438",
      "region": "충남",
      "district": "천안시",
      "id": 393
    },
    {
      "name": "이디야커피 청주내수점",
      "address": "충북 청주시 청원구 내수읍 내수로 609-1 1층",
      "contact": null,
      "lat": "36.718675134021",
      "lng": "127.527841793205",
      "region": "충북",
      "district": "청주시",
      "id": 394
    },
    {
      "name": "이디야커피 대구칠호광장점",
      "address": "대구 달서구 당산로38길 26 (두류동) 1층",
      "contact": null,
      "lat": "35.853463884438",
      "lng": "128.549999880455",
      "region": "대구",
      "district": "달서구",
      "id": 395
    },
    {
      "name": "이디야커피 부산망미중앙점",
      "address": "부산 수영구 과정로 65 (망미동) 1층",
      "contact": null,
      "lat": "35.177224528288",
      "lng": "129.106824303902",
      "region": "부산",
      "district": "수영구",
      "id": 396
    },
    {
      "name": "이디야커피 삼육대점",
      "address": "경기 남양주시 불암로 25-39 (별내동) 1층",
      "contact": null,
      "lat": "37.643879695105",
      "lng": "127.110084908931",
      "region": "경기",
      "district": "남양주시",
      "id": 397
    },
    {
      "name": "이디야커피 울산신정푸르지오점",
      "address": "울산 남구 월평로85번길 26-1 (신정동) 이디야커피",
      "contact": null,
      "lat": "35.545170486279",
      "lng": "129.314087588576",
      "region": "울산",
      "district": "남구",
      "id": 398
    },
    {
      "name": "이디야커피 부산만세365병원점",
      "address": "부산 중구 대청로 105 (대청동2가) 1층 104호",
      "contact": null,
      "lat": "35.103172129556",
      "lng": "129.031398081579",
      "region": "부산",
      "district": "중구",
      "id": 399
    },
    {
      "name": "이디야커피 칠곡왜관점",
      "address": "경북 칠곡군 왜관읍 달오1길 14-12 1층",
      "contact": null,
      "lat": "35.975483454342",
      "lng": "128.400095896181",
      "region": "경북",
      "district": "칠곡군",
      "id": 400
    },
    {
      "name": "이디야커피 고양벽제삼거리점",
      "address": "경기 고양시 덕양구 혜음로 166 (고양동) 1층 101호, 102호",
      "contact": null,
      "lat": "37.715249180347",
      "lng": "126.901344889482",
      "region": "경기",
      "district": "고양시",
      "id": 401
    },
    {
      "name": "이디야커피 청주방서점",
      "address": "충북 청주시 상당구 2순환로2031번길 12-6 (방서동) 1층 102호",
      "contact": null,
      "lat": "36.598122232438",
      "lng": "127.503475563695",
      "region": "충북",
      "district": "청주시",
      "id": 402
    },
    {
      "name": "이디야커피 응암역점",
      "address": "서울 은평구 연서로 9 (역촌동, 센타폴리스) 1층 106호",
      "contact": null,
      "lat": "37.600099530283",
      "lng": "126.91556845327",
      "region": "서울",
      "district": "은평구",
      "id": 403
    },
    {
      "name": "이디야커피 제천고명점",
      "address": "충북 제천시 고명로 6-8 (강제동) 101호",
      "contact": null,
      "lat": "37.123886347074",
      "lng": "128.224292323764",
      "region": "충북",
      "district": "제천시",
      "id": 404
    },
    {
      "name": "이디야커피 나주빛가람종합병원점",
      "address": "전남 나주시 빛가람동 235-1 (에스엠주차타워) 1층",
      "contact": null,
      "lat": "35.023578054567",
      "lng": "126.798982250427",
      "region": "전남",
      "district": "나주시",
      "id": 405
    },
    {
      "name": "이디야커피 부산만덕중앙점",
      "address": "부산 북구 만덕1로 26 (만덕동, 중앙빌딩) 102호, 103호",
      "contact": null,
      "lat": "35.214429546541",
      "lng": "129.034761200073",
      "region": "부산",
      "district": "북구",
      "id": 406
    },
    {
      "name": "이디야커피 여수선소점",
      "address": "전남 여수시 소호로 614 (학동) 1층 101호",
      "contact": null,
      "lat": "34.756581524028",
      "lng": "127.657182456952",
      "region": "전남",
      "district": "여수시",
      "id": 407
    },
    {
      "name": "이디야커피 동탄장지점",
      "address": "경기 화성시 동탄장지천5길 4-20 (장지동) 1층 103,104호",
      "contact": null,
      "lat": "37.15884846084",
      "lng": "127.106293890358",
      "region": "경기",
      "district": "화성시",
      "id": 408
    },
    {
      "name": "이디야커피 용산원효점",
      "address": "서울 용산구 원효로 70 (원효로4가, 신정빌딩) 1층",
      "contact": null,
      "lat": "37.532505487295",
      "lng": "126.951642152118",
      "region": "서울",
      "district": "용산구",
      "id": 409
    },
    {
      "name": "이디야커피 중화동점",
      "address": "서울 중랑구 동일로129길 1 (중화동) 1층",
      "contact": null,
      "lat": "37.599383845802",
      "lng": "127.079542626772",
      "region": "서울",
      "district": "중랑구",
      "id": 410
    },