{
  "meta": {
    "brand_id": "d77d83b92e9d4bf3aa296f70c7b9ddd6",
    "brand_name": "인생설렁탕",
    "totalCount": 23,
    "extractedAt": "2026-03-17T11:25:42.855Z",
    "sourceUrl": "https://www.theborn.co.kr/store/domestic-store/"
  },
  "stores": [
    {
      "id": 1,
      "name": "인생설렁탕 인천간석오거리역점",
      "address": "인천광역시 남동구 경인로 655, 1층",
      "contact": "032 434 7773",
      "lat": "37.4683334",
      "lng": "126.7075406",
      "region": "인천광역시",
      "district": "남동구"
    },
    {
      "id": 2,
      "name": "인생설렁탕 AK광명점",
      "address": "경기 광명시 양지로 17 지하 2층 푸드테라스",
      "contact": "미등록",
      "lat": "37.4186807",
      "lng": "126.8828897",
      "region": "경기",
      "district": "광명시"
    },
    {
      "id": 3,
      "name": "인생설렁탕 과천렛츠파크점",
      "address": "경기 과천시 경마공원대로 107 럭키빌 1층 푸드코트",
      "contact": "09:30~17:00",
      "lat": "37.4459287",
      "lng": "127.0116959",
      "region": "경기",
      "district": "과천시"
    },
    {
      "id": 4,
      "name": "인생설렁탕 강릉휴게소점(인천방향)",
      "address": "강원도 강릉시 성산면 영동고속도로 231 (강릉상휴게소)",
      "contact": "미등록",
      "lat": "37.7596389",
      "lng": "128.8050133",
      "region": "강원도",
      "district": "강릉시"
    },
    {
      "id": 5,
      "name": "인생설렁탕 옥천휴게소점(부산방향)",
      "address": "충북 옥천군 옥천읍 서대구일로 265-19 (매화리) 옥천(부산방향)주유소",
      "contact": "미등록",
      "lat": "36.2968980",
      "lng": "127.5953840",
      "region": "충북",
      "district": "옥천군"
    },
    {
      "id": 6,
      "name": "인생설렁탕 원주휴게소점(부산방향)",
      "address": "강원 원주시 호저면 마근거리길 120",
      "contact": "033-731-4291",
      "lat": "37.4352647",
      "lng": "127.9290165",
      "region": "강원",
      "district": "원주시"
    },
    {
      "id": 7,
      "name": "인생설렁탕 하남미사점",
      "address": "경기 하남시 미사강변대로226번길 26, 207호",
      "contact": "070-4833-8863",
      "lat": "37.5698049",
      "lng": "127.1851899",
      "region": "경기",
      "district": "하남시"
    },
    {
      "id": 8,
      "name": "인생설렁탕 광주일곡점",
      "address": "광주 북구 양일로305번길 24 (일곡동) 1층",
      "contact": "062-450-9393",
      "lat": "35.2027298",
      "lng": "126.8974059",
      "region": "광주",
      "district": "북구"
    },
    {
      "id": 9,
      "name": "인생설렁탕 당산점",
      "address": "서울 영등포구 당산로41길 11 SK V1 센터 내 117호",
      "contact": "070-4647-1430",
      "lat": "37.5308119",
      "lng": "126.8983704",
      "region": "서울",
      "district": "영등포구"
    },
    {
      "id": 10,
      "name": "인생설렁탕 대전카이스트점",
      "address": "대전 유성구 대학로 291 (구성동, 한국과학기술원) 카이스트 2층 태울관",
      "contact": "미등록",
      "lat": "36.3717787",
      "lng": "127.3608437",
      "region": "대전",
      "district": "유성구"
    },
    {
      "id": 11,
      "name": "인생설렁탕 군산시청점",
      "address": "전라북도 군산시 조촌로 36, 1층",
      "contact": "063-451-0991",
      "lat": "35.9671073",
      "lng": "126.7381189",
      "region": "전라북도",
      "district": "군산시"
    },
    {
      "id": 12,
      "name": "인생설렁탕 천안아산역점",
      "address": "충청남도 아산시 배방읍 장재리 1739 1층",
      "contact": "070-7525-8865",
      "lat": "36.7866388",
      "lng": "127.1006693",
      "region": "충청남도",
      "district": "아산시"
    },
    {
      "id": 13,
      "name": "인생설렁탕 청주용암점",
      "address": "충청북도 청주시 상당구 무심동로 22",
      "contact": "043-715-9923",
      "lat": "36.6064982",
      "lng": "127.5000977",
      "region": "충청북도",
      "district": "청주시"
    },
    {
      "id": 14,
      "name": "인생설렁탕 화성남양점",
      "address": "경기 화성시 남양읍 남양로 621번길 22(남양리)1층",
      "contact": "031-355-2965",
      "lat": "37.1948983",
      "lng": "126.8227782",
      "region": "경기",
      "district": "화성시"
    },
    {
      "id": 15,
      "name": "인생설렁탕 김천황금점",
      "address": "경북 김천시 김천로 238 (황금동) 1층",
      "contact": "054-436-8878​",
      "lat": "36.1170228",
      "lng": "128.1258085",
      "region": "경북",
      "district": "김천시"
    },
    {
      "id": 16,
      "name": "인생설렁탕 아산탕정점",
      "address": "충남 아산시 탕정면 탕정면로8번길 93-7 (명암리) 1층",
      "contact": "미등록",
      "lat": "36.7977202",
      "lng": "127.0623643",
      "region": "충남",
      "district": "아산시"
    },
    {
      "id": 17,
      "name": "인생설렁탕 장위뉴타운점",
      "address": "서울 성북구 장월로 140 (장위동) 2층",
      "contact": "02-943-2514",
      "lat": "37.6175108",
      "lng": "127.0507045",
      "region": "서울",
      "district": "성북구"
    },
    {
      "id": 18,
      "name": "인생설렁탕 수원인계점",
      "address": "경기도 수원시 팔달구 효원로 265번길 36,1층",
      "contact": "070-8880-8276",
      "lat": "37.2636068",
      "lng": "127.0316239",
      "region": "경기도",
      "district": "수원시"
    },
    {
      "id": 19,
      "name": "인생설렁탕 수원역점",
      "address": "경기도 수원시 팔달구 향교로 30, 1층 108호",
      "contact": "031-252-3903",
      "lat": "37.2682832",
      "lng": "127.0042983",
      "region": "경기도",
      "district": "수원시"
    },
    {
      "id": 20,
      "name": "인생설렁탕 고대안암역점",
      "address": "서울특별시 성북구 고려대로 24길 24, 1층",
      "contact": "02-6402-0121",
      "lat": "37.5851773",
      "lng": "127.0292768",
      "region": "서울특별시",
      "district": "성북구"
    },
    {
      "id": 21,
      "name": "인생설렁탕 안양일번가점",
      "address": "경기도 안양시 안양로 292번길 22,2층",
      "contact": "031-443-0288",
      "lat": "37.3988592",
      "lng": "126.9231282",
      "region": "경기도",
      "district": "안양시"
    },
    {
      "id": 22,
      "name": "인생설렁탕 서산호수공원점",
      "address": "충청남도 서산시 호수공원8로 3-4 , 인정빌딩 1층<br>(중앙호수공원 인근 서산시 스케이트장 앞, 도보 5분거리)",
      "contact": "041-681-6870",
      "lat": "36.7733074",
      "lng": "126.4508277",
      "region": "충청남도",
      "district": "서산시"
    },
    {
      "id": 23,
      "name": "인생설렁탕 안산중앙점",
      "address": "경기도 안산시 단원구 고잔1길 45, 1층",
      "contact": "031-413-8996",
      "lat": "37.3184046",
      "lng": "126.8385152",
      "region": "경기도",
      "district": "안산시"
    }
  ]
}