{
  "meta": {
    "brand_id": "1aa9e7312fd24dda88ae9b70439e6271",
    "brand_name": "치킨신드롬",
    "totalCount": 196,
    "extractedAt": "2026-03-17T08:37:33.109Z",
    "sourceUrl": "http://syndromeoc.com/%EC%A3%BC%EB%B3%80%20%EB%A7%A4%EC%9E%A5%20%EC%B0%BE%EA%B8%B0/?pageid=1&mod=list"
  },
  "stores": [
    {
      "id": 1,
      "name": "치킨신드롬 오창센트럴파크점",
      "address": "충청북도 청주시 청원구 오창공원로 96, 401동 114호",
      "contact": "0432172959",
      "lat": "36.7129423",
      "lng": "127.4224549",
      "region": "충청북도",
      "district": "청주시"
    },
    {
      "id": 2,
      "name": "치킨신드롬 내외구산점",
      "address": "경상남도 김해시 금관대로1365번길 4-14, 101호",
      "contact": "055-339-9782",
      "lat": "35.2451777",
      "lng": "128.8663671",
      "region": "경상남도",
      "district": "김해시"
    },
    {
      "id": 3,
      "name": "치킨신드롬 기장웨이브리즈점",
      "address": "부산광역시 기장군 대변로 43, 지하 2층, 7호",
      "contact": "051-723-1399",
      "lat": "35.2329943",
      "lng": "129.2218167",
      "region": "부산광역시",
      "district": "기장군"
    },
    {
      "id": 4,
      "name": "치킨신드롬 양정스위첸점",
      "address": "부산광역시 부산진구 진남로 593, 1층",
      "contact": "051-852-1544",
      "lat": "35.1736967",
      "lng": "129.0785725",
      "region": "부산광역시",
      "district": "부산진구"
    },
    {
      "id": 5,
      "name": "치킨신드롬 가경강서점",
      "address": "충청북도 청주시 흥덕구 2순환로 1276, 1층",
      "contact": "043-233-1011",
      "lat": "36.6226911",
      "lng": "127.4321988",
      "region": "충청북도",
      "district": "청주시"
    },
    {
      "id": 6,
      "name": "치킨신드롬 논현스타점",
      "address": "서울특별시 강남구 언주로 604, 제지1층 108호",
      "contact": "02-515-7097",
      "lat": "37.5095777",
      "lng": "127.0389463",
      "region": "서울특별시",
      "district": "강남구"
    },
    {
      "id": 7,
      "name": "치킨신드롬 신덕계트리마제점",
      "address": "경상남도 양산시 신덕계2길 15, 외 2필지 트리마제양산1단지 상가동 1022동 102호",
      "contact": "055-388-4481",
      "lat": "35.3765218",
      "lng": "129.1590957",
      "region": "경상남도",
      "district": "양산시"
    },
    {
      "id": 8,
      "name": "치킨신드롬 황성점",
      "address": "경상북도 경주시 용담로92번길 38, 103동 104호",
      "contact": "054-622-9982",
      "lat": "35.8665918",
      "lng": "129.2140689",
      "region": "경상북도",
      "district": "경주시"
    },
    {
      "id": 9,
      "name": "치킨신드롬 청주봉명자이점",
      "address": "충청북도 청주시 흥덕구 월명로 76, 상가동 105호",
      "contact": "043-267-1654",
      "lat": "36.6419780",
      "lng": "127.4553111",
      "region": "충청북도",
      "district": "청주시"
    },
    {
      "id": 10,
      "name": "치킨신드롬 범천점",
      "address": "부산광역시 부산진구 만리산로 11, 101호",
      "contact": "051-638-6668",
      "lat": "35.1436945",
      "lng": "129.0540258",
      "region": "부산광역시",
      "district": "부산진구"
    },
    {
      "id": 11,
      "name": "치킨신드롬 덕천포레나점",
      "address": "부산광역시 북구 만덕대로 81, 501동 7호",
      "contact": "051-337-5556",
      "lat": "35.2127890",
      "lng": "129.0131411",
      "region": "부산광역시",
      "district": "북구"
    },
    {
      "id": 12,
      "name": "치킨신드롬 초읍래미안점",
      "address": "부산광역시 부산진구 성지로 37, 상가3동 1층 102호",
      "contact": "051-819-1777",
      "lat": "35.1750215",
      "lng": "129.0511581",
      "region": "부산광역시",
      "district": "부산진구"
    },
    {
      "id": 13,
      "name": "치킨신드롬 세종다정점",
      "address": "세종특별자치시 다정중앙로 19, 제상가1동 제지1층 1동 108호",
      "contact": "044-864-8988",
      "lat": "36.4927353",
      "lng": "127.2478175",
      "region": "세종특별자치시",
      "district": "다정중앙로"
    },
    {
      "id": 14,
      "name": "치킨신드롬 오창베스트점",
      "address": "충청북도 청주시 청원구 2산단로 181, 1층 101호",
      "contact": "043-211-2525",
      "lat": "36.7367302",
      "lng": "127.4542759",
      "region": "충청북도",
      "district": "청주시"
    },
    {
      "id": 15,
      "name": "치킨신드롬 반여드파인점",
      "address": "부산광역시 해운대구 반여로41번길 54, 지상1층 일부",
      "contact": "051-528-0555",
      "lat": "35.1975199",
      "lng": "129.1189716",
      "region": "부산광역시",
      "district": "해운대구"
    },
    {
      "id": 16,
      "name": "치킨신드롬 세종산울점",
      "address": "세종특별자치시 산울7로 11, 근생디(701동하부)동 D-106호",
      "contact": "044-868-4999",
      "lat": "36.5310839",
      "lng": "127.2646569",
      "region": "세종특별자치시",
      "district": "산울7로"
    },
    {
      "id": 17,
      "name": "치킨신드롬 명지오션점",
      "address": "부산광역시 강서구 명지오션시티10로 114, 지하1층 B109호",
      "contact": "051-271-1922",
      "lat": "35.0856653",
      "lng": "128.9085677",
      "region": "부산광역시",
      "district": "강서구"
    },
    {
      "id": 18,
      "name": "치킨신드롬 구영점",
      "address": "울산광역시 울주군 점촌3길 10-9, 103호",
      "contact": "052-211-2562",
      "lat": "35.5741863",
      "lng": "129.2402614",
      "region": "울산광역시",
      "district": "울주군"
    },
    {
      "id": 19,
      "name": "치킨신드롬 대연점",
      "address": "부산광역시 남구 유엔로183번길 71, 1층",
      "contact": "051-626-7320",
      "lat": "35.1334291",
      "lng": "129.0961458",
      "region": "부산광역시",
      "district": "남구"
    },
    {
      "id": 20,
      "name": "치킨신드롬 무거점",
      "address": "울산 남구 신복로46번길 29-24 1층",
      "contact": "052-222-4915",
      "lat": "35.5518039",
      "lng": "129.2568167",
      "region": "울산",
      "district": "남구"
    },
    {
      "id": 21,
      "name": "치킨신드롬 송도베이시티점",
      "address": "부산 서구 송도해변로 192 b동 109호",
      "contact": "051-243-8813",
      "lat": "35.0784132",
      "lng": "129.0233013",
      "region": "부산",
      "district": "서구"
    },
    {
      "id": 22,
      "name": "치킨신드롬 사천점",
      "address": "경남 사천시 사남면 월성1길 15-23 1층",
      "contact": "055-853-1988",
      "lat": "35.0632206",
      "lng": "128.0791480",
      "region": "경남",
      "district": "사천시"
    },
    {
      "id": 23,
      "name": "치킨신드롬 안산선부점",
      "address": "경기 안산시 단원구 선부광장1로 173 상가1동 1층 108호",
      "contact": "031-402-2902",
      "lat": "37.3326906",
      "lng": "126.8065834",
      "region": "경기",
      "district": "안산시"
    },
    {
      "id": 24,
      "name": "치킨신드롬 대연혁신점",
      "address": "부산광역시 남구  수영로325번길 61 (대연동, 대연롯데캐슬) 301동 1층 101호",
      "contact": "051-622-4962",
      "lat": "35.1405891",
      "lng": "129.0998020",
      "region": "부산광역시",
      "district": "남구"
    },
    {
      "id": 25,
      "name": "치킨신드롬 좌동뜨란채점",
      "address": "부산광역시 해운대구 대천로67번길 12, 1층 103호(좌동)",
      "contact": "051-746-6184",
      "lat": "35.1735601",
      "lng": "129.1689045",
      "region": "부산광역시",
      "district": "해운대구"
    },
    {
      "id": 26,
      "name": "치킨신드롬 원삼점",
      "address": "경기도 용인시 처인구 원삼면 맹리로 17번길 4, 102호",
      "contact": "031-336-3777",
      "lat": "37.1949477",
      "lng": "127.3279413",
      "region": "경기도",
      "district": "용인시"
    },
    {
      "id": 27,
      "name": "치킨신드롬 신월점",
      "address": "서울특별시 양천구 신월로10길5, 1층(신월동)",
      "contact": "02-422-2363",
      "lat": "37.5168391",
      "lng": "126.8405645",
      "region": "서울특별시",
      "district": "양천구"
    },
    {
      "id": 28,
      "name": "치킨신드롬 봉천점",
      "address": "서울특별시 관악구 남부순환로 1677-20, 1층(봉천동)",
      "contact": "02-876-7333",
      "lat": "37.4848632",
      "lng": "126.9374358",
      "region": "서울특별시",
      "district": "관악구"
    },
    {
      "id": 29,
      "name": "치킨신드롬 배방점",
      "address": "충청남도 아산시 배방읍 모산로 81-1, 1층 1호",
      "contact": "041-533-7277",
      "lat": "36.7739253",
      "lng": "127.0518666",
      "region": "충청남도",
      "district": "아산시"
    },
    {
      "id": 30,
      "name": "치킨신드롬 모충점",
      "address": "충청북도 청주시 서원구 쌍샘로 13, 1층(모충동)",
      "contact": "043-900-7272",
      "lat": "36.6268390",
      "lng": "127.4824378",
      "region": "충청북도",
      "district": "청주시"
    },
    {
      "id": 31,
      "name": "치킨신드롬 신불당점",
      "address": "충청남도 천안시 서북구 불당21로 40, 501동 지1층 B144호(불당동,천안불당 호반써밋플레이스)",
      "contact": "041-562-7782",
      "lat": "36.8122353",
      "lng": "127.1041880",
      "region": "충청남도",
      "district": "천안시"
    },
    {
      "id": 32,
      "name": "치킨신드롬 음성점",
      "address": "충청북도 음성군 음성읍 설성로86번길 28-1",
      "contact": "043-873-8858",
      "lat": "36.9278589",
      "lng": "127.6915631",
      "region": "충청북도",
      "district": "음성군"
    },
    {
      "id": 33,
      "name": "치킨신드롬 천안신부점",
      "address": "충청남도 천안시 동남구 터미널9길 59, 상가동 105호(신부동)",
      "contact": "041-522-1988",
      "lat": "36.8237835",
      "lng": "127.1592605",
      "region": "충청남도",
      "district": "천안시"
    },
    {
      "id": 34,
      "name": "치킨신드롬 가마점",
      "address": "충청북도 청주시 서원구 남이면 청남로 1827-32, 1층",
      "contact": "043-288-6608",
      "lat": "36.5991013",
      "lng": "127.4702147",
      "region": "충청북도",
      "district": "청주시"
    },
    {
      "id": 35,
      "name": "치킨신드롬 의정부점",
      "address": "경기도 의정부시 가능로 164, 1층(의정부동)",
      "contact": "031-837-2888",
      "lat": "37.7469796",
      "lng": "127.0495105",
      "region": "경기도",
      "district": "의정부시"
    },
    {
      "id": 36,
      "name": "치킨신드롬 개신점",
      "address": "충청북도 청주시 흥덕구 사운로341번길 23, 1층(신봉동)",
      "contact": "043-902-3542",
      "lat": "36.6561825",
      "lng": "127.4674061",
      "region": "충청북도",
      "district": "청주시"
    },
    {
      "id": 37,
      "name": "치킨신드롬 신봉점",
      "address": "충청북도 청주시 흥덕구 사운로341번길 23, 1층(신봉동)",
      "contact": "043-902-3542",
      "lat": "36.6561825",
      "lng": "127.4674061",
      "region": "충청북도",
      "district": "청주시"
    },
    {
      "id": 38,
      "name": "치킨신드롬 용정점",
      "address": "충청북도 청주시 상당구 용정로 26, 101호(용정동)",
      "contact": "043-298-0909",
      "lat": "36.6293055",
      "lng": "127.5164061",
      "region": "충청북도",
      "district": "청주시"
    },
    {
      "id": 39,
      "name": "치킨신드롬 가경점",
      "address": "충청북도 청주시 흥덕구 가경로 140, 상가동 1층 109호(가경동)",
      "contact": "043-238-7997",
      "lat": "36.6274713",
      "lng": "127.4377100",
      "region": "충청북도",
      "district": "청주시"
    },
    {
      "id": 40,
      "name": "치킨신드롬 용암점",
      "address": "충북 청주시 상당구 용암동 1429번지",
      "contact": "043-295-8889",
      "lat": "36.6114361",
      "lng": "127.5013773",
      "region": "충북",
      "district": "청주시"
    },
    {
      "id": 41,
      "name": "치킨신드롬 강남점",
      "address": "충남 공주시 번영2로 40-30(신관동)",
      "contact": "041-881-9282",
      "lat": "36.4704388",
      "lng": "127.1346573",
      "region": "충남",
      "district": "공주시"
    },
    {
      "id": 42,
      "name": "치킨신드롬 당진점",
      "address": "충남 당진시 원당동 851-5번지 상윤빌딩 105호 충남 당진시 원당로 50-20(원당동, 상윤빌딩)",
      "contact": "041-357-7700",
      "lat": "36.9050372",
      "lng": "126.6431753",
      "region": "충남",
      "district": "당진시"
    },
    {
      "id": 43,
      "name": "치킨신드롬 기흥역점",
      "address": "경기도 용인시 기흥구 기흥역로58번길 10, 1층 1-103호(구갈동, 기흥역 센트럴 푸르지오)",
      "contact": "031-283-9995",
      "lat": "37.2734233",
      "lng": "127.1198039",
      "region": "경기도",
      "district": "용인시"
    },
    {
      "id": 44,
      "name": "치킨신드롬 사천.율량점",
      "address": "충북 청주시 청원구 율량동 1035",
      "contact": "043-217-9994",
      "lat": "36.6679871",
      "lng": "127.4924991",
      "region": "충북",
      "district": "청주시"
    },
    {
      "id": 45,
      "name": "치킨신드롬 내수점",
      "address": "충북 청원군 내수읍 마산리 210번지 주공상가 102호",
      "contact": "043-213-2050",
      "lat": "36.7234552",
      "lng": "127.5342094",
      "region": "충북",
      "district": "청원군"
    },
    {
      "id": 46,
      "name": "치킨신드롬 하복대점",
      "address": "충북 청주시 흥덕구 복대동 2749번지",
      "contact": "043-239-8998",
      "lat": "36.6332060",
      "lng": "127.4273332",
      "region": "충북",
      "district": "청주시"
    },
    {
      "id": 47,
      "name": "치킨신드롬 중계점",
      "address": "서울 노원구 하계동 270번지 우성상가 109호",
      "contact": "02-977-1522",
      "lat": "37.6368546",
      "lng": "127.0663940",
      "region": "서울",
      "district": "노원구"
    },
    {
      "id": 48,
      "name": "치킨신드롬 단월점",
      "address": "경기도 양평군 단월면 보룡길 104, 1층",
      "contact": "031-773-1930",
      "lat": "37.5428439",
      "lng": "127.6729827",
      "region": "경기도",
      "district": "양평군"
    },
    {
      "id": 49,
      "name": "치킨신드롬 용문점",
      "address": "경기도 양평군 용문면 다문북길 24, 1층 102호",
      "contact": "031-775-9288",
      "lat": "37.4829186",
      "lng": "127.5889644",
      "region": "경기도",
      "district": "양평군"
    },
    {
      "id": 50,
      "name": "치킨신드롬 양평옥천점",
      "address": "경기도 양평군 옥천면 옥천길 20. 1층",
      "contact": "031 774 9985",
      "lat": "37.5177002",
      "lng": "127.4564038",
      "region": "경기도",
      "district": "양평군"
    },
    {
      "id": 51,
      "name": "치킨신드롬 양평점",
      "address": "경기 양평군 양평읍 양근리 302-8번지",
      "contact": "031-772-9245",
      "lat": "37.4890280",
      "lng": "127.4921038",
      "region": "경기",
      "district": "양평군"
    },
    {
      "id": 52,
      "name": "치킨신드롬 양수점",
      "address": "경기 양평군 양서면 용담리 245-3번지",
      "contact": "031-772-9920",
      "lat": "37.5446653",
      "lng": "127.3283228",
      "region": "경기",
      "district": "양평군"
    },
    {
      "id": 53,
      "name": "치킨신드롬 대흥점",
      "address": "대전광역시 중구 충무로107번길 100, B동 103-1호(대흥동,센트럴자이상가)",
      "contact": "042-222-8436",
      "lat": "36.3222413",
      "lng": "127.4277499",
      "region": "대전광역시",
      "district": "중구"
    },
    {
      "id": 54,
      "name": "치킨신드롬 용운판암점",
      "address": "대전 동구 용운로 154, 1층(용운동)",
      "contact": "042-623-8292",
      "lat": "36.3279642",
      "lng": "127.4594641",
      "region": "대전",
      "district": "동구"
    },
    {
      "id": 55,
      "name": "치킨신드롬 비래점",
      "address": "대전 대덕구 비래동로16번길 42 (비래동)",
      "contact": "042-627-9982",
      "lat": "36.3544550",
      "lng": "127.4518671",
      "region": "대전",
      "district": "대덕구"
    },
    {
      "id": 56,
      "name": "치킨신드롬 유성온천점",
      "address": "대전 유성구 유성대로694번길 112, 1층(봉명동)",
      "contact": "042-824-2550",
      "lat": "36.3536412",
      "lng": "127.3374487",
      "region": "대전",
      "district": "유성구"
    },
    {
      "id": 57,
      "name": "치킨신드롬 도안봉명점",
      "address": "대전 유성구 도안동로 523, 1층 107호(봉명동)",
      "contact": "042-822-6167",
      "lat": "36.3501215",
      "lng": "127.3468277",
      "region": "대전",
      "district": "유성구"
    },
    {
      "id": 58,
      "name": "치킨신드롬 월평점",
      "address": "대전 서구 한밭대로600번길 17",
      "contact": "042-486-9399",
      "lat": "36.3571514",
      "lng": "127.3654611",
      "region": "대전",
      "district": "서구"
    },
    {
      "id": 59,
      "name": "치킨신드롬 군산점",
      "address": "전라북도 군산시 칠성안1길 32(산북동)",
      "contact": "063-471-4447",
      "lat": "35.9681514",
      "lng": "126.6785350",
      "region": "전라북도",
      "district": "군산시"
    },
    {
      "id": 60,
      "name": "치킨신드롬 서신점",
      "address": "전북 전주시 완산구 서신천변11길 8 (서신동)",
      "contact": "063-272-8675",
      "lat": "35.8302810",
      "lng": "127.1135244",
      "region": "전북",
      "district": "전주시"
    },
    {
      "id": 61,
      "name": "치킨신드롬 효자.삼천점",
      "address": "전북 전주시 완산구 효자동1가 652 상산타운아파트상가 3-113",
      "contact": "063-222-8222",
      "lat": "35.8034799",
      "lng": "127.1151442",
      "region": "전북",
      "district": "전주시"
    },
    {
      "id": 62,
      "name": "치킨신드롬 평화점",
      "address": "전북 전주시 완산구 평화동2가 866-12번지",
      "contact": "063-236-3990",
      "lat": "35.7897485",
      "lng": "127.1364429",
      "region": "전북",
      "district": "전주시"
    },
    {
      "id": 63,
      "name": "치킨신드롬 남원점",
      "address": "전북 남원시 도통동 529-1번지 전령길 30",
      "contact": "063-636-0292",
      "lat": "35.4143204",
      "lng": "127.3918833",
      "region": "전북",
      "district": "남원시"
    },
    {
      "id": 64,
      "name": "치킨신드롬 오송점",
      "address": "충청북도 청주시 흥덕구 오송읍 오송생명7로 151, 227동 A-B508,B509호 (오송역 파라곤 센트럴시티)",
      "contact": "043-233-9972",
      "lat": "36.6221498",
      "lng": "127.3138698",
      "region": "충청북도",
      "district": "청주시"
    },
    {
      "id": 65,
      "name": "치킨신드롬 신제주점",
      "address": "제주특별자치도 제주시 연동1길 4, 1층(연동)",
      "contact": "064-744-4522",
      "lat": "33.4895897",
      "lng": "126.4865769",
      "region": "제주특별자치도",
      "district": "제주시"
    },
    {
      "id": 66,
      "name": "치킨신드롬 사천점",
      "address": "경상남도 사천시 사남면 월성1길 15-23, 1층",
      "contact": "055-853-1988",
      "lat": "35.0632206",
      "lng": "128.0791480",
      "region": "경상남도",
      "district": "사천시"
    },
    {
      "id": 67,
      "name": "치킨신드롬 인제베스트점",
      "address": "경상남도 김해시 활천로255번길 76-1, 1층(삼방동)",
      "contact": "055-339-5671",
      "lat": "35.2489857",
      "lng": "128.9065289",
      "region": "경상남도",
      "district": "김해시"
    },
    {
      "id": 68,
      "name": "치킨신드롬 장평점",
      "address": "경상남도 거제시 장평1로 143-1, 상가1동 103호(장평동,장평제2차주공아파트)",
      "contact": "055-635-7890",
      "lat": "34.8918621",
      "lng": "128.6055420",
      "region": "경상남도",
      "district": "거제시"
    },
    {
      "id": 69,
      "name": "치킨신드롬 자은점",
      "address": "경상남도 창원시 진해구 냉천남로 3-26, 104호(자은동,에덴프라자)",
      "contact": "055-603-9982",
      "lat": "35.1548957",
      "lng": "128.7142921",
      "region": "경상남도",
      "district": "창원시"
    },
    {
      "id": 70,
      "name": "치킨신드롬 아주점",
      "address": "경상남도 거제시 아주1로3길 66, 1층(아주동)",
      "contact": "055-682-7771",
      "lat": "34.8654354",
      "lng": "128.6874640",
      "region": "경상남도",
      "district": "거제시"
    },
    {
      "id": 71,
      "name": "치킨신드롬 삼문점",
      "address": "경상남도 김해시 번화1로 122, 102-2호(삼문동)",
      "contact": "055-311-8290",
      "lat": "35.1980477",
      "lng": "128.7979717",
      "region": "경상남도",
      "district": "김해시"
    },
    {
      "id": 72,
      "name": "치킨신드롬 진영점",
      "address": "경상남도 김해시 진영읍 장등1로 20, 1층",
      "contact": "055-343-5589",
      "lat": "35.3135348",
      "lng": "128.7371914",
      "region": "경상남도",
      "district": "김해시"
    },
    {
      "id": 73,
      "name": "치킨신드롬 칠원점",
      "address": "경상남도 함안군 칠원읍 구성길 29, 1층",
      "contact": "055-586-8998",
      "lat": "35.3059555",
      "lng": "128.5181022",
      "region": "경상남도",
      "district": "함안군"
    },
    {
      "id": 74,
      "name": "치킨신드롬 내서점",
      "address": "경상남도 창원시 마산회원구 내서읍 호원로 212, 1층",
      "contact": "055-231-1011",
      "lat": "35.2523389",
      "lng": "128.5209438",
      "region": "경상남도",
      "district": "창원시"
    },
    {
      "id": 75,
      "name": "치킨신드롬 용원점",
      "address": "경상남도 창원시 진해구 용재로 57, 1층(용원동)",
      "contact": "055-603-2848",
      "lat": "35.1014258",
      "lng": "128.8161052",
      "region": "경상남도",
      "district": "창원시"
    },
    {
      "id": 76,
      "name": "치킨신드롬 가음점",
      "address": "경상남도 창원시 성산구 가음정로43번길 3, 1층 105호(가음동, 더원빌딩)",
      "contact": "055-262-5765",
      "lat": "35.2096148",
      "lng": "128.6889959",
      "region": "경상남도",
      "district": "창원시"
    },
    {
      "id": 77,
      "name": "치킨신드롬 진해경화점",
      "address": "경상남도 창원시 진해구 병암로21번길 11, 1층(경화동)",
      "contact": "055-551-3409",
      "lat": "35.1555496",
      "lng": "128.6915617",
      "region": "경상남도",
      "district": "창원시"
    },
    {
      "id": 78,
      "name": "치킨신드롬 내외구산점",
      "address": "경상남도 김해시 금관대로 1365번길 4-14 (내동)",
      "contact": "055-339-9782",
      "lat": "35.2451777",
      "lng": "128.8663671",
      "region": "경상남도",
      "district": "김해시"
    },
    {
      "id": 79,
      "name": "치킨신드롬 옥포점",
      "address": "경상남도 거제시 옥포로6길 20 (옥포동, 2층)",
      "contact": "055-688-2522",
      "lat": "34.8911070",
      "lng": "128.6954117",
      "region": "경상남도",
      "district": "거제시"
    },
    {
      "id": 80,
      "name": "치킨신드롬 율하점",
      "address": "경상남도 김해시 율하2로 163 (율하동)",
      "contact": "055-313-3579",
      "lat": "35.1689195",
      "lng": "128.8185715",
      "region": "경상남도",
      "district": "김해시"
    },
    {
      "id": 81,
      "name": "치킨신드롬 하대도동점",
      "address": "경상남도 진주시 도동로232번길 8-1(하대동, 1층)",
      "contact": "055-761-1622",
      "lat": "35.1909727",
      "lng": "128.1228335",
      "region": "경상남도",
      "district": "진주시"
    },
    {
      "id": 82,
      "name": "치킨신드롬 외동점",
      "address": "경상남도 김해시 분성로 16, 105호(외동)",
      "contact": "055-322-7773",
      "lat": "35.2329312",
      "lng": "128.8490309",
      "region": "경상남도",
      "district": "김해시"
    },
    {
      "id": 83,
      "name": "치킨신드롬 삼계점",
      "address": "경남 김해시 가야로 147(삼계동)",
      "contact": "055-338-7973",
      "lat": "35.2643973",
      "lng": "128.8719222",
      "region": "경남",
      "district": "김해시"
    },
    {
      "id": 84,
      "name": "치킨신드롬 남양.용현점",
      "address": "경남 사천시 송포동 277-7번지",
      "contact": "055-832-9255",
      "lat": "34.9685020",
      "lng": "128.0636608",
      "region": "경남",
      "district": "사천시"
    },
    {
      "id": 85,
      "name": "치킨신드롬 삼천포점",
      "address": "경남 사천시 벌리동 453-1번지",
      "contact": "055-835-9935",
      "lat": "34.9388415",
      "lng": "128.0807021",
      "region": "경남",
      "district": "사천시"
    },
    {
      "id": 86,
      "name": "치킨신드롬 천곡점",
      "address": "울산광역시 북구 천곡길 179, 205(상가)동 지상1층 102호(천곡동)",
      "contact": "052-281-7989",
      "lat": "35.6386547",
      "lng": "129.3258027",
      "region": "울산광역시",
      "district": "북구"
    },
    {
      "id": 87,
      "name": "치킨신드롬 성남점",
      "address": "울산광역시 중구 당산4길 43, 1층(우정동)",
      "contact": "052-248-7100",
      "lat": "35.5538094",
      "lng": "129.3119755",
      "region": "울산광역시",
      "district": "중구"
    },
    {
      "id": 88,
      "name": "치킨신드롬 송정지구점",
      "address": "울산광역시 북구 송정11길 9, 1층(송정동)",
      "contact": "052-295-1008",
      "lat": "35.5998585",
      "lng": "129.3609322",
      "region": "울산광역시",
      "district": "북구"
    },
    {
      "id": 89,
      "name": "치킨신드롬 삼호점",
      "address": "울산광역시 남구 어은로 19, 1층(무거동)",
      "contact": "052-223-3343",
      "lat": "35.5510034",
      "lng": "129.2737191",
      "region": "울산광역시",
      "district": "남구"
    },
    {
      "id": 90,
      "name": "치킨신드롬 언양점",
      "address": "울산광역시 울주군 언양읍 언양로 77, 106동 1층 103호(e편한세상울산역어반스퀘어아파트)",
      "contact": "052-262-0423",
      "lat": "35.5610584",
      "lng": "129.1346582",
      "region": "울산광역시",
      "district": "울주군"
    },
    {
      "id": 91,
      "name": "치킨신드롬 달동점",
      "address": "울산광역시 남구 신정로78번길 23, 1층 102호(달동)",
      "contact": "052-269-6999",
      "lat": "35.5394412",
      "lng": "129.3231406",
      "region": "울산광역시",
      "district": "남구"
    },
    {
      "id": 92,
      "name": "치킨신드롬 삼산점",
      "address": "울산광역시 남구 화합로210번길 11, 1층(삼산동)",
      "contact": "052-266-2308",
      "lat": "35.5434718",
      "lng": "129.3409497",
      "region": "울산광역시",
      "district": "남구"
    },
    {
      "id": 93,
      "name": "치킨신드롬 태화점",
      "address": "울산광역시 중구 태화로 139, 1층(태화동)",
      "contact": "052-223-5078",
      "lat": "35.5535198",
      "lng": "129.2913357",
      "region": "울산광역시",
      "district": "중구"
    },
    {
      "id": 94,
      "name": "치킨신드롬 명덕남목점",
      "address": "울산광역시 동구 명덕4길 10, 1층(서부동)",
      "contact": "052-233-7885",
      "lat": "35.5229778",
      "lng": "129.4322231",
      "region": "울산광역시",
      "district": "동구"
    },
    {
      "id": 95,
      "name": "치킨신드롬 매곡점",
      "address": "울산광역시 북구 괴정1길 122-1, 지상1층(매곡동)",
      "contact": "052-975-7272",
      "lat": "35.6431929",
      "lng": "129.3574890",
      "region": "울산광역시",
      "district": "북구"
    },
    {
      "id": 96,
      "name": "치킨신드롬 우정점",
      "address": "울산광역시 중구 종가2길 6, 102호(유곡동)",
      "contact": "052-905-9982",
      "lat": "35.5598155",
      "lng": "129.2952417",
      "region": "울산광역시",
      "district": "중구"
    },
    {
      "id": 97,
      "name": "치킨신드롬 송대점",
      "address": "울산광역시 울주군 언양읍 내곡능골길 93-20,139동 지하1층103호(양우내안에 더퍼스트 아파트)",
      "contact": "052-264-7177",
      "lat": "35.5823571",
      "lng": "129.1216904",
      "region": "울산광역시",
      "district": "울주군"
    },
    {
      "id": 98,
      "name": "치킨신드롬 쌍용하나점",
      "address": "울산광역시 울주군 청량읍 삼정로 92-3, 나동 212호",
      "contact": "052-225-3380",
      "lat": "35.4962167",
      "lng": "129.2380312",
      "region": "울산광역시",
      "district": "울주군"
    },
    {
      "id": 99,
      "name": "치킨신드롬 방어점",
      "address": "울산광역시 동구 화잠로 114, (방어동,샤인빌)",
      "contact": "052-251-3060",
      "lat": "35.4792588",
      "lng": "129.4135490",
      "region": "울산광역시",
      "district": "동구"
    },
    {
      "id": 100,
      "name": "치킨신드롬 대현더샵점",
      "address": "울산광역시 남구 수암로 192",
      "contact": "052-265-9992",
      "lat": "35.5266012",
      "lng": "129.3279168",
      "region": "울산광역시",
      "district": "남구"
    },
    {
      "id": 101,
      "name": "치킨신드롬 인동점",
      "address": "경상북도 구미시 인동28길 35-9, 1층(진평동)",
      "contact": "054-472-5212",
      "lat": "36.0930419",
      "lng": "128.4273539",
      "region": "경상북도",
      "district": "구미시"
    },
    {
      "id": 102,
      "name": "치킨신드롬 북삼오태점",
      "address": "경상북도 칠곡군 북삼읍 금오대로2길 20-2",
      "contact": "054-972-9696",
      "lat": "36.0659488",
      "lng": "128.3478931",
      "region": "경상북도",
      "district": "칠곡군"
    },
    {
      "id": 103,
      "name": "치킨신드롬 문성점",
      "address": "경상북도 구미시 고아읍 가들로 19, A-104호",
      "contact": "054-441-9800",
      "lat": "36.1583553",
      "lng": "128.3468604",
      "region": "경상북도",
      "district": "구미시"
    },
    {
      "id": 104,
      "name": "치킨신드롬 왜관점",
      "address": "경상북도 칠곡군 왜관읍 달오3길 26-7, 102호",
      "contact": "054-976-9963",
      "lat": "35.9784138",
      "lng": "128.4015601",
      "region": "경상북도",
      "district": "칠곡군"
    },
    {
      "id": 105,
      "name": "치킨신드롬 옥계점",
      "address": "경상북도 구미시 산호대로25길 10-23, 1층(옥계동)",
      "contact": "054-475-0078",
      "lat": "36.1380115",
      "lng": "128.4167107",
      "region": "경상북도",
      "district": "구미시"
    },
    {
      "id": 106,
      "name": "치킨신드롬 범천중앙점",
      "address": "부산광역시 부산진구 신암로 133, 401동 지하2층 5호(범천동, e편한세상 서면 더센트럴)",
      "contact": "051-646-8592",
      "lat": "35.1511063",
      "lng": "129.0498301",
      "region": "부산광역시",
      "district": "부산진구"
    },
    {
      "id": 107,
      "name": "치킨신드롬 부암점",
      "address": "부산광역시 부산진구 백양순환로 75, 401동 1층 106호(부암동, 백양산롯데캐슬골드센트럴아파트)",
      "contact": "051-807-9992",
      "lat": "35.1724943",
      "lng": "129.0358595",
      "region": "부산광역시",
      "district": "부산진구"
    },
    {
      "id": 108,
      "name": "치킨신드롬 범천점",
      "address": "부산광역시 부산진구 만리산로 11, 101호(범천동,서면 DS.협성 엘리시안 아파트)",
      "contact": "051-638-6668",
      "lat": "35.1436945",
      "lng": "129.0540258",
      "region": "부산광역시",
      "district": "부산진구"
    },
    {
      "id": 109,
      "name": "치킨신드롬 영도동삼점",
      "address": "부산광역시 영도구 태종로 675, 209동 103호(동삼동)",
      "contact": "051-403-5250",
      "lat": "35.0736096",
      "lng": "129.0754653",
      "region": "부산광역시",
      "district": "영도구"
    },
    {
      "id": 110,
      "name": "치킨신드롬 대신점",
      "address": "부산광역시 서구 대영로38번길 11, 110동 104호(서대신동1가,대신푸르지오)",
      "contact": "051-241-4224",
      "lat": "35.1079698",
      "lng": "129.0163311",
      "region": "부산광역시",
      "district": "서구"
    },
    {
      "id": 111,
      "name": "치킨신드롬 초량베스트점",
      "address": "부산광역시 동구 초량로 46-2, 1층(초량동)",
      "contact": "051-441-7922",
      "lat": "35.1202328",
      "lng": "129.0374099",
      "region": "부산광역시",
      "district": "동구"
    },
    {
      "id": 112,
      "name": "치킨신드롬 주례점",
      "address": "부산광역시 사상구 가야대로255번길 5, 114동 101호(주례동,주례롯데캐슬골드스마트)",
      "contact": "051-325-7005",
      "lat": "35.1517600",
      "lng": "128.9995076",
      "region": "부산광역시",
      "district": "사상구"
    },
    {
      "id": 113,
      "name": "치킨신드롬 주례럭키점",
      "address": "부산광역시 사상구 동주로 9 (주례동)",
      "contact": "051-322-1733",
      "lat": "35.1475357",
      "lng": "129.0003041",
      "region": "부산광역시",
      "district": "사상구"
    },
    {
      "id": 114,
      "name": "치킨신드롬 송상현광장점",
      "address": "부산광역시 부산진구 중앙대로 842, B동 101호(전포동)",
      "contact": "051-807-7767",
      "lat": "35.1660805",
      "lng": "129.0665138",
      "region": "부산광역시",
      "district": "부산진구"
    },
    {
      "id": 115,
      "name": "치킨신드롬 개금점",
      "address": "부산광역시 부산진구 가야대로 538, 상가 1동 102호(가야동,가야롯데캐슬골드아너)",
      "contact": "051-892-3335",
      "lat": "35.1529647",
      "lng": "129.0309735",
      "region": "부산광역시",
      "district": "부산진구"
    },
    {
      "id": 116,
      "name": "치킨신드롬 영도대교점",
      "address": "부산광역시 영도구 태종로 89번길 18, 1층(대교동2가)",
      "contact": "051-412-9292",
      "lat": "35.0924849",
      "lng": "129.0412377",
      "region": "부산광역시",
      "district": "영도구"
    },
    {
      "id": 117,
      "name": "치킨신드롬 청학점",
      "address": "부산광역시 영도구 태종로 331, 1층(청학동)",
      "contact": "051-414-2277",
      "lat": "35.0963393",
      "lng": "129.0620298",
      "region": "부산광역시",
      "district": "영도구"
    },
    {
      "id": 118,
      "name": "치킨신드롬 남부민점",
      "address": "부산광역시 서구 천마로 93, 1층(남부민동)",
      "contact": "051-245-9282",
      "lat": "35.0847326",
      "lng": "129.0211407",
      "region": "부산광역시",
      "district": "서구"
    },
    {
      "id": 119,
      "name": "치킨신드롬 초읍점",
      "address": "부산광역시 부산진구 새싹로 215, 9동 1층 103호(초읍동, 선경성지곡아파트)",
      "contact": "051-806-8585",
      "lat": "35.1752947",
      "lng": "129.0485365",
      "region": "부산광역시",
      "district": "부산진구"
    },
    {
      "id": 120,
      "name": "치킨신드롬 전포점",
      "address": "부산광역시 부산진구 동천로 28, 1층(전포동)",
      "contact": "051-817-7792",
      "lat": "35.1511542",
      "lng": "129.0625448",
      "region": "부산광역시",
      "district": "부산진구"
    },
    {
      "id": 121,
      "name": "치킨신드롬 부평중앙점",
      "address": "부산광역시 중구 보수대로44번길 10-1, 1층(부평동3가)",
      "contact": "051-909-3111",
      "lat": "35.1014055",
      "lng": "129.0238562",
      "region": "부산광역시",
      "district": "중구"
    },
    {
      "id": 122,
      "name": "치킨신드롬 당감무궁화점",
      "address": "부산 부산진구 동평로44번길 62-6(당감동)",
      "contact": "051-897-0925",
      "lat": "35.1637355",
      "lng": "129.0356412",
      "region": "부산",
      "district": "부산진구"
    },
    {
      "id": 123,
      "name": "치킨신드롬 부산역점",
      "address": "부산 동구 초량동 1165-1 부산역 유림더블루로미오 1층 101호",
      "contact": "051-463-9994",
      "lat": "35.1215137",
      "lng": "129.0441029",
      "region": "부산",
      "district": "동구"
    },
    {
      "id": 124,
      "name": "치킨신드롬 가야벽산점",
      "address": "부산광역시 부산진구 엄광로 50, 1층(개금동)",
      "contact": "051-894-9288",
      "lat": "35.1480322",
      "lng": "129.0215748",
      "region": "부산광역시",
      "district": "부산진구"
    },
    {
      "id": 125,
      "name": "치킨신드롬 명륜힐스테이트점",
      "address": "부산광역시 동래구 명륜로 222, 209동 A-308호(명륜동, 명륜동 힐스테이트)",
      "contact": "051-558-7772",
      "lat": "35.2135255",
      "lng": "129.0836264",
      "region": "부산광역시",
      "district": "동래구"
    },
    {
      "id": 126,
      "name": "치킨신드롬 부산대점",
      "address": "부산광역시 금정구 장전로 22-1, 1층(장전동)",
      "contact": "051-581-7080",
      "lat": "35.2282857",
      "lng": "129.0864572",
      "region": "부산광역시",
      "district": "금정구"
    },
    {
      "id": 127,
      "name": "치킨신드롬 거제아시아드점",
      "address": "부산광역시 연제구 종합운동장로28번길 7, 101동 1층 107호(거제동,부산 아시아드 코오롱 하늘채 아파트)",
      "contact": "051-503-0109",
      "lat": "35.1937768",
      "lng": "129.0651357",
      "region": "부산광역시",
      "district": "연제구"
    },
    {
      "id": 128,
      "name": "치킨신드롬 부곡점",
      "address": "부산광역시 금정구 부곡로 43, 1층(부곡동)",
      "contact": "051-515-9280",
      "lat": "35.2206221",
      "lng": "129.0883550",
      "region": "부산광역시",
      "district": "금정구"
    },
    {
      "id": 129,
      "name": "치킨신드롬 평산점",
      "address": "경상남도 양산시 신명로 66, A동 107호 (평산동, 평산종합시장)",
      "contact": "055-362-7288",
      "lat": "35.3860768",
      "lng": "129.1458549",
      "region": "경상남도",
      "district": "양산시"
    },
    {
      "id": 130,
      "name": "치킨신드롬 사직점",
      "address": "부산광역시 동래구 아시아드대로154번길 80, 1층(사직동)",
      "contact": "051-505-9213",
      "lat": "35.1993152",
      "lng": "129.0695641",
      "region": "부산광역시",
      "district": "동래구"
    },
    {
      "id": 131,
      "name": "치킨신드롬 사송베스트점",
      "address": "경상남도 양산시 동면 사송로 113, 105호",
      "contact": "055-387-1118",
      "lat": "35.3087594",
      "lng": "129.0710455",
      "region": "경상남도",
      "district": "양산시"
    },
    {
      "id": 132,
      "name": "치킨신드롬 남산점",
      "address": "부산 금정구 청룡로 21",
      "contact": "051-583-6166",
      "lat": "35.2754239",
      "lng": "129.0902313",
      "region": "부산",
      "district": "금정구"
    },
    {
      "id": 133,
      "name": "치킨신드롬 서동점",
      "address": "부산광역시 금정구 서금로 2-3, 1층(서동)",
      "contact": "051-527-9987",
      "lat": "35.2169970",
      "lng": "129.1026361",
      "region": "부산광역시",
      "district": "금정구"
    },
    {
      "id": 134,
      "name": "치킨신드롬 가촌대방점",
      "address": "경상남도 양산시 물금읍 백호2길 24-5",
      "contact": "055-366-5062",
      "lat": "35.3192353",
      "lng": "128.9973483",
      "region": "경상남도",
      "district": "양산시"
    },
    {
      "id": 135,
      "name": "치킨신드롬 양산덕계점",
      "address": "경상남도 양산시 덕계로 48 (덕계동)",
      "contact": "055-366-8842",
      "lat": "35.3723929",
      "lng": "129.1496459",
      "region": "경상남도",
      "district": "양산시"
    },
    {
      "id": 136,
      "name": "치킨신드롬 장전점",
      "address": "부산광역시 금정구 금강로 346, 지하1층(장전동)",
      "contact": "051-912-2221",
      "lat": "35.2388842",
      "lng": "129.0866899",
      "region": "부산광역시",
      "district": "금정구"
    },
    {
      "id": 137,
      "name": "치킨신드롬 증산점",
      "address": "경상남도 양산시 물금읍 백호로 156, 116-1호(우성스마트시티뷰)",
      "contact": "055-362-2006",
      "lat": "35.3120673",
      "lng": "129.0085613",
      "region": "경상남도",
      "district": "양산시"
    },
    {
      "id": 138,
      "name": "치킨신드롬 시청점",
      "address": "부산광역시 연제구 연제로 30, 201동 지하1층 103호(연산동,시청역 비스타동원)",
      "contact": "051-851-5277",
      "lat": "35.1792656",
      "lng": "129.0769594",
      "region": "부산광역시",
      "district": "연제구"
    },
    {
      "id": 139,
      "name": "치킨신드롬 범어점",
      "address": "경상남도 양산시 물금읍 화합길 37",
      "contact": "055-365-5115",
      "lat": "35.3311902",
      "lng": "129.0110834",
      "region": "경상남도",
      "district": "양산시"
    },
    {
      "id": 140,
      "name": "치킨신드롬 북정베스트점",
      "address": "경상남도 양산시 북정중앙로 41, 1층(북정동)",
      "contact": "055-366-7280",
      "lat": "35.3624496",
      "lng": "129.0482831",
      "region": "경상남도",
      "district": "양산시"
    },
    {
      "id": 141,
      "name": "치킨신드롬 석산점",
      "address": "경상남도 양산시 동면 금오14길 33-21, 1층 101호",
      "contact": "055-364-5592",
      "lat": "35.3173375",
      "lng": "129.0270335",
      "region": "경상남도",
      "district": "양산시"
    },
    {
      "id": 142,
      "name": "치킨신드롬 온천점",
      "address": "부산 동래구 우장춘로4번길 24",
      "contact": "051-555-9293",
      "lat": "35.2079036",
      "lng": "129.0716636",
      "region": "부산",
      "district": "동래구"
    },
    {
      "id": 143,
      "name": "치킨신드롬 연산중앙점",
      "address": "부산광역시 연제구 반송로 80, 108동 104호(연산동,연산동 일동 미라주 더 스타)",
      "contact": "051-853-9910",
      "lat": "35.1904699",
      "lng": "129.0881693",
      "region": "부산광역시",
      "district": "연제구"
    },
    {
      "id": 144,
      "name": "치킨신드롬 연산1호점",
      "address": "부산광역시 연제구 과정로 175(연산동)",
      "contact": "051-761-1580",
      "lat": "35.1870579",
      "lng": "129.1069586",
      "region": "부산광역시",
      "district": "연제구"
    },
    {
      "id": 145,
      "name": "치킨신드롬 명동사랑채점",
      "address": "경남 양산시 대운로 145, 302동 107호(명동)",
      "contact": "055-365-0306",
      "lat": "35.4017841",
      "lng": "129.1699236",
      "region": "경남",
      "district": "양산시"
    },
    {
      "id": 146,
      "name": "치킨신드롬 양산신도시점",
      "address": "경상남도 양산시 양주5길 35-7 (중부동)",
      "contact": "055-363-9979",
      "lat": "35.3419578",
      "lng": "129.0304310",
      "region": "경상남도",
      "district": "양산시"
    },
    {
      "id": 147,
      "name": "치킨신드롬 원동점",
      "address": "부산광역시 동래구 안락로 135-1(안락동)",
      "contact": "051-525-8892",
      "lat": "35.1990829",
      "lng": "129.1117549",
      "region": "부산광역시",
      "district": "동래구"
    },
    {
      "id": 148,
      "name": "치킨신드롬 안락1",
      "address": "부산 동래구 안락1동 428-23번지",
      "contact": "051-529-6699",
      "lat": "35.2004768",
      "lng": "129.1008755",
      "region": "부산",
      "district": "동래구"
    },
    {
      "id": 149,
      "name": "치킨신드롬 두실점",
      "address": "부산 금정구 두실로 15 (구서동)",
      "contact": "051-582-1120",
      "lat": "35.2604509",
      "lng": "129.0895898",
      "region": "부산",
      "district": "금정구"
    },
    {
      "id": 150,
      "name": "치킨신드롬 수정점",
      "address": "부산광역시 북구 금곡대로 230, 1층 105호(화명동,금용복합스포츠타운)",
      "contact": "051-364-7004",
      "lat": "35.2287367",
      "lng": "129.0130677",
      "region": "부산광역시",
      "district": "북구"
    },
    {
      "id": 151,
      "name": "치킨신드롬 장림롯데시네마점",
      "address": "부산광역시 사하구 장림번영로97, 1층 114,115호(장림동)",
      "contact": "051-710-1002",
      "lat": "35.0809620",
      "lng": "128.9757387",
      "region": "부산광역시",
      "district": "사하구"
    },
    {
      "id": 152,
      "name": "치킨신드롬 신평점",
      "address": "부산광역시 사하구 다대로 134, 1층 좌측(신평동)",
      "contact": "051-992-1344",
      "lat": "35.0905939",
      "lng": "128.9776488",
      "region": "부산광역시",
      "district": "사하구"
    },
    {
      "id": 153,
      "name": "치킨신드롬 엄궁점",
      "address": "부산광역시 사상구 대동로64번길 36, 상가동 103호(엄궁동,삼성타워아파트)",
      "contact": "051-313-2720",
      "lat": "35.1352258",
      "lng": "128.9774655",
      "region": "부산광역시",
      "district": "사상구"
    },
    {
      "id": 154,
      "name": "치킨신드롬 강서구청점",
      "address": "부산광역시 강서구 대저로274번길 35 (대저1동)",
      "contact": "051-831-4492",
      "lat": "35.2115227",
      "lng": "128.9819580",
      "region": "부산광역시",
      "district": "강서구"
    },
    {
      "id": 155,
      "name": "치킨신드롬 명지국제점",
      "address": "부산광역시 강서구 명지국제8로 282, 1층 105호(명지동,진우빌딩)",
      "contact": "051-291-9987",
      "lat": "35.0973457",
      "lng": "128.9235041",
      "region": "부산광역시",
      "district": "강서구"
    },
    {
      "id": 156,
      "name": "치킨신드롬 구포점",
      "address": "부산광역시 북구 가람로52번길 86, 1층(구포동)",
      "contact": "051-337-4959",
      "lat": "35.2051489",
      "lng": "129.0028441",
      "region": "부산광역시",
      "district": "북구"
    },
    {
      "id": 157,
      "name": "치킨신드롬 만덕중앙점",
      "address": "부산광역시 북구 만덕1로 88, 상가동 1층 103호(만덕동,협성파크)",
      "contact": "051-338-5859",
      "lat": "35.2140341",
      "lng": "129.0280252",
      "region": "부산광역시",
      "district": "북구"
    },
    {
      "id": 158,
      "name": "치킨신드롬 금곡율리점",
      "address": "부산광역시 북구 효열로1, 1층 108호(금곡동, 율리벽산블루밍아파트)",
      "contact": "051-365-3600",
      "lat": "35.2483945",
      "lng": "129.0134997",
      "region": "부산광역시",
      "district": "북구"
    },
    {
      "id": 159,
      "name": "치킨신드롬 감천점",
      "address": "부산광역시 사하구 감천로 9 (감천동)",
      "contact": "051-205-9933",
      "lat": "35.0922261",
      "lng": "128.9941759",
      "region": "부산광역시",
      "district": "사하구"
    },
    {
      "id": 160,
      "name": "치킨신드롬 덕포신라대점",
      "address": "부산시 사상구 백양대로700번길 23, 105동 205호(덕포동, 청구상가)",
      "contact": "051-305-9252",
      "lat": "35.1699114",
      "lng": "128.9897932",
      "region": "부산시",
      "district": "사상구"
    },
    {
      "id": 161,
      "name": "치킨신드롬 명지오션점",
      "address": "부산광역시 강서구 명지동 3244  롯데캐슬상가 B동102호.",
      "contact": "051-271-1922",
      "lat": "35.0831367",
      "lng": "128.9069727",
      "region": "부산광역시",
      "district": "강서구"
    },
    {
      "id": 162,
      "name": "치킨신드롬 화명점",
      "address": "부산광역시 북구 와석장터로 6-7, 1층,2층(화명동)",
      "contact": "051-365-4644",
      "lat": "35.2347263",
      "lng": "129.0150312",
      "region": "부산광역시",
      "district": "북구"
    },
    {
      "id": 163,
      "name": "치킨신드롬 하단.신평점",
      "address": "부산 사하구 동매로12(하단동 1층 1호)",
      "contact": "051-206-9991",
      "lat": "35.1035840",
      "lng": "128.9596305",
      "region": "부산",
      "district": "사하구"
    },
    {
      "id": 164,
      "name": "치킨신드롬 사하시장점",
      "address": "부산 사하구 장평로 451-1(괴정동,신펑로10)",
      "contact": "051-205-1357",
      "lat": "35.0984597",
      "lng": "128.9864889",
      "region": "부산",
      "district": "사하구"
    },
    {
      "id": 165,
      "name": "치킨신드롬 덕천시장점",
      "address": "부산 북구 만덕대로 78번길 9",
      "contact": "051-341-2511",
      "lat": "35.2116818",
      "lng": "129.0135974",
      "region": "부산",
      "district": "북구"
    },
    {
      "id": 166,
      "name": "치킨신드롬 장림본동점",
      "address": "부산 사하구 다대로277번길 3 (장림동)",
      "contact": "051-261-3930",
      "lat": "35.0776825",
      "lng": "128.9776166",
      "region": "부산",
      "district": "사하구"
    },
    {
      "id": 167,
      "name": "치킨신드롬 다대2호점",
      "address": "부산광역시 사하구 다대로 325 (장림동)",
      "contact": "051-262-3309",
      "lat": "35.0731601",
      "lng": "128.9766015",
      "region": "부산광역시",
      "district": "사하구"
    },
    {
      "id": 168,
      "name": "치킨신드롬 다대1호점",
      "address": "부산광역시 사하구 윤공단로14번길 21, 1층(다대동)",
      "contact": "051-265-5524",
      "lat": "35.0559442",
      "lng": "128.9690281",
      "region": "부산광역시",
      "district": "사하구"
    },
    {
      "id": 169,
      "name": "치킨신드롬 우동베스트점",
      "address": "부산광역시 해운대구 해운대로469번길 181, 204동 203-2호(우동,센텀마티안)",
      "contact": "051-747-7790",
      "lat": "35.1699827",
      "lng": "129.1403882",
      "region": "부산광역시",
      "district": "해운대구"
    },
    {
      "id": 170,
      "name": "치킨신드롬 신도시점",
      "address": "부산광역시 해운대구 세실로27번길 19, 104호(좌동,지오프라자)",
      "contact": "051-704-9253",
      "lat": "35.1685185",
      "lng": "129.1780227",
      "region": "부산광역시",
      "district": "해운대구"
    },
    {
      "id": 171,
      "name": "치킨신드롬 못골점",
      "address": "부산광역시 남구 수영로 136, B동 1층 102호(대연동, 롯데캐슬레전드상가)",
      "contact": "051-714-0202",
      "lat": "35.1341286",
      "lng": "129.0815839",
      "region": "부산광역시",
      "district": "남구"
    },
    {
      "id": 172,
      "name": "치킨신드롬 수영점",
      "address": "부산광역시 수영구 수미로 62, 1층3~6, 14~17호 (수영동)",
      "contact": "051-751-5346",
      "lat": "35.1730801",
      "lng": "129.1175676",
      "region": "부산광역시",
      "district": "수영구"
    },
    {
      "id": 173,
      "name": "치킨신드롬 벡스코점",
      "address": "부산광역시 해운대구 해운대로349번길 24, 상가동 1층 117-1호(우동,삼호가든아파트)",
      "contact": "051-747-7878",
      "lat": "35.1735105",
      "lng": "129.1378947",
      "region": "부산광역시",
      "district": "해운대구"
    },
    {
      "id": 174,
      "name": "치킨신드롬 망미중앙시장점",
      "address": "부산광역시 수영구 과정로 55 (망미동)",
      "contact": "051-755 -8052",
      "lat": "35.1763525",
      "lng": "129.1071065",
      "region": "부산광역시",
      "district": "수영구"
    },
    {
      "id": 175,
      "name": "치킨신드롬 메트로자이점",
      "address": "부산광역시 남구 분포로 61, A동 1층 149호(용호동, 빌리브센트로)",
      "contact": "051-714-4922",
      "lat": "35.1315362",
      "lng": "129.1123410",
      "region": "부산광역시",
      "district": "남구"
    },
    {
      "id": 176,
      "name": "치킨신드롬 용호점",
      "address": "부산광역시 남구 용호로 183, 1층(용호동)",
      "contact": "051-628-1011",
      "lat": "35.1159207",
      "lng": "129.1111638",
      "region": "부산광역시",
      "district": "남구"
    },
    {
      "id": 177,
      "name": "치킨신드롬 우암점",
      "address": "부산광역시 남구 우암로154번길 25, 401동 212호(우암동,이안오션파크W)",
      "contact": "051-715-7988",
      "lat": "35.1254102",
      "lng": "129.0806410",
      "region": "부산광역시",
      "district": "남구"
    },
    {
      "id": 178,
      "name": "치킨신드롬 남천점",
      "address": "부산광역시 수영구 남천바다로 16, 16677동 7호(남천동,세흥시장)",
      "contact": "051-711-9871",
      "lat": "35.1494083",
      "lng": "129.1123162",
      "region": "부산광역시",
      "district": "수영구"
    },
    {
      "id": 179,
      "name": "치킨신드롬 버닝팜(대연점)",
      "address": "부산광역시 남구 유엔평화로 26, 1층 102호(대연동)",
      "contact": "051-622-7155",
      "lat": "35.1326695",
      "lng": "129.0917164",
      "region": "부산광역시",
      "district": "남구"
    },
    {
      "id": 180,
      "name": "치킨신드롬 대연점",
      "address": "부산광역시 남구 유엔로183번길 71, 1층(대연동)",
      "contact": "051-626-7320",
      "lat": "35.1334291",
      "lng": "129.0961458",
      "region": "부산광역시",
      "district": "남구"
    },
    {
      "id": 181,
      "name": "치킨신드롬 문현점",
      "address": "부산광역시 남구 진남로 193 (문현동)",
      "contact": "051-633-6199",
      "lat": "35.1433969",
      "lng": "129.0773292",
      "region": "부산광역시",
      "district": "남구"
    },
    {
      "id": 182,
      "name": "치킨신드롬 문현대림시티점",
      "address": "부산광역시 남구 수영로 26, 118호(문현동, 대림문현시티프라자)",
      "contact": "051-639-9282",
      "lat": "35.1363682",
      "lng": "129.0704495",
      "region": "부산광역시",
      "district": "남구"
    },
    {
      "id": 183,
      "name": "치킨신드롬 좌동대림점",
      "address": "부산광역시 해운대구 대천로103번길 9, 상가동 104호(좌동,대림2차아파트)",
      "contact": "051-701-5235",
      "lat": "35.1756354",
      "lng": "129.1729977",
      "region": "부산광역시",
      "district": "해운대구"
    },
    {
      "id": 184,
      "name": "치킨신드롬 대연경성대점",
      "address": "부산광역시 남구 수영로 345, 115동 103-1호 (대연동)",
      "contact": "051-623-9982",
      "lat": "35.1422158",
      "lng": "129.1010779",
      "region": "부산광역시",
      "district": "남구"
    },
    {
      "id": 185,
      "name": "치킨신드롬 센텀시티점",
      "address": "부산광역시 해운대구 센텀중앙로 90, 117호(재송동,큐비이센텀)",
      "contact": "051-781-3092",
      "lat": "35.1754431",
      "lng": "129.1264311",
      "region": "부산광역시",
      "district": "해운대구"
    },
    {
      "id": 186,
      "name": "치킨신드롬 일광점",
      "address": "부산광역시 기장군 일광면 일광로 104",
      "contact": "051-721-9282",
      "lat": "35.2655859",
      "lng": "129.2335993",
      "region": "부산광역시",
      "district": "기장군"
    },
    {
      "id": 187,
      "name": "치킨신드롬 반여점",
      "address": "부산광역시 해운대구 반여로 131, 119호(반여동, 아시아선수촌프레스센터상가)",
      "contact": "051-525-9982",
      "lat": "35.2034393",
      "lng": "129.1234496",
      "region": "부산광역시",
      "district": "해운대구"
    },
    {
      "id": 188,
      "name": "치킨신드롬 마린시티점",
      "address": "부산광역시 해운대구 마린시티2로 33, 104동 151호(우동,해운대두산위브더제니스)",
      "contact": "051-731-2199",
      "lat": "35.1566670",
      "lng": "129.1450909",
      "region": "부산광역시",
      "district": "해운대구"
    },
    {
      "id": 189,
      "name": "치킨신드롬 광안점",
      "address": "부산 수영구 광일로 59, 상가동 101,102호(광안동,광원아파트)",
      "contact": "051-752-3140",
      "lat": "35.1627369",
      "lng": "129.1075399",
      "region": "부산",
      "district": "수영구"
    },
    {
      "id": 190,
      "name": "치킨신드롬 광안역점",
      "address": "부산 수영구 장대골로7번길 36(광안동, 협성엠파이어@상가동지하1층)",
      "contact": "051-756-2229",
      "lat": "35.1575190",
      "lng": "129.1120594",
      "region": "부산",
      "district": "수영구"
    },
    {
      "id": 191,
      "name": "치킨신드롬 좌동중동점",
      "address": "부산광역시 해운대구 좌동순환로433번길 17, 1층(중동)",
      "contact": "051-746-7892",
      "lat": "35.1613087",
      "lng": "129.1753924",
      "region": "부산광역시",
      "district": "해운대구"
    },
    {
      "id": 192,
      "name": "치킨신드롬 정관신도시점",
      "address": "부산광역시 기장군 정관읍 정관6로 5-20, A동 1층 111호(미래안 전통상가)",
      "contact": "051-728-8558",
      "lat": "35.3204887",
      "lng": "129.1753612",
      "region": "부산광역시",
      "district": "기장군"
    },
    {
      "id": 193,
      "name": "치킨신드롬 버닝팜(재송점)",
      "address": "부산광역시 해운대구 재송1로 73, 1층(재송동)",
      "contact": "051-784-9442",
      "lat": "35.1874991",
      "lng": "129.1249176",
      "region": "부산광역시",
      "district": "해운대구"
    },
    {
      "id": 194,
      "name": "치킨신드롬 정관1호점",
      "address": "부산 기장군 정관면 모전리 723번지 이지더원상가 B동 102호",
      "contact": "051-728-8282",
      "lat": "35.3387138",
      "lng": "129.1639222",
      "region": "부산",
      "district": "기장군"
    },
    {
      "id": 195,
      "name": "치킨신드롬 반송점",
      "address": "부산 해운대구 반송동 62-541번지",
      "contact": "051-545-9991",
      "lat": "35.2304191",
      "lng": "129.1569345",
      "region": "부산",
      "district": "해운대구"
    },
    {
      "id": 196,
      "name": "치킨신드롬 기장교리점",
      "address": "부산 기장군 기장읍 차성동로 172",
      "contact": "051-722-9600",
      "lat": "35.2529565",
      "lng": "129.2173927",
      "region": "부산",
      "district": "기장군"
    }
  ]
}