{
  "meta": {
    "brand_id": "a44d2f23cc784cf4b9c5696b2502c6d7",
    "brand_name": "컴포즈커피",
    "totalCount": 2907,
    "extractedAt": "2026-03-17T06:42:48.165Z",
    "sourceUrl": "https://composecoffee.com/findstore"
  },
  "stores": [
    {
      "id": 1,
      "name": "컴포즈커피 경남고성점",
      "address": "경상남도 고성군 고성읍 동외로 170 1층",
      "contact": null,
      "lat": "34.9763332",
      "lng": "128.3262831",
      "region": "경상남도",
      "district": "고성군"
    },
    {
      "id": 2,
      "name": "컴포즈커피 포천이동점",
      "address": "경기도 포천시 이동면 화동로 2112 (장암리)",
      "contact": "031-531-5413",
      "lat": "38.0362522",
      "lng": "127.3668932",
      "region": "경기도",
      "district": "포천시"
    },
    {
      "id": 3,
      "name": "컴포즈커피 인천남동구청점",
      "address": "인천광역시 남동구 장승로 17 3동 103호, 104호(만수동, 창대장터상가)",
      "contact": "070-4324-3929",
      "lat": "37.4462381",
      "lng": "126.7348671",
      "region": "인천광역시",
      "district": "남동구"
    },
    {
      "id": 4,
      "name": "컴포즈커피 서초우성점",
      "address": "서울특별시 서초구 사임당로 181 1층 101호",
      "contact": null,
      "lat": "37.4930451",
      "lng": "127.0293404",
      "region": "서울특별시",
      "district": "서초구"
    },
    {
      "id": 5,
      "name": "컴포즈커피 어린이대공원정문점",
      "address": "서울특별시 광진구 능동로 237 1층(군자동)",
      "contact": "02-6949-6226",
      "lat": "37.5513288",
      "lng": "127.0761170",
      "region": "서울특별시",
      "district": "광진구"
    },
    {
      "id": 6,
      "name": "컴포즈커피 광명센트럴아이파크점",
      "address": "경기도 광명시 광이로 49 상가동 101호(광명동, 광명센트럴아이파크)",
      "contact": "070-4797-0771",
      "lat": "37.4831872",
      "lng": "126.8584917",
      "region": "경기도",
      "district": "광명시"
    },
    {
      "id": 7,
      "name": "컴포즈커피 수지동천점",
      "address": "경기도 용인시 수지구 동천로 39 코아프라자 1층",
      "contact": null,
      "lat": "37.3403812",
      "lng": "127.0986127",
      "region": "경기도",
      "district": "용인시"
    },
    {
      "id": 8,
      "name": "컴포즈커피 춘천강원대이룸관점",
      "address": "강원특별자치도 춘천시 강원대학길 1 이룸관동 1층(효자동, 강원대학교)",
      "contact": "033-256-5360",
      "lat": "37.8684418",
      "lng": "127.7438324",
      "region": "강원특별자치도",
      "district": "춘천시"
    },
    {
      "id": 9,
      "name": "컴포즈커피 울산유곡점",
      "address": "울산광역시 중구 종가3길 20 1층 일부호(우아동3가)",
      "contact": "070-8680-1225",
      "lat": "35.5606105",
      "lng": "129.2966176",
      "region": "울산광역시",
      "district": "중구"
    },
    {
      "id": 10,
      "name": "컴포즈커피 전주대자인병원점",
      "address": "전북특별자치도 전주시 덕진구 견훤로 380 1층 일부호(우아동3가)",
      "contact": "063-242-0111",
      "lat": "35.8451790",
      "lng": "127.1534915",
      "region": "전북특별자치도",
      "district": "전주시"
    },
    {
      "id": 11,
      "name": "컴포즈커피 전북사대부고점",
      "address": "전북특별자치도 전주시 덕진구 조경단로 105 1층 102호(금암동)",
      "contact": null,
      "lat": "35.8436138",
      "lng": "127.1384368",
      "region": "전북특별자치도",
      "district": "전주시"
    },
    {
      "id": 12,
      "name": "컴포즈커피 삼성디스플레이아산2(A2)점",
      "address": "충청남도 아산시 탕정면 탕정로 380-2 A2공장동 1층 (삼성디스플레이 아산2캠퍼스 일반산업단지A1-2 (A2사무동 동편로비))",
      "contact": null,
      "lat": "36.8191965",
      "lng": "127.0633012",
      "region": "충청남도",
      "district": "아산시"
    },
    {
      "id": 13,
      "name": "컴포즈커피 창원럭키반림점",
      "address": "경상남도 창원시 성산구 반송로 107 제일반상가동 1층 3-1호(반림동, 럭키반림아파트)",
      "contact": "055-266-3286",
      "lat": "35.2381028",
      "lng": "128.6680324",
      "region": "경상남도",
      "district": "창원시"
    },
    {
      "id": 14,
      "name": "컴포즈커피 광화문시대점",
      "address": "서울특별시 종로구 사직로8길 42 102-1호",
      "contact": null,
      "lat": "37.5737740",
      "lng": "126.9731379",
      "region": "서울특별시",
      "district": "종로구"
    },
    {
      "id": 15,
      "name": "컴포즈커피 수원당수성산타워점",
      "address": "경기도 수원시 권선구 당수로 124 성산타워 106호(당수동)",
      "contact": "031-406-9234",
      "lat": "37.2852222",
      "lng": "126.9430864",
      "region": "경기도",
      "district": "수원시"
    },
    {
      "id": 16,
      "name": "컴포즈커피 용인동백이마트사거리점",
      "address": "경기도 용인시 기흥구 동백죽전대로 455-11 455-11, 1층 B236호",
      "contact": null,
      "lat": "37.2787224",
      "lng": "127.1503137",
      "region": "경기도",
      "district": "용인시"
    },
    {
      "id": 17,
      "name": "컴포즈커피 명지전문대점",
      "address": "서울특별시 서대문구 가좌로 140 (홍은동)",
      "contact": "02-304-2291",
      "lat": "37.5845680",
      "lng": "126.9242004",
      "region": "서울특별시",
      "district": "서대문구"
    },
    {
      "id": 18,
      "name": "컴포즈커피 수원성빈센트병원점",
      "address": "경기도 수원시 팔달구 중부대로 80 상가2동 1층 22호",
      "contact": "070-4334-3900",
      "lat": "37.2761724",
      "lng": "127.0255808",
      "region": "경기도",
      "district": "수원시"
    },
    {
      "id": 19,
      "name": "컴포즈커피 정선사북점",
      "address": "강원특별자치도 정선군 사북읍 사북중앙로 22 (사북리)",
      "contact": "033-592-1961",
      "lat": "37.2267845",
      "lng": "128.8171636",
      "region": "강원특별자치도",
      "district": "정선군"
    },
    {
      "id": 20,
      "name": "컴포즈커피 거제한화오션남문점",
      "address": "경상남도 거제시 거제대로 3447-1 (아주동)",
      "contact": null,
      "lat": "34.8674123",
      "lng": "128.6932545",
      "region": "경상남도",
      "district": "거제시"
    },
    {
      "id": 21,
      "name": "컴포즈커피 전남무안청계농협점",
      "address": "전라남도 무안군 청계면 영산로 1685 (도림리, 청계농협)",
      "contact": "061-452-5605",
      "lat": "34.9093130",
      "lng": "126.4293945",
      "region": "전라남도",
      "district": "무안군"
    },
    {
      "id": 22,
      "name": "컴포즈커피 순천조례명성점",
      "address": "전라남도 순천시 조례신대길 37 1층 외 1필지",
      "contact": null,
      "lat": "34.9618195",
      "lng": "127.5178154",
      "region": "전라남도",
      "district": "순천시"
    },
    {
      "id": 23,
      "name": "컴포즈커피 광주산수그린점",
      "address": "광주광역시 동구 동계로 38 121동 지하 1층 18호",
      "contact": "062-232-2111",
      "lat": "35.1553071",
      "lng": "126.9253255",
      "region": "광주광역시",
      "district": "동구"
    },
    {
      "id": 24,
      "name": "컴포즈커피 안산서울예대점",
      "address": "경기도 안산시 단원구 예술대학로 161 제1층 제104호(고잔동)",
      "contact": "031-8042-4769",
      "lat": "37.3312442",
      "lng": "126.8387275",
      "region": "경기도",
      "district": "안산시"
    },
    {
      "id": 25,
      "name": "컴포즈커피 대부도점",
      "address": "경기도 안산시 단원구 대부황금로 1516-15",
      "contact": "070-7799-3104",
      "lat": "37.2879571",
      "lng": "126.5768445",
      "region": "경기도",
      "district": "안산시"
    },
    {
      "id": 26,
      "name": "컴포즈커피 전남담양터미널점",
      "address": "전라남도 담양군 담양읍 중앙로 24 1층",
      "contact": "061-382-4438",
      "lat": "35.3152696",
      "lng": "126.9836747",
      "region": "전라남도",
      "district": "담양군"
    },
    {
      "id": 27,
      "name": "컴포즈커피 진해웅동로점",
      "address": "경상남도 창원시 진해구 웅동로 42-5 2층",
      "contact": "055-546-4153",
      "lat": "35.1243736",
      "lng": "128.7819354",
      "region": "경상남도",
      "district": "창원시"
    },
    {
      "id": 28,
      "name": "컴포즈커피 파주운정역점",
      "address": "경기도 파주시 운정역길 384-8 (야당동)",
      "contact": null,
      "lat": "37.7249205",
      "lng": "126.7678698",
      "region": "경기도",
      "district": "파주시"
    },
    {
      "id": 29,
      "name": "컴포즈커피 광주비아호반점",
      "address": "광주광역시 광산구 비아로 185 1층 상가 102동 101호, 102호",
      "contact": "062-952-0394",
      "lat": "35.2239665",
      "lng": "126.8245523",
      "region": "광주광역시",
      "district": "광산구"
    },
    {
      "id": 30,
      "name": "컴포즈커피 안산시곡점",
      "address": "경기도 안산시 상록구 감골1로 33 104호",
      "contact": null,
      "lat": "37.2879715",
      "lng": "126.8517795",
      "region": "경기도",
      "district": "안산시"
    },
    {
      "id": 31,
      "name": "컴포즈커피 순천금당점",
      "address": "전라남도 순천시 해룡면 장선배기길 284 상가동 1층 104호(청솔아파트)",
      "contact": "061-903-9409",
      "lat": "34.9453570",
      "lng": "127.5298827",
      "region": "전라남도",
      "district": "순천시"
    },
    {
      "id": 32,
      "name": "컴포즈커피 통영동피랑점",
      "address": "경상남도 통영시 통영해안로 347",
      "contact": null,
      "lat": "34.8449911",
      "lng": "128.4255519",
      "region": "경상남도",
      "district": "통영시"
    },
    {
      "id": 33,
      "name": "컴포즈커피 강서가로공원점",
      "address": "서울특별시 강서구 가로공원로 191 1층 101호(화곡동,류성빌딩)",
      "contact": null,
      "lat": "37.5374192",
      "lng": "126.8371639",
      "region": "서울특별시",
      "district": "강서구"
    },
    {
      "id": 34,
      "name": "컴포즈커피 광주하남산단입구점",
      "address": "광주광역시 광산구 용아로 450 1층 104호",
      "contact": "062-419-9782",
      "lat": "35.1834725",
      "lng": "126.8051662",
      "region": "광주광역시",
      "district": "광산구"
    },
    {
      "id": 35,
      "name": "컴포즈커피 성남을지대후문점",
      "address": "경기도 성남시 수정구 수정로578번길 28 1층 (양지동)",
      "contact": "031-733-7994",
      "lat": "37.4618095",
      "lng": "127.1662447",
      "region": "경기도",
      "district": "성남시"
    },
    {
      "id": 36,
      "name": "컴포즈커피 서초구청점",
      "address": "서울특별시 서초구 남부순환로347길 24 1층 대림빌딩",
      "contact": null,
      "lat": "37.4855347",
      "lng": "127.0317660",
      "region": "서울특별시",
      "district": "서초구"
    },
    {
      "id": 37,
      "name": "컴포즈커피 청천푸르지오점",
      "address": "인천광역시 부평구 세월천로 34 1층 124호(청천동, 대우프라자)",
      "contact": null,
      "lat": "37.5132007",
      "lng": "126.7056506",
      "region": "인천광역시",
      "district": "부평구"
    },
    {
      "id": 38,
      "name": "컴포즈커피 문정이엠365점",
      "address": "서울특별시 송파구 새말로8길 21-1 1층(문정동)",
      "contact": null,
      "lat": "37.4808555",
      "lng": "127.1269002",
      "region": "서울특별시",
      "district": "송파구"
    },
    {
      "id": 39,
      "name": "컴포즈커피 양평양수리점",
      "address": "경기도 양평군 양서면 양수로 149 1층",
      "contact": null,
      "lat": "37.5441565",
      "lng": "127.3195995",
      "region": "경기도",
      "district": "양평군"
    },
    {
      "id": 40,
      "name": "컴포즈커피 퇴계원남한강마트점",
      "address": "경기도 남양주시 퇴계원읍 퇴계원로6번길 21 (퇴계원리)",
      "contact": null,
      "lat": "37.6487195",
      "lng": "127.1431449",
      "region": "경기도",
      "district": "남양주시"
    },
    {
      "id": 41,
      "name": "컴포즈커피 안양신원타워점",
      "address": "경기도 안양시 동안구 전파로 88 1층 105호, 117호, 118호(호계동,신원비젼타워)",
      "contact": null,
      "lat": "37.3893969",
      "lng": "126.9425483",
      "region": "경기도",
      "district": "안양시"
    },
    {
      "id": 42,
      "name": "컴포즈커피 울산함월점",
      "address": "울산광역시 중구 함월22길 7 1층",
      "contact": "052-710-5737",
      "lat": "35.5784005",
      "lng": "129.3176441",
      "region": "울산광역시",
      "district": "중구"
    },
    {
      "id": 43,
      "name": "컴포즈커피 삼성전자평택사무3동점",
      "address": "경기도 평택시 삼성1로 469 사무3동 2층",
      "contact": null,
      "lat": "37.0414129",
      "lng": "127.0563252",
      "region": "경기도",
      "district": "평택시"
    },
    {
      "id": 44,
      "name": "컴포즈커피 성수코리아IT점",
      "address": "서울특별시 성동구 성수일로12길 26 1층 106호, 107호",
      "contact": "070-4155-4100",
      "lat": "37.5478924",
      "lng": "127.0538015",
      "region": "서울특별시",
      "district": "성동구"
    },
    {
      "id": 45,
      "name": "컴포즈커피 안산다문화거리점",
      "address": "경기도 안산시 단원구 원본로 25 1층 일부(원곡동)",
      "contact": "031-491-8989",
      "lat": "37.3306908",
      "lng": "126.7926899",
      "region": "경기도",
      "district": "안산시"
    },
    {
      "id": 46,
      "name": "컴포즈커피 화성향남2지구점",
      "address": "경기도 화성시 향남읍 상신하길로298번길 11 106호",
      "contact": "031-353-3305",
      "lat": "37.1147838",
      "lng": "126.9110534",
      "region": "경기도",
      "district": "화성시"
    },
    {
      "id": 47,
      "name": "컴포즈커피 석촌호수서호입구점",
      "address": "서울특별시 송파구 삼학사로19길 2 1층 101호(삼전동)",
      "contact": "02-6268-8842",
      "lat": "37.5058980",
      "lng": "127.0969595",
      "region": "서울특별시",
      "district": "송파구"
    },
    {
      "id": 48,
      "name": "컴포즈커피 서울중구청점",
      "address": "서울특별시 중구 창경궁로 21 104호(예관동)",
      "contact": null,
      "lat": "37.5644987",
      "lng": "126.9980157",
      "region": "서울특별시",
      "district": "중구"
    },
    {
      "id": 49,
      "name": "컴포즈커피 전주신라스테이점",
      "address": "전북특별자치도 전주시 완산구 현무1길 10-15 1층(경원동3가)",
      "contact": "063-231-6161",
      "lat": "35.8199463",
      "lng": "127.1483253",
      "region": "전북특별자치도",
      "district": "전주시"
    },
    {
      "id": 50,
      "name": "컴포즈커피 용인수지고점",
      "address": "경기도 용인시 수지구 수풍로 93 다온빌에이동 1층 101호",
      "contact": null,
      "lat": "37.3321265",
      "lng": "127.0933370",
      "region": "경기도",
      "district": "용인시"
    },
    {
      "id": 51,
      "name": "컴포즈커피 원주개운점",
      "address": "강원특별자치도 원주시 남원로 612 (개운동)",
      "contact": null,
      "lat": "37.3378389",
      "lng": "127.9514842",
      "region": "강원특별자치도",
      "district": "원주시"
    },
    {
      "id": 52,
      "name": "컴포즈커피 광주양산우미점",
      "address": "광주광역시 북구 양산로 15 1층 101호(양산동)",
      "contact": "062-417-7070",
      "lat": "35.2110787",
      "lng": "126.8761514",
      "region": "광주광역시",
      "district": "북구"
    },
    {
      "id": 53,
      "name": "컴포즈커피 천안종합운동장점",
      "address": "충청남도 천안시 서북구 백석3로 43",
      "contact": null,
      "lat": "36.8218780",
      "lng": "127.1164046",
      "region": "충청남도",
      "district": "천안시"
    },
    {
      "id": 54,
      "name": "컴포즈커피 나주루멘하임점",
      "address": "전라남도 나주시 그린로 325 1동 102호(빛가람동, 부영프라자)",
      "contact": "061-334-3111",
      "lat": "35.0155583",
      "lng": "126.7947420",
      "region": "전라남도",
      "district": "나주시"
    },
    {
      "id": 55,
      "name": "컴포즈커피 시흥물왕호수점",
      "address": "경기도 시흥시 산현마을길 58 1층 102호(산현동, 청담트윈스2)",
      "contact": "070-4032-7457",
      "lat": "37.3764448",
      "lng": "126.8452128",
      "region": "경기도",
      "district": "시흥시"
    },
    {
      "id": 56,
      "name": "컴포즈커피 천안두정먹자골목점",
      "address": "충청남도 천안시 서북구 두정로 168 1층 103호(두정동, 은혜빌딩)",
      "contact": "041-418-9645",
      "lat": "36.8335645",
      "lng": "127.1354790",
      "region": "충청남도",
      "district": "천안시"
    },
    {
      "id": 57,
      "name": "컴포즈커피 청주비하효성점",
      "address": "충청북도 청주시 흥덕구 2순환로1050번길 13-1",
      "contact": "043-902-7327",
      "lat": "36.6408190",
      "lng": "127.4214740",
      "region": "충청북도",
      "district": "청주시"
    },
    {
      "id": 58,
      "name": "컴포즈커피 광주상무시민공원점",
      "address": "광주광역시 서구 상무공원로 92 101호(치평동, 대주상가)",
      "contact": "062-385-3526",
      "lat": "35.1524001",
      "lng": "126.8431960",
      "region": "광주광역시",
      "district": "서구"
    },
    {
      "id": 59,
      "name": "컴포즈커피 삼척정상점",
      "address": "강원특별자치도 삼척시 동해대로 4044-10 1층(정상동, 꿈꾸는뜰)",
      "contact": null,
      "lat": "37.4415283",
      "lng": "129.1786064",
      "region": "강원특별자치도",
      "district": "삼척시"
    },
    {
      "id": 60,
      "name": "컴포즈커피 창원힐스테이트더퍼스트점",
      "address": "경상남도 창원시 성산구 대상중앙로 10 일원 대상힐스테이트창원더퍼스트 128동 102호",
      "contact": "055-715-1779",
      "lat": "35.2227861",
      "lng": "128.6701179",
      "region": "경상남도",
      "district": "창원시"
    },
    {
      "id": 61,
      "name": "컴포즈커피 완주이서점",
      "address": "전북특별자치도 완주군 이서면 이서로 90-7 1층 가운데 호실",
      "contact": "063-222-4213",
      "lat": "35.8201958",
      "lng": "127.0268689",
      "region": "전북특별자치도",
      "district": "완주군"
    },
    {
      "id": 62,
      "name": "컴포즈커피 안양중앙시장점",
      "address": "경기도 안양시 만안구 냉천로193번길 12 1층 일부호(안양동)",
      "contact": "031-466-1727",
      "lat": "37.3970468",
      "lng": "126.9188539",
      "region": "경기도",
      "district": "안양시"
    },
    {
      "id": 63,
      "name": "컴포즈커피 과천래미안슈르점",
      "address": "경기도 과천시 별양로 28 상가동 1층 1010호",
      "contact": "070-7798-5129",
      "lat": "37.4211738",
      "lng": "126.9912596",
      "region": "경기도",
      "district": "과천시"
    },
    {
      "id": 64,
      "name": "컴포즈커피 전주삼천남양점",
      "address": "전북특별자치도 전주시 완산구 삼천천변1길 34 111동 106호",
      "contact": null,
      "lat": "35.7950073",
      "lng": "127.1144528",
      "region": "전북특별자치도",
      "district": "전주시"
    },
    {
      "id": 65,
      "name": "컴포즈커피 수내돌고래시장점",
      "address": "경기도 성남시 분당구 돌마로356번길 3 (수내동, 그랜드빌딩)",
      "contact": "031-715-3872",
      "lat": "37.3697159",
      "lng": "127.1233299",
      "region": "경기도",
      "district": "성남시"
    },
    {
      "id": 66,
      "name": "컴포즈커피 영암삼호현대점",
      "address": "전라남도 영암군 삼호읍 신항로 120 1층",
      "contact": "061-461-5555",
      "lat": "34.7484991",
      "lng": "126.3759252",
      "region": "전라남도",
      "district": "영암군"
    },
    {
      "id": 67,
      "name": "컴포즈커피 곤지암삼리점",
      "address": "경기도 광주시 곤지암읍 평촌길 30-3 1층",
      "contact": null,
      "lat": "37.3566143",
      "lng": "127.3258921",
      "region": "경기도",
      "district": "광주시"
    },
    {
      "id": 68,
      "name": "컴포즈커피 국회의사당역점",
      "address": "서울특별시 영등포구 국회대로 780 1층 118호",
      "contact": null,
      "lat": "37.5298309",
      "lng": "126.9192656",
      "region": "서울특별시",
      "district": "영등포구"
    },
    {
      "id": 69,
      "name": "컴포즈커피 청주강내점",
      "address": "충청북도 청주시 흥덕구 강내면 가로수로 538 1",
      "contact": "043-904-4900",
      "lat": "36.6235748",
      "lng": "127.3599452",
      "region": "충청북도",
      "district": "청주시"
    },
    {
      "id": 70,
      "name": "컴포즈커피 경산펜타힐즈점",
      "address": "경상북도 경산시 펜타힐즈2로 65 1층 112호 (중산동, 펜타힐즈더원)",
      "contact": "070-4797-4944",
      "lat": "35.8295195",
      "lng": "128.7199445",
      "region": "경상북도",
      "district": "경산시"
    },
    {
      "id": 71,
      "name": "컴포즈커피 화성석포점",
      "address": "경기도 화성시 팔탄면 석포로 10-2 2층 일부호",
      "contact": null,
      "lat": "37.1316435",
      "lng": "126.8426096",
      "region": "경기도",
      "district": "화성시"
    },
    {
      "id": 72,
      "name": "컴포즈커피 제주일도인제점",
      "address": "제주특별자치도 제주시 고마로 101 1",
      "contact": null,
      "lat": "33.5053814",
      "lng": "126.5414153",
      "region": "제주특별자치도",
      "district": "제주시"
    },
    {
      "id": 73,
      "name": "컴포즈커피 광주금호중학교점",
      "address": "광주광역시 서구 금부로 97 1층 (금호동)",
      "contact": "062-373-3777",
      "lat": "35.1398737",
      "lng": "126.8596008",
      "region": "광주광역시",
      "district": "서구"
    },
    {
      "id": 74,
      "name": "컴포즈커피 파주별하람마을점",
      "address": "경기도 파주시 가람로 121-1 1층 103호",
      "contact": null,
      "lat": "37.7401758",
      "lng": "126.7600813",
      "region": "경기도",
      "district": "파주시"
    },
    {
      "id": 75,
      "name": "컴포즈커피 약수역2번출구점",
      "address": "서울특별시 중구 다산로 147 1층(신당동)",
      "contact": "02-3298-5013",
      "lat": "37.5569748",
      "lng": "127.0116184",
      "region": "서울특별시",
      "district": "중구"
    },
    {
      "id": 76,
      "name": "컴포즈커피 동탄숨마데시앙점",
      "address": "경기도 화성시 동탄신리천로3길 71 상가동 105, 106호",
      "contact": null,
      "lat": "37.1818978",
      "lng": "127.1359405",
      "region": "경기도",
      "district": "화성시"
    },
    {
      "id": 77,
      "name": "컴포즈커피 병점역복합타운점",
      "address": "경기도 화성시 병점노을4로 19 1층 117호(병점동, 골든스퀘어1)",
      "contact": null,
      "lat": "37.2055091",
      "lng": "127.0308901",
      "region": "경기도",
      "district": "화성시"
    },
    {
      "id": 78,
      "name": "컴포즈커피 광주수완성덕점",
      "address": "광주광역시 광산구 장덕로 48 1층 101호(장덕동)",
      "contact": "062-961-4090",
      "lat": "35.1946578",
      "lng": "126.8149546",
      "region": "광주광역시",
      "district": "광산구"
    },
    {
      "id": 79,
      "name": "컴포즈커피 영덕군청점",
      "address": "경상북도 영덕군 영덕읍 군청길 109",
      "contact": "054-733-1255",
      "lat": "36.4143395",
      "lng": "129.3673403",
      "region": "경상북도",
      "district": "영덕군"
    },
    {
      "id": 80,
      "name": "컴포즈커피 창원동정점",
      "address": "경상남도 창원시 의창구 서상로 33 (서상동, 오성상가)",
      "contact": null,
      "lat": "35.2630950",
      "lng": "128.6165968",
      "region": "경상남도",
      "district": "창원시"
    },
    {
      "id": 81,
      "name": "컴포즈커피 판교역점",
      "address": "경기도 성남시 분당구 대왕판교로606번길 31 1층 118호",
      "contact": null,
      "lat": "37.3966909",
      "lng": "127.1106823",
      "region": "경기도",
      "district": "성남시"
    },
    {
      "id": 82,
      "name": "컴포즈커피 광주전남대생활관점",
      "address": "광주광역시 북구 용봉로 77 전남대학교생활관공용동 1층 (9호관)",
      "contact": "062-716-5930",
      "lat": "35.1778193",
      "lng": "126.9080453",
      "region": "광주광역시",
      "district": "북구"
    },
    {
      "id": 83,
      "name": "컴포즈커피 원주단계공원점",
      "address": "강원특별자치도 원주시 무실로 174 (단계동)",
      "contact": "033-735-2359",
      "lat": "37.3412770",
      "lng": "127.9397891",
      "region": "강원특별자치도",
      "district": "원주시"
    },
    {
      "id": 84,
      "name": "컴포즈커피 천안삼거리공원점",
      "address": "충청남도 천안시 동남구 충절로 369 113",
      "contact": "041-415-1774",
      "lat": "36.7876065",
      "lng": "127.1669611",
      "region": "충청남도",
      "district": "천안시"
    },
    {
      "id": 85,
      "name": "컴포즈커피 대구알파시티점",
      "address": "대구광역시 수성구 알파시티2로 24 102호",
      "contact": "053-218-2118",
      "lat": "35.8395789",
      "lng": "128.6918323",
      "region": "대구광역시",
      "district": "수성구"
    },
    {
      "id": 86,
      "name": "컴포즈커피 이문래미안라그란데점",
      "address": "서울특별시 동대문구 이문로35길 12 근린생활시설C동 110호(이문동,래미안라그란데아파트)",
      "contact": "070-4010-7114",
      "lat": "37.5997704",
      "lng": "127.0612623",
      "region": "서울특별시",
      "district": "동대문구"
    },
    {
      "id": 87,
      "name": "컴포즈커피 천안4공단점",
      "address": "충청남도 천안시 서북구 직산읍 상덕로 6 1층 105호",
      "contact": "070-4231-1422",
      "lat": "36.8680102",
      "lng": "127.1181819",
      "region": "충청남도",
      "district": "천안시"
    },
    {
      "id": 88,
      "name": "컴포즈커피 진해마천공단점",
      "address": "경상남도 창원시 진해구 남영로 557 (남양동, 오예통통집)",
      "contact": "070-4333-8874",
      "lat": "35.1196740",
      "lng": "128.7816464",
      "region": "경상남도",
      "district": "창원시"
    },
    {
      "id": 89,
      "name": "컴포즈커피 광주운천역점",
      "address": "광주광역시 서구 상무민주로5번길 21 1층 109호(쌍촌동)",
      "contact": "062-714-3372",
      "lat": "35.1505870",
      "lng": "126.8565051",
      "region": "광주광역시",
      "district": "서구"
    },
    {
      "id": 90,
      "name": "컴포즈커피 잠실본동점",
      "address": "서울특별시 송파구 백제고분로18길 3",
      "contact": null,
      "lat": "37.5047580",
      "lng": "127.0850659",
      "region": "서울특별시",
      "district": "송파구"
    },
    {
      "id": 91,
      "name": "컴포즈커피 대전관저월드프라자점",
      "address": "대전광역시 서구 관저북로 25 104호",
      "contact": "042-719-8227",
      "lat": "36.3039870",
      "lng": "127.3367406",
      "region": "대전광역시",
      "district": "서구"
    },
    {
      "id": 92,
      "name": "컴포즈커피 석전KS마트점",
      "address": "경상남도 창원시 마산회원구 북성로 262 (석전동)",
      "contact": null,
      "lat": "35.2300932",
      "lng": "128.5677020",
      "region": "경상남도",
      "district": "창원시"
    },
    {
      "id": 93,
      "name": "컴포즈커피 대구동성로중앙제일점",
      "address": "대구광역시 중구 중앙대로 394 1층(남일동)",
      "contact": "070-8872-2002",
      "lat": "35.8683198",
      "lng": "128.5940020",
      "region": "대구광역시",
      "district": "중구"
    },
    {
      "id": 94,
      "name": "컴포즈커피 성신여대입구역6번출구점",
      "address": "서울특별시 성북구 아리랑로 6 (동선동4가)",
      "contact": null,
      "lat": "37.5933315",
      "lng": "127.0165685",
      "region": "서울특별시",
      "district": "성북구"
    },
    {
      "id": 95,
      "name": "컴포즈커피 총신대입구역1번출구점",
      "address": "서울특별시 서초구 동작대로 128 2층(방배동)",
      "contact": "02-3478-9033",
      "lat": "37.4878858",
      "lng": "126.9826281",
      "region": "서울특별시",
      "district": "서초구"
    },
    {
      "id": 96,
      "name": "컴포즈커피 나주남평로중앙점",
      "address": "전라남도 나주시 남평읍 남평2로 54-1 좌측코너",
      "contact": "061-930-8891",
      "lat": "35.0470340",
      "lng": "126.8420140",
      "region": "전라남도",
      "district": "나주시"
    },
    {
      "id": 97,
      "name": "컴포즈커피 삼성전기세종사업장점",
      "address": "세종특별자치시 연동면 삼성길 25 삼성전기 세종사업장 한울림프라자 2층 일부",
      "contact": null,
      "lat": "36.5406447",
      "lng": "127.3342958",
      "region": "세종특별자치시",
      "district": "연동면"
    },
    {
      "id": 98,
      "name": "컴포즈커피 정읍시기코아루점",
      "address": "전북특별자치도 정읍시 정읍남로 1393 (시기동)",
      "contact": "063-536-8542",
      "lat": "35.5586339",
      "lng": "126.8546190",
      "region": "전북특별자치도",
      "district": "정읍시"
    },
    {
      "id": 99,
      "name": "컴포즈커피 익산원광대점",
      "address": "전북특별자치도 익산시 무왕로 894 103호(신동)",
      "contact": "063-841-1122",
      "lat": "35.9635474",
      "lng": "126.9577435",
      "region": "전북특별자치도",
      "district": "익산시"
    },
    {
      "id": 100,
      "name": "컴포즈커피 경동시장사거리점",
      "address": "서울특별시 동대문구 고산자로 420 힐스테이트 청량리 메트로블 125호",
      "contact": null,
      "lat": "37.5771451",
      "lng": "127.0387062",
      "region": "서울특별시",
      "district": "동대문구"
    },
    {
      "id": 101,
      "name": "컴포즈커피 전주서신쌍용점",
      "address": "전북특별자치도 전주시 완산구 당산로 11-1 상가2동 1층 1호, 2호(서신동, 쌍용서신아파트)",
      "contact": null,
      "lat": "35.8327902",
      "lng": "127.1093761",
      "region": "전북특별자치도",
      "district": "전주시"
    },
    {
      "id": 102,
      "name": "컴포즈커피 엄궁초점",
      "address": "부산광역시 사상구 엄궁북로 23 1층(엄궁동)",
      "contact": "051-714-5657",
      "lat": "35.1286312",
      "lng": "128.9728878",
      "region": "부산광역시",
      "district": "사상구"
    },
    {
      "id": 103,
      "name": "컴포즈커피 신포로데오점",
      "address": "인천광역시 중구 개항로 9-1 1층(중앙동4가)",
      "contact": null,
      "lat": "37.4714043",
      "lng": "126.6238024",
      "region": "인천광역시",
      "district": "중구"
    },
    {
      "id": 104,
      "name": "컴포즈커피 인천계산도두리점",
      "address": "인천광역시 계양구 용종로 2 108",
      "contact": "070-8866-1103",
      "lat": "37.5340374",
      "lng": "126.7415048",
      "region": "인천광역시",
      "district": "계양구"
    },
    {
      "id": 105,
      "name": "컴포즈커피 안산와동점",
      "address": "경기도 안산시 단원구 와동공원로 134 1층 일",
      "contact": "031-411-1333",
      "lat": "37.3433897",
      "lng": "126.8215996",
      "region": "경기도",
      "district": "안산시"
    },
    {
      "id": 106,
      "name": "컴포즈커피 인천정석빌딩점",
      "address": "인천광역시 중구 서해대로 366 정석빌딩 신관 1층",
      "contact": "032-710-5349",
      "lat": "37.4596101",
      "lng": "126.6326487",
      "region": "인천광역시",
      "district": "중구"
    },
    {
      "id": 107,
      "name": "컴포즈커피 인천작전행운점",
      "address": "인천광역시 계양구 장제로 708 103호",
      "contact": "032-282-9090",
      "lat": "37.5310293",
      "lng": "126.7342646",
      "region": "인천광역시",
      "district": "계양구"
    },
    {
      "id": 108,
      "name": "컴포즈커피 은평대림시장점",
      "address": "서울특별시 은평구 응암로 180 (응암동)",
      "contact": "02-6956-4589",
      "lat": "37.5880711",
      "lng": "126.9170475",
      "region": "서울특별시",
      "district": "은평구"
    },
    {
      "id": 109,
      "name": "컴포즈커피 행주산성나루터점",
      "address": "경기도 고양시 덕양구 행주산성로 190 1층(행주외동)",
      "contact": null,
      "lat": "37.6026232",
      "lng": "126.8152261",
      "region": "경기도",
      "district": "고양시"
    },
    {
      "id": 110,
      "name": "컴포즈커피 춘천강원대공과대학점",
      "address": "강원특별자치도 춘천시 백령로 67 1층",
      "contact": null,
      "lat": "37.8694916",
      "lng": "127.7376824",
      "region": "강원특별자치도",
      "district": "춘천시"
    },
    {
      "id": 111,
      "name": "컴포즈커피 대구교동점",
      "address": "대구광역시 중구 국채보상로123길 16 1층",
      "contact": "070-8722-8851",
      "lat": "35.8713960",
      "lng": "128.5975991",
      "region": "대구광역시",
      "district": "중구"
    },
    {
      "id": 112,
      "name": "컴포즈커피 횡성알프스점",
      "address": "강원특별자치도 횡성군 우천면 한우로 1270 (우항리)",
      "contact": null,
      "lat": "37.4595304",
      "lng": "128.0666067",
      "region": "강원특별자치도",
      "district": "횡성군"
    },
    {
      "id": 113,
      "name": "컴포즈커피 연대서문점",
      "address": "서울특별시 서대문구 성산로17길 39 (연희동)",
      "contact": null,
      "lat": "37.5639684",
      "lng": "126.9329250",
      "region": "서울특별시",
      "district": "서대문구"
    },
    {
      "id": 114,
      "name": "컴포즈커피 수원못골시장점",
      "address": "경기도 수원시 팔달구 중부대로39번길 6 1층",
      "contact": "031-254-0100",
      "lat": "37.2755002",
      "lng": "127.0214159",
      "region": "경기도",
      "district": "수원시"
    },
    {
      "id": 115,
      "name": "컴포즈커피 양주덕계역점",
      "address": "경기도 양주시 덕계로4길 4 104호(덕계동,케이타워)",
      "contact": null,
      "lat": "37.8176828",
      "lng": "127.0570376",
      "region": "경기도",
      "district": "양주시"
    },
    {
      "id": 116,
      "name": "컴포즈커피 울산선암점",
      "address": "울산광역시 남구 두왕로154번길 29 1층(선암동)",
      "contact": "052-265-0725",
      "lat": "35.5144578",
      "lng": "129.3103036",
      "region": "울산광역시",
      "district": "남구"
    },
    {
      "id": 117,
      "name": "컴포즈커피 의왕스마트시티퀀텀점",
      "address": "경기도 의왕시 광진말로 54 S동 127호",
      "contact": "031-8058-8085",
      "lat": "37.3210324",
      "lng": "126.9405957",
      "region": "경기도",
      "district": "의왕시"
    },
    {
      "id": 118,
      "name": "컴포즈커피 창녕영산점",
      "address": "경상남도 창녕군 영산면 영산장마로 745 1층",
      "contact": "055-521-1056",
      "lat": "35.4575089",
      "lng": "128.5253464",
      "region": "경상남도",
      "district": "창녕군"
    },
    {
      "id": 119,
      "name": "컴포즈커피 광양태인점",
      "address": "전라남도 광양시 삼봉산로 5 D동 3호(태인동)",
      "contact": "061-795-0808",
      "lat": "34.9351538",
      "lng": "127.7458176",
      "region": "전라남도",
      "district": "광양시"
    },
    {
      "id": 120,
      "name": "컴포즈커피 군산나운영창점",
      "address": "전북특별자치도 군산시 의료원로 131 상가2동 101호(나운동, 영창아파트)",
      "contact": "063-468-1526",
      "lat": "35.9577556",
      "lng": "126.7015413",
      "region": "전북특별자치도",
      "district": "군산시"
    },
    {
      "id": 121,
      "name": "컴포즈커피 대천해수욕장점",
      "address": "충청남도 보령시 머드광장로 14 (신흑동)",
      "contact": null,
      "lat": "36.3160020",
      "lng": "126.5125679",
      "region": "충청남도",
      "district": "보령시"
    },
    {
      "id": 122,
      "name": "컴포즈커피 학익시티오씨엘1단지점",
      "address": "인천광역시 미추홀구 학익로 116 126동 1층 (학익동, 시티오씨엘1단지)",
      "contact": "070-4833-6173",
      "lat": "37.4419511",
      "lng": "126.6431760",
      "region": "인천광역시",
      "district": "미추홀구"
    },
    {
      "id": 123,
      "name": "컴포즈커피 전주신일강변점",
      "address": "전북특별자치도 전주시 완산구 강변로 98-1 1층",
      "contact": null,
      "lat": "35.7999752",
      "lng": "127.1138533",
      "region": "전북특별자치도",
      "district": "전주시"
    },
    {
      "id": 124,
      "name": "컴포즈커피 청주율량사천점",
      "address": "충청북도 청주시 청원구 율봉로 97 104호",
      "contact": "043-216-3069",
      "lat": "36.6669045",
      "lng": "127.4801068",
      "region": "충청북도",
      "district": "청주시"
    },
    {
      "id": 125,
      "name": "컴포즈커피 천안직산점",
      "address": "충청남도 천안시 서북구 직산읍 아랫말1길 17 (삼은리)",
      "contact": "041-582-0101",
      "lat": "36.8775700",
      "lng": "127.1505300",
      "region": "충청남도",
      "district": "천안시"
    },
    {
      "id": 126,
      "name": "컴포즈커피 청주커넥트현대점",
      "address": "충청북도 청주시 흥덕구 2순환로 1225 6층 616호",
      "contact": null,
      "lat": "36.6269924",
      "lng": "127.4306879",
      "region": "충청북도",
      "district": "청주시"
    },
    {
      "id": 127,
      "name": "컴포즈커피 안산목내점",
      "address": "경기도 안산시 단원구 별망로 453 1층 104호",
      "contact": "070-7537-3259",
      "lat": "37.3040413",
      "lng": "126.7754515",
      "region": "경기도",
      "district": "안산시"
    },
    {
      "id": 128,
      "name": "컴포즈커피 전주상산타운점",
      "address": "전북특별자치도 전주시 완산구 거마평로 121 상가 2동 1층 102호",
      "contact": "063-221-6008",
      "lat": "35.8033390",
      "lng": "127.1165647",
      "region": "전북특별자치도",
      "district": "전주시"
    },
    {
      "id": 129,
      "name": "컴포즈커피 인천송도유원지점",
      "address": "인천광역시 연수구 인권로 11 1층",
      "contact": "070-4066-3531",
      "lat": "37.4188397",
      "lng": "126.6515341",
      "region": "인천광역시",
      "district": "연수구"
    },
    {
      "id": 130,
      "name": "컴포즈커피 서울올림픽파크포레온점",
      "address": "서울특별시 강동구 양재대로 1319 1층 103호(성내동, 대성빌딩)",
      "contact": null,
      "lat": "37.5241988",
      "lng": "127.1344526",
      "region": "서울특별시",
      "district": "강동구"
    },
    {
      "id": 131,
      "name": "컴포즈커피 울산삼호점",
      "address": "울산광역시 남구 어은로 33-1 1층(무거동)",
      "contact": "052-277-0326",
      "lat": "35.5522308",
      "lng": "129.2744863",
      "region": "울산광역시",
      "district": "남구"
    },
    {
      "id": 132,
      "name": "컴포즈커피 마산산호베스티움점",
      "address": "경상남도 창원시 마산합포구 회원천북길 491 1층 103호(산호동, 산호베스티움상가)",
      "contact": "070-8230-0915",
      "lat": "35.2094587",
      "lng": "128.5820532",
      "region": "경상남도",
      "district": "창원시"
    },
    {
      "id": 133,
      "name": "컴포즈커피 속초수복탑사거리점",
      "address": "강원특별자치도 속초시 중앙로 216 1층",
      "contact": null,
      "lat": "38.2096986",
      "lng": "128.5933530",
      "region": "강원특별자치도",
      "district": "속초시"
    },
    {
      "id": 134,
      "name": "컴포즈커피 천안성정롯데점",
      "address": "충청남도 천안시 서북구 성정두정로 12",
      "contact": "041-903-1115",
      "lat": "36.8265708",
      "lng": "127.1415119",
      "region": "충청남도",
      "district": "천안시"
    },
    {
      "id": 135,
      "name": "컴포즈커피 성남법원점",
      "address": "경기도 성남시 중원구 산성대로 456-1 1층 전체(금광동)",
      "contact": "070-7626-5244",
      "lat": "37.4523631",
      "lng": "127.1606198",
      "region": "경기도",
      "district": "성남시"
    },
    {
      "id": 136,
      "name": "컴포즈커피 시흥옥구점",
      "address": "경기도 시흥시 정왕대로 64 129,130호(정왕동, 메가쇼핑몰)",
      "contact": "031-498-0915",
      "lat": "37.3542659",
      "lng": "126.7235246",
      "region": "경기도",
      "district": "시흥시"
    },
    {
      "id": 137,
      "name": "컴포즈커피 원주엔터비즈타워점",
      "address": "강원특별자치도 원주시 입춘로 45 1층 148호",
      "contact": null,
      "lat": "37.3277309",
      "lng": "127.9785529",
      "region": "강원특별자치도",
      "district": "원주시"
    },
    {
      "id": 138,
      "name": "컴포즈커피 의정부부대찌개거리점",
      "address": "경기도 의정부시 태평로133번길 20 1층(의정부동)",
      "contact": null,
      "lat": "37.7443286",
      "lng": "127.0499988",
      "region": "경기도",
      "district": "의정부시"
    },
    {
      "id": 139,
      "name": "컴포즈커피 광명트리우스점",
      "address": "경기도 광명시 광이로 96 2단지내 상가 3동 104호",
      "contact": "02-6953-6565",
      "lat": "37.4855425",
      "lng": "126.8613589",
      "region": "경기도",
      "district": "광명시"
    },
    {
      "id": 140,
      "name": "컴포즈커피 금곡북부소방서점",
      "address": "부산광역시 북구 효열로 275 1층(금곡동)",
      "contact": "051-363-8331",
      "lat": "35.2672113",
      "lng": "129.0183529",
      "region": "부산광역시",
      "district": "북구"
    },
    {
      "id": 141,
      "name": "컴포즈커피 경희외국어대학관점",
      "address": "경기도 용인시 기흥구 덕영대로 1732 외국어대학관내 1층",
      "contact": null,
      "lat": "37.2432813",
      "lng": "127.0798263",
      "region": "경기도",
      "district": "용인시"
    },
    {
      "id": 142,
      "name": "컴포즈커피 목동문화체육센터점",
      "address": "서울특별시 양천구 목동중앙본로 68-1 목동근생및다가구주택 1층 좌측점포",
      "contact": "02-2644-4550",
      "lat": "37.5419157",
      "lng": "126.8693176",
      "region": "서울특별시",
      "district": "양천구"
    },
    {
      "id": 143,
      "name": "컴포즈커피 신림신화교점",
      "address": "서울특별시 관악구 신림로 199 1층(신림동)",
      "contact": null,
      "lat": "37.4755356",
      "lng": "126.9362061",
      "region": "서울특별시",
      "district": "관악구"
    },
    {
      "id": 144,
      "name": "컴포즈커피 평택브리티시고덕점",
      "address": "경기도 평택시 고덕국제대로 77 1314호",
      "contact": null,
      "lat": "37.0443655",
      "lng": "127.0419030",
      "region": "경기도",
      "district": "평택시"
    },
    {
      "id": 145,
      "name": "컴포즈커피 에코델타푸르지오점",
      "address": "부산광역시 강서구 에코델타1로 66 상가동 105호",
      "contact": "070-8691-3585",
      "lat": "35.1476656",
      "lng": "128.9147022",
      "region": "부산광역시",
      "district": "강서구"
    },
    {
      "id": 146,
      "name": "컴포즈커피 서천장항점",
      "address": "충청남도 서천군 장항읍 장서로 66 (창선2리)",
      "contact": null,
      "lat": "36.0136863",
      "lng": "126.6988753",
      "region": "충청남도",
      "district": "서천군"
    },
    {
      "id": 147,
      "name": "컴포즈커피 광주흑석중흥점",
      "address": "광주광역시 광산구 풍영로145번길 15 상가동 1층 101호",
      "contact": null,
      "lat": "35.1838839",
      "lng": "126.8130915",
      "region": "광주광역시",
      "district": "광산구"
    },
    {
      "id": 148,
      "name": "컴포즈커피 이천관고시장점",
      "address": "경기도 이천시 영창로 162 1층",
      "contact": null,
      "lat": "37.2815738",
      "lng": "127.4405110",
      "region": "경기도",
      "district": "이천시"
    },
    {
      "id": 149,
      "name": "컴포즈커피 경희전자국제점",
      "address": "경기도 용인시 기흥구 덕영대로 1732 108호 전자정보대학관",
      "contact": "070-8287-1564",
      "lat": "37.2432813",
      "lng": "127.0798263",
      "region": "경기도",
      "district": "용인시"
    },
    {
      "id": 150,
      "name": "컴포즈커피 인천논현중앙점",
      "address": "인천광역시 남동구 논고개로136번길 5-11",
      "contact": "070-4694-2084",
      "lat": "37.4039045",
      "lng": "126.7245325",
      "region": "인천광역시",
      "district": "남동구"
    },
    {
      "id": 151,
      "name": "컴포즈커피 나주동강농협주유소점",
      "address": "전라남도 나주시 동강면 남악동강로 1432 (월양리)",
      "contact": "061-335-5182",
      "lat": "34.9299004",
      "lng": "126.5670558",
      "region": "전라남도",
      "district": "나주시"
    },
    {
      "id": 152,
      "name": "컴포즈커피 일산문화광장점",
      "address": "경기도 고양시 일산동구 중앙로1275번길 38-10 1층 103호(장항동, 우림로데오스위트)",
      "contact": "031-932-0699",
      "lat": "37.6599463",
      "lng": "126.7709599",
      "region": "경기도",
      "district": "고양시"
    },
    {
      "id": 153,
      "name": "컴포즈커피 마곡아이파크디어반점",
      "address": "서울특별시 강서구 마곡중앙8로7길 57 B동 1층 111호(마곡동, 마곡아이파크 디어반)",
      "contact": "070-7585-6865",
      "lat": "37.5661927",
      "lng": "126.8392747",
      "region": "서울특별시",
      "district": "강서구"
    },
    {
      "id": 154,
      "name": "컴포즈커피 동탄영천골드프라자점",
      "address": "경기도 화성시 동탄영천로 81-5 1층 111호(영천동, 골든프라자)",
      "contact": null,
      "lat": "37.2096788",
      "lng": "127.1029740",
      "region": "경기도",
      "district": "화성시"
    },
    {
      "id": 155,
      "name": "컴포즈커피 대구수성보성타운점",
      "address": "대구광역시 수성구 수성로 412 117동 102호",
      "contact": "070-7777-5792",
      "lat": "35.8626522",
      "lng": "128.6151594",
      "region": "대구광역시",
      "district": "수성구"
    },
    {
      "id": 156,
      "name": "컴포즈커피 평택칠원하모니점",
      "address": "경기도 평택시 새말로 17 1층(칠원동)",
      "contact": "031-665-1752",
      "lat": "37.0284532",
      "lng": "127.1036856",
      "region": "경기도",
      "district": "평택시"
    },
    {
      "id": 157,
      "name": "컴포즈커피 나주송월부영점",
      "address": "전라남도 나주시 나주로 41-17 상가동 101호",
      "contact": "061-331-8111",
      "lat": "35.0241304",
      "lng": "126.7150375",
      "region": "전라남도",
      "district": "나주시"
    },
    {
      "id": 158,
      "name": "컴포즈커피 광주운암미라보점",
      "address": "광주광역시 북구 서강로 155 상가동 9호, 20호(운암동, 미라보아파트)",
      "contact": "062-522-1106",
      "lat": "35.1849636",
      "lng": "126.8752263",
      "region": "광주광역시",
      "district": "북구"
    },
    {
      "id": 159,
      "name": "컴포즈커피 구서역점",
      "address": "부산광역시 금정구 구서로 11",
      "contact": "0503-5260-9495",
      "lat": "35.2465894",
      "lng": "129.0896267",
      "region": "부산광역시",
      "district": "금정구"
    },
    {
      "id": 160,
      "name": "컴포즈커피 동대신동점",
      "address": "부산광역시 서구 구덕로315번길 10-8 1층",
      "contact": "051-253-0901",
      "lat": "35.1122438",
      "lng": "129.0162013",
      "region": "부산광역시",
      "district": "서구"
    },
    {
      "id": 161,
      "name": "컴포즈커피 부산시민회관점",
      "address": "부산광역시 동구 조방로 14 125호",
      "contact": "0507-1315-1614",
      "lat": "35.1387523",
      "lng": "129.0634901",
      "region": "부산광역시",
      "district": "동구"
    },
    {
      "id": 162,
      "name": "컴포즈커피 부산대2호점",
      "address": "부산광역시 금정구 금강로 248-10",
      "contact": "051-581-1102",
      "lat": "35.2300390",
      "lng": "129.0854165",
      "region": "부산광역시",
      "district": "금정구"
    },
    {
      "id": 163,
      "name": "컴포즈커피 원주무실제일풍경채점",
      "address": "강원특별자치도 원주시 무실로 353-2 근린생활시설 2동 111호",
      "contact": null,
      "lat": "37.3307040",
      "lng": "127.9323054",
      "region": "강원특별자치도",
      "district": "원주시"
    },
    {
      "id": 164,
      "name": "컴포즈커피 익산삼기농협로컬푸드점",
      "address": "전북특별자치도 익산시 삼기면 하나로 1334",
      "contact": "8:30 - 20:00",
      "lat": "36.0374015",
      "lng": "126.9833492",
      "region": "전북특별자치도",
      "district": "익산시"
    },
    {
      "id": 165,
      "name": "컴포즈커피 아산온양농협하나로점",
      "address": "충청남도 아산시 남부로 246",
      "contact": "041-533-0450",
      "lat": "36.7703549",
      "lng": "127.0093961",
      "region": "충청남도",
      "district": "아산시"
    },
    {
      "id": 166,
      "name": "컴포즈커피 숭의오거리점",
      "address": "인천광역시 미추홀구 독배로 437 101호(가우디)",
      "contact": null,
      "lat": "37.4585315",
      "lng": "126.6486758",
      "region": "인천광역시",
      "district": "미추홀구"
    },
    {
      "id": 167,
      "name": "컴포즈커피 양평용문점",
      "address": "경기도 양평군 용문면 용문로 356 (다문리)",
      "contact": "031-771-8410",
      "lat": "37.4841568",
      "lng": "127.5933808",
      "region": "경기도",
      "district": "양평군"
    },
    {
      "id": 168,
      "name": "컴포즈커피 신검단중앙역점",
      "address": "인천광역시 서구 고산후로 222 푸리마더타워 103호",
      "contact": "032-563-2722",
      "lat": "37.6034746",
      "lng": "126.6988930",
      "region": "인천광역시",
      "district": "서구"
    },
    {
      "id": 169,
      "name": "컴포즈커피 아산세교행복타워점",
      "address": "충청남도 아산시 배방읍 세교중앙로 36 행복타워2 107호",
      "contact": "041-534-1210",
      "lat": "36.7788849",
      "lng": "127.0938704",
      "region": "충청남도",
      "district": "아산시"
    },
    {
      "id": 170,
      "name": "컴포즈커피 광주신안점",
      "address": "광주광역시 북구 무등로202번길 42 (신안동)",
      "contact": "062-522-7111",
      "lat": "35.1633612",
      "lng": "126.9045476",
      "region": "광주광역시",
      "district": "북구"
    },
    {
      "id": 171,
      "name": "컴포즈커피 안성죽산점",
      "address": "경기도 안성시 죽산면 죽주로 242 (죽산리)",
      "contact": null,
      "lat": "37.0744468",
      "lng": "127.4222460",
      "region": "경기도",
      "district": "안성시"
    },
    {
      "id": 172,
      "name": "컴포즈커피 부천대사거리점",
      "address": "경기도 부천시 원미구 장말로 314-3 1층",
      "contact": null,
      "lat": "37.4908740",
      "lng": "126.7769012",
      "region": "경기도",
      "district": "부천시"
    },
    {
      "id": 173,
      "name": "컴포즈커피 서천특화시장점",
      "address": "충청남도 서천군 서천읍 충절로 34 (군사리)",
      "contact": null,
      "lat": "36.0753642",
      "lng": "126.6863914",
      "region": "충청남도",
      "district": "서천군"
    },
    {
      "id": 174,
      "name": "컴포즈커피 인천루원복합청사점",
      "address": "인천광역시 서구 봉오재3로 130 106호",
      "contact": null,
      "lat": "37.5270977",
      "lng": "126.6738653",
      "region": "인천광역시",
      "district": "서구"
    },
    {
      "id": 175,
      "name": "컴포즈커피 인하대문화거리점",
      "address": "인천광역시 미추홀구 인하로 73 (용현동)",
      "contact": "070-4632-7168",
      "lat": "37.4514661",
      "lng": "126.6564939",
      "region": "인천광역시",
      "district": "미추홀구"
    },
    {
      "id": 176,
      "name": "컴포즈커피 대림대학교홍지관점",
      "address": "경기도 안양시 동안구 임곡로 29 대림대학 종합강의동(홍지관) 2층",
      "contact": null,
      "lat": "37.4033679",
      "lng": "126.9297887",
      "region": "경기도",
      "district": "안양시"
    },
    {
      "id": 177,
      "name": "컴포즈커피 울산효문공단점",
      "address": "울산광역시 북구 효자로 107-1 1층",
      "contact": null,
      "lat": "35.5708954",
      "lng": "129.3672196",
      "region": "울산광역시",
      "district": "북구"
    },
    {
      "id": 178,
      "name": "컴포즈커피 군산지곡점",
      "address": "전북특별자치도 군산시 신지길 11 1층 102호(지곡동)",
      "contact": "063-468-7111",
      "lat": "35.9585780",
      "lng": "126.7056219",
      "region": "전북특별자치도",
      "district": "군산시"
    },
    {
      "id": 179,
      "name": "컴포즈커피 대전배재대학교점",
      "address": "대전광역시 서구 배재로 155-40 (도마동, 배재대학교)",
      "contact": null,
      "lat": "36.3202020",
      "lng": "127.3652283",
      "region": "대전광역시",
      "district": "서구"
    },
    {
      "id": 180,
      "name": "컴포즈커피 창원대학교점",
      "address": "경상남도 창원시 의창구 퇴촌로 41 1층",
      "contact": "055-286-3534",
      "lat": "35.2422145",
      "lng": "128.6896450",
      "region": "경상남도",
      "district": "창원시"
    },
    {
      "id": 181,
      "name": "컴포즈커피 파주상지석점",
      "address": "경기도 파주시 운정로 139 1층",
      "contact": null,
      "lat": "37.7214425",
      "lng": "126.7811646",
      "region": "경기도",
      "district": "파주시"
    },
    {
      "id": 182,
      "name": "컴포즈커피 거제상동다이소점",
      "address": "경상남도 거제시 상동5길 91 1층",
      "contact": "055-950-3073",
      "lat": "34.8628158",
      "lng": "128.6315448",
      "region": "경상남도",
      "district": "거제시"
    },
    {
      "id": 183,
      "name": "컴포즈커피 인천대공원점",
      "address": "인천광역시 남동구 무네미로 238",
      "contact": "032-467-0500",
      "lat": "37.4585939",
      "lng": "126.7519672",
      "region": "인천광역시",
      "district": "남동구"
    },
    {
      "id": 184,
      "name": "컴포즈커피 일산차병원점",
      "address": "경기도 고양시 일산동구 중앙로 1205 일산차병원 2층 208호실",
      "contact": "070-8899-5411",
      "lat": "37.6541317",
      "lng": "126.7757374",
      "region": "경기도",
      "district": "고양시"
    },
    {
      "id": 185,
      "name": "컴포즈커피 킨텍스역꿈에그린점",
      "address": "경기도 고양시 일산서구 킨텍스로 240 판매시설동 1층 128호",
      "contact": "031-819-0101",
      "lat": "37.6659013",
      "lng": "126.7504499",
      "region": "경기도",
      "district": "고양시"
    },
    {
      "id": 186,
      "name": "컴포즈커피 군포삼성마을점",
      "address": "경기도 군포시 삼성로20번길 4-16 (부곡동)",
      "contact": "031-392-5356",
      "lat": "37.3368313",
      "lng": "126.9339077",
      "region": "경기도",
      "district": "군포시"
    },
    {
      "id": 187,
      "name": "컴포즈커피 해방촌오거리점",
      "address": "서울특별시 용산구 신흥로 89",
      "contact": null,
      "lat": "37.5456788",
      "lng": "126.9854509",
      "region": "서울특별시",
      "district": "용산구"
    },
    {
      "id": 188,
      "name": "컴포즈커피 철산자이더헤리티지점",
      "address": "경기도 광명시 시청로 70 철산자이더헤리티지 상가2-10호",
      "contact": null,
      "lat": "37.4820053",
      "lng": "126.8712611",
      "region": "경기도",
      "district": "광명시"
    },
    {
      "id": 189,
      "name": "컴포즈커피 충북영동점",
      "address": "충청북도 영동군 영동읍 중앙로 41-1",
      "contact": "043-742-6811",
      "lat": "36.1756710",
      "lng": "127.7777632",
      "region": "충청북도",
      "district": "영동군"
    },
    {
      "id": 190,
      "name": "컴포즈커피 홍제폭포점",
      "address": "서울특별시 서대문구 연희로 262-37",
      "contact": null,
      "lat": "37.5818460",
      "lng": "126.9367823",
      "region": "서울특별시",
      "district": "서대문구"
    },
    {
      "id": 191,
      "name": "컴포즈커피 무안오룡우미린점",
      "address": "전라남도 무안군 일로읍 오룡번영1로 96 (오룡리, 오룡 우미린 더 시그니처 2차)",
      "contact": null,
      "lat": "34.7963596",
      "lng": "126.4843630",
      "region": "전라남도",
      "district": "무안군"
    },
    {
      "id": 192,
      "name": "컴포즈커피 춘천애막골점",
      "address": "강원특별자치도 춘천시 후석로186번길 10 (석사동)",
      "contact": "033-262-5654",
      "lat": "37.8675422",
      "lng": "127.7531118",
      "region": "강원특별자치도",
      "district": "춘천시"
    },
    {
      "id": 193,
      "name": "컴포즈커피 용인호수마을점",
      "address": "경기도 용인시 기흥구 평촌1로2번길 6-1",
      "contact": null,
      "lat": "37.2846855",
      "lng": "127.1535764",
      "region": "경기도",
      "district": "용인시"
    },
    {
      "id": 194,
      "name": "컴포즈커피 원주천매사거리점",
      "address": "강원특별자치도 원주시 남원로 441-6 1층",
      "contact": null,
      "lat": "37.3257661",
      "lng": "127.9405967",
      "region": "강원특별자치도",
      "district": "원주시"
    },
    {
      "id": 195,
      "name": "컴포즈커피 세종아름송남타워점",
      "address": "세종특별자치시 보듬3로 154 1층 112호(아름동, 송남빌딩)",
      "contact": "044-998-0486",
      "lat": "36.5122701",
      "lng": "127.2426441",
      "region": "세종특별자치시",
      "district": "보듬3로"
    },
    {
      "id": 196,
      "name": "컴포즈커피 진주도동점",
      "address": "경상남도 진주시 하대로 83 101호",
      "contact": "055-752-0101",
      "lat": "35.1932807",
      "lng": "128.1207604",
      "region": "경상남도",
      "district": "진주시"
    },
    {
      "id": 197,
      "name": "컴포즈커피 광주유스퀘어터미널점",
      "address": "광주광역시 서구 무진대로 904 유스퀘어 내 1층",
      "contact": "062-352-6232",
      "lat": "35.1606026",
      "lng": "126.8798482",
      "region": "광주광역시",
      "district": "서구"
    },
    {
      "id": 198,
      "name": "컴포즈커피 전주에코스위첸점",
      "address": "전북특별자치도 전주시 덕진구 세병로 174-19 103호",
      "contact": "063-909-6165",
      "lat": "35.8802653",
      "lng": "127.1340302",
      "region": "전북특별자치도",
      "district": "전주시"
    },
    {
      "id": 199,
      "name": "컴포즈커피 시흥장현코리아프라자점",
      "address": "경기도 시흥시 장현능곡로 1 102호",
      "contact": null,
      "lat": "37.3730302",
      "lng": "126.7909746",
      "region": "경기도",
      "district": "시흥시"
    },
    {
      "id": 200,
      "name": "컴포즈커피 홈플러스월드컵점",
      "address": "서울특별시 마포구 월드컵로 240 2층 푸드코트 내 XE, y31호",
      "contact": "02-304-9991",
      "lat": "37.5682885",
      "lng": "126.8972730",
      "region": "서울특별시",
      "district": "마포구"
    },
    {
      "id": 201,
      "name": "컴포즈커피 원주치악회관점",
      "address": "강원특별자치도 원주시 치악로 1692 치악회관 1층",
      "contact": null,
      "lat": "37.3347576",
      "lng": "127.9590533",
      "region": "강원특별자치도",
      "district": "원주시"
    },
    {
      "id": 202,
      "name": "컴포즈커피 인천주안남초점",
      "address": "인천광역시 미추홀구 인주대로418번길 10",
      "contact": "070-4647-4556",
      "lat": "37.4506684",
      "lng": "126.6829057",
      "region": "인천광역시",
      "district": "미추홀구"
    },
    {
      "id": 203,
      "name": "컴포즈커피 서귀포위미점",
      "address": "제주특별자치도 서귀포시 남원읍 태위로 99 (위미리)",
      "contact": null,
      "lat": "33.2747774",
      "lng": "126.6580082",
      "region": "제주특별자치도",
      "district": "서귀포시"
    },
    {
      "id": 204,
      "name": "컴포즈커피 병점송화초점",
      "address": "경기도 화성시 병점1로 66-12 1층 101-2호",
      "contact": "070-8657-3327",
      "lat": "37.2021399",
      "lng": "127.0415549",
      "region": "경기도",
      "district": "화성시"
    },
    {
      "id": 205,
      "name": "컴포즈커피 광주경안중앙점",
      "address": "경기도 광주시 중앙로 88 1층(역동, 대영빌딩)",
      "contact": "070-8777-0912",
      "lat": "37.4078392",
      "lng": "127.2594954",
      "region": "경기도",
      "district": "광주시"
    },
    {
      "id": 206,
      "name": "컴포즈커피 울산반구점",
      "address": "울산광역시 중구 화합로 431 (반구동)",
      "contact": "052-937-1127",
      "lat": "35.5633531",
      "lng": "129.3364950",
      "region": "울산광역시",
      "district": "중구"
    },
    {
      "id": 207,
      "name": "컴포즈커피 목포옥암한라비발디점",
      "address": "전라남도 목포시 남악2로22번길 10 상가동 102호(옥암동, 한라비발디)",
      "contact": "061-984-0081",
      "lat": "34.8068037",
      "lng": "126.4548319",
      "region": "전라남도",
      "district": "목포시"
    },
    {
      "id": 208,
      "name": "컴포즈커피 안성롯데캐슬점",
      "address": "경기도 안성시 대덕면 서동대로 4723 (신령리)",
      "contact": "070-7798-1353",
      "lat": "37.0131929",
      "lng": "127.2255919",
      "region": "경기도",
      "district": "안성시"
    },
    {
      "id": 209,
      "name": "컴포즈커피 대전선화하늘채점",
      "address": "대전광역시 중구 대종로594번길 51 120호",
      "contact": "042-222-8878",
      "lat": "36.3365144",
      "lng": "127.4195292",
      "region": "대전광역시",
      "district": "중구"
    },
    {
      "id": 210,
      "name": "컴포즈커피 평택세무서점",
      "address": "경기도 평택시 죽백5로 27 105호",
      "contact": "031-654-4135",
      "lat": "37.0038079",
      "lng": "127.1189249",
      "region": "경기도",
      "district": "평택시"
    },
    {
      "id": 211,
      "name": "컴포즈커피 순천대점",
      "address": "전라남도 순천시 중앙로 255 48동 천연물신약연구소 1층(석현동, 순천대학교)",
      "contact": "061-752-2688",
      "lat": "34.9689183",
      "lng": "127.4809015",
      "region": "전라남도",
      "district": "순천시"
    },
    {
      "id": 212,
      "name": "컴포즈커피 대전신성자운대점",
      "address": "대전광역시 유성구 유성대로1184번길 14",
      "contact": "070-8680-1211",
      "lat": "36.3936251",
      "lng": "127.3521899",
      "region": "대전광역시",
      "district": "유성구"
    },
    {
      "id": 213,
      "name": "컴포즈커피 양재영동점",
      "address": "서울특별시 서초구 바우뫼로41길 16",
      "contact": "070-7720-3556",
      "lat": "37.4812690",
      "lng": "127.0413220",
      "region": "서울특별시",
      "district": "서초구"
    },
    {
      "id": 214,
      "name": "컴포즈커피 검단법원광장점",
      "address": "인천광역시 서구 이음4로 10 102호 (검단KR법조타워2)",
      "contact": "032-202-4800",
      "lat": "37.5909337",
      "lng": "126.7104253",
      "region": "인천광역시",
      "district": "서구"
    },
    {
      "id": 215,
      "name": "컴포즈커피 충주호암한신더휴점",
      "address": "충청북도 충주시 호암토성2로 7 (호암동)",
      "contact": "070-8672-9658",
      "lat": "36.9558005",
      "lng": "127.9350097",
      "region": "충청북도",
      "district": "충주시"
    },
    {
      "id": 216,
      "name": "컴포즈커피 동평화시장점",
      "address": "서울특별시 중구 청계천로 318 동평화1층 가동 110-2, 111-2",
      "contact": "02-2231-7567",
      "lat": "37.5693352",
      "lng": "127.0137717",
      "region": "서울특별시",
      "district": "중구"
    },
    {
      "id": 217,
      "name": "컴포즈커피 포천선단대진대점",
      "address": "경기도 포천시 호국로 997 영일빌딩 1층",
      "contact": "070-7537-3650",
      "lat": "37.8540257",
      "lng": "127.1660688",
      "region": "경기도",
      "district": "포천시"
    },
    {
      "id": 218,
      "name": "컴포즈커피 판교원마을점",
      "address": "경기도 성남시 분당구 운중로 239 도메인타워 104호 (판교동)",
      "contact": "070-8211-0653",
      "lat": "37.3898280",
      "lng": "127.0898262",
      "region": "경기도",
      "district": "성남시"
    },
    {
      "id": 219,
      "name": "컴포즈커피 김해시청점",
      "address": "경상남도 김해시 호계로422번길 18-1 (부원동)",
      "contact": "055-724-3901",
      "lat": "35.2282200",
      "lng": "128.8872068",
      "region": "경상남도",
      "district": "김해시"
    },
    {
      "id": 220,
      "name": "컴포즈커피 순천왕지점",
      "address": "전라남도 순천시 왕궁길 43 1층",
      "contact": "061-721-0111",
      "lat": "34.9547700",
      "lng": "127.5320729",
      "region": "전라남도",
      "district": "순천시"
    },
    {
      "id": 221,
      "name": "컴포즈커피 서산해미점",
      "address": "충청남도 서산시 해미면 남문2로 154 1층",
      "contact": null,
      "lat": "36.7104609",
      "lng": "126.5478124",
      "region": "충청남도",
      "district": "서산시"
    },
    {
      "id": 222,
      "name": "컴포즈커피 서울공항점",
      "address": "경기도 성남시 수정구 대왕판교로 1210",
      "contact": null,
      "lat": "37.4380822",
      "lng": "127.1069420",
      "region": "경기도",
      "district": "성남시"
    },
    {
      "id": 223,
      "name": "컴포즈커피 검단모아엘가그랑데점",
      "address": "인천광역시 서구 이음4로 93 2317동 105호",
      "contact": "070-8698-0399",
      "lat": "37.5936810",
      "lng": "126.7192390",
      "region": "인천광역시",
      "district": "서구"
    },
    {
      "id": 224,
      "name": "컴포즈커피 동탄장지점",
      "address": "경기도 화성시 동탄장지천6길 62 1층",
      "contact": "031-375-4529",
      "lat": "37.1579869",
      "lng": "127.1083083",
      "region": "경기도",
      "district": "화성시"
    },
    {
      "id": 225,
      "name": "컴포즈커피 용인모현에듀프라자점",
      "address": "경기도 용인시 처인구 모현읍 백옥대로2476번길 17 애듀프라자 108호",
      "contact": "031-338-8333",
      "lat": "37.3447190",
      "lng": "127.2527614",
      "region": "경기도",
      "district": "용인시"
    },
    {
      "id": 226,
      "name": "컴포즈커피 전남담양매화점",
      "address": "전라남도 담양군 담양읍 매화길 10 1층",
      "contact": "061-383-8111",
      "lat": "35.2984962",
      "lng": "126.9990825",
      "region": "전라남도",
      "district": "담양군"
    },
    {
      "id": 227,
      "name": "컴포즈커피 진해중원로타리점",
      "address": "경상남도 창원시 진해구 백구로 55 1층",
      "contact": "070-4044-7088",
      "lat": "35.1497253",
      "lng": "128.6590013",
      "region": "경상남도",
      "district": "창원시"
    },
    {
      "id": 228,
      "name": "컴포즈커피 평창대관령점",
      "address": "강원특별자치도 평창군 대관령면 대관령로 92 1층",
      "contact": null,
      "lat": "37.6725860",
      "lng": "128.7064341",
      "region": "강원특별자치도",
      "district": "평창군"
    },
    {
      "id": 229,
      "name": "컴포즈커피 동탄더퍼스트타워점",
      "address": "경기도 화성시 동탄기흥로 614 110호",
      "contact": "031-8043-3145",
      "lat": "37.2150877",
      "lng": "127.0949923",
      "region": "경기도",
      "district": "화성시"
    },
    {
      "id": 230,
      "name": "컴포즈커피 광양동부농협로컬푸드점",
      "address": "전라남도 광양시 옥곡면 신금로 110 1층 컴포즈커피",
      "contact": "061-772-7786",
      "lat": "34.9720331",
      "lng": "127.7207921",
      "region": "전라남도",
      "district": "광양시"
    },
    {
      "id": 231,
      "name": "컴포즈커피 진주주약점",
      "address": "경상남도 진주시 진주대로815번길 12-2 1층일부(주약동)",
      "contact": "055-921-4433",
      "lat": "35.1734336",
      "lng": "128.0926825",
      "region": "경상남도",
      "district": "진주시"
    },
    {
      "id": 232,
      "name": "컴포즈커피 광교플렉스데시앙점",
      "address": "경기도 수원시 영통구 창룡대로256번길 50 B1층 L7호",
      "contact": null,
      "lat": "37.2953842",
      "lng": "127.0389645",
      "region": "경기도",
      "district": "수원시"
    },
    {
      "id": 233,
      "name": "컴포즈커피 원주축협본점",
      "address": "강원특별자치도 원주시 원일로 233 (학성동)",
      "contact": null,
      "lat": "37.3565672",
      "lng": "127.9430212",
      "region": "강원특별자치도",
      "district": "원주시"
    },
    {
      "id": 234,
      "name": "컴포즈커피 강원인제점",
      "address": "강원특별자치도 인제군 인제읍 비봉로 28 (상동리)",
      "contact": null,
      "lat": "38.0668528",
      "lng": "128.1734778",
      "region": "강원특별자치도",
      "district": "인제군"
    },
    {
      "id": 235,
      "name": "컴포즈커피 울산미즈병원점",
      "address": "울산광역시 남구 남산로 2 1층",
      "contact": "070-7543-0597",
      "lat": "35.5523152",
      "lng": "129.2709080",
      "region": "울산광역시",
      "district": "남구"
    },
    {
      "id": 236,
      "name": "컴포즈커피 방학동부점",
      "address": "서울특별시 도봉구 도봉로145길 14",
      "contact": "02-6014-3558",
      "lat": "37.6647008",
      "lng": "127.0418014",
      "region": "서울특별시",
      "district": "도봉구"
    },
    {
      "id": 237,
      "name": "컴포즈커피 서울숲한라시그마밸리점",
      "address": "서울특별시 성동구 뚝섬로 385-32 (성수동2가)",
      "contact": "02-462-8911",
      "lat": "37.5393931",
      "lng": "127.0543982",
      "region": "서울특별시",
      "district": "성동구"
    },
    {
      "id": 238,
      "name": "컴포즈커피 광주본촌광신대점",
      "address": "광주광역시 북구 양산택지로 105 1층",
      "contact": null,
      "lat": "35.2151515",
      "lng": "126.8825802",
      "region": "광주광역시",
      "district": "북구"
    },
    {
      "id": 239,
      "name": "컴포즈커피 세종봉암점",
      "address": "세종특별자치시 연서면 당산로 358 1층",
      "contact": "044-866-1043",
      "lat": "36.5633489",
      "lng": "127.2832484",
      "region": "세종특별자치시",
      "district": "연서면"
    },
    {
      "id": 240,
      "name": "컴포즈커피 원주흥업점",
      "address": "강원특별자치도 원주시 흥업면 남원로 80 1층",
      "contact": "033-900-1979",
      "lat": "37.3030862",
      "lng": "127.9203600",
      "region": "강원특별자치도",
      "district": "원주시"
    },
    {
      "id": 241,
      "name": "컴포즈커피 하남풍산점",
      "address": "경기도 하남시 덕풍동로 111 113호",
      "contact": "031-791-0522",
      "lat": "37.5512053",
      "lng": "127.2084564",
      "region": "경기도",
      "district": "하남시"
    },
    {
      "id": 242,
      "name": "컴포즈커피 중구이테크타워점",
      "address": "서울특별시 중구 퇴계로 264 1층",
      "contact": "02-2138-1517",
      "lat": "37.5625592",
      "lng": "127.0010245",
      "region": "서울특별시",
      "district": "중구"
    },
    {
      "id": 243,
      "name": "컴포즈커피 원주송문사거리점",
      "address": "강원특별자치도 원주시 소초면 치악로 2318 1동",
      "contact": "070-8211-0638",
      "lat": "37.3821497",
      "lng": "127.9745313",
      "region": "강원특별자치도",
      "district": "원주시"
    },
    {
      "id": 244,
      "name": "컴포즈커피 광주충장NC점",
      "address": "광주광역시 동구 충장로46번길 15 1층(충장로4가)",
      "contact": "062-222-6058",
      "lat": "35.1493413",
      "lng": "126.9121180",
      "region": "광주광역시",
      "district": "동구"
    },
    {
      "id": 245,
      "name": "컴포즈커피 일산동구청점",
      "address": "경기도 고양시 일산동구 정발산로 47 웅신아트 115호",
      "contact": null,
      "lat": "37.6577626",
      "lng": "126.7737463",
      "region": "경기도",
      "district": "고양시"
    },
    {
      "id": 246,
      "name": "컴포즈커피 전남화순농협하나로마트점",
      "address": "전라남도 화순군 화순읍 쌍충로 74 1층",
      "contact": "061-373-8111",
      "lat": "35.0587937",
      "lng": "126.9822225",
      "region": "전라남도",
      "district": "화순군"
    },
    {
      "id": 247,
      "name": "컴포즈커피 광주유동점",
      "address": "광주광역시 북구 중가로 60 (유동)",
      "contact": "062-515-2209",
      "lat": "35.1590314",
      "lng": "126.9067805",
      "region": "광주광역시",
      "district": "북구"
    },
    {
      "id": 248,
      "name": "컴포즈커피 수원경희대점",
      "address": "경기도 수원시 영통구 영일로6번길 35",
      "contact": "031-202-3287",
      "lat": "37.2483507",
      "lng": "127.0778815",
      "region": "경기도",
      "district": "수원시"
    },
    {
      "id": 249,
      "name": "컴포즈커피 광양중마성호점",
      "address": "전라남도 광양시 광장로 70 아파트상가 빅마트 옆",
      "contact": "061-795-7952",
      "lat": "34.9332431",
      "lng": "127.6906807",
      "region": "전라남도",
      "district": "광양시"
    },
    {
      "id": 250,
      "name": "컴포즈커피 김포고촌행정복지센터점",
      "address": "경기도 김포시 고촌읍 장차로 19",
      "contact": "070-4354-1917",
      "lat": "37.6037472",
      "lng": "126.7705806",
      "region": "경기도",
      "district": "김포시"
    },
    {
      "id": 251,
      "name": "컴포즈커피 마석소방서점",
      "address": "경기도 남양주시 화도읍 수레로1260번길 15 병권빌딩 101호",
      "contact": "031-559-0328",
      "lat": "37.6499705",
      "lng": "127.3035961",
      "region": "경기도",
      "district": "남양주시"
    },
    {
      "id": 252,
      "name": "컴포즈커피 인천검단제일풍경채2차점",
      "address": "인천광역시 서구 고산후로 305 (불로동, 신검단중앙역풍경채어바니티2차)",
      "contact": "070-7543-3457",
      "lat": "37.6119396",
      "lng": "126.6951656",
      "region": "인천광역시",
      "district": "서구"
    },
    {
      "id": 253,
      "name": "컴포즈커피 전주인후부영점",
      "address": "전북특별자치도 전주시 덕진구 무삼지로 43 1층",
      "contact": null,
      "lat": "35.8293946",
      "lng": "127.1638877",
      "region": "전북특별자치도",
      "district": "전주시"
    },
    {
      "id": 254,
      "name": "컴포즈커피 순천신대해룡점",
      "address": "전라남도 순천시 해룡면 신대2길 6-41 1층 110호",
      "contact": "061-902-9244",
      "lat": "34.9356668",
      "lng": "127.5475289",
      "region": "전라남도",
      "district": "순천시"
    },
    {
      "id": 255,
      "name": "컴포즈커피 구의이스트폴점",
      "address": "서울특별시 광진구 아차산로 402 롯데캐슬이스트폴 101동 3호",
      "contact": "02-455-5565",
      "lat": "37.5366969",
      "lng": "127.0878216",
      "region": "서울특별시",
      "district": "광진구"
    },
    {
      "id": 256,
      "name": "컴포즈커피 부천건주병원점",
      "address": "경기도 부천시 소사구 경인로536번길 42 층(괴안동)",
      "contact": "032-349-7779",
      "lat": "37.4841078",
      "lng": "126.8161146",
      "region": "경기도",
      "district": "부천시"
    },
    {
      "id": 257,
      "name": "컴포즈커피 강원태백포레스트애시앙점",
      "address": "강원특별자치도 태백시 고원로 119 상가동 103호",
      "contact": "033-553-3014",
      "lat": "37.1660936",
      "lng": "128.9902747",
      "region": "강원특별자치도",
      "district": "태백시"
    },
    {
      "id": 258,
      "name": "컴포즈커피 구리한양대병원점",
      "address": "경기도 구리시 경춘로 162",
      "contact": "070-8865-0710",
      "lat": "37.6004567",
      "lng": "127.1333308",
      "region": "경기도",
      "district": "구리시"
    },
    {
      "id": 259,
      "name": "컴포즈커피 진주반성점",
      "address": "경상남도 진주시 일반성면 동부로 2004 1층 일부",
      "contact": "055-747-5847",
      "lat": "35.1698242",
      "lng": "128.2807220",
      "region": "경상남도",
      "district": "진주시"
    },
    {
      "id": 260,
      "name": "컴포즈커피 서수원꿈에그린점",
      "address": "경기도 수원시 권선구 서수원로37번길 6-16 (오목천동)",
      "contact": null,
      "lat": "37.2334692",
      "lng": "126.9777013",
      "region": "경기도",
      "district": "수원시"
    },
    {
      "id": 261,
      "name": "컴포즈커피 등촌역점",
      "address": "서울특별시 강서구 공항대로 553 (염창동)",
      "contact": null,
      "lat": "37.5499416",
      "lng": "126.8675493",
      "region": "서울특별시",
      "district": "강서구"
    },
    {
      "id": 262,
      "name": "컴포즈커피 안산고잔보화점",
      "address": "경기도 안산시 단원구 보화로 23",
      "contact": "031-402-5331",
      "lat": "37.3313284",
      "lng": "126.8298392",
      "region": "경기도",
      "district": "안산시"
    },
    {
      "id": 263,
      "name": "컴포즈커피 대구교대점",
      "address": "대구광역시 남구 중앙대로 217",
      "contact": "053-721-7818",
      "lat": "35.8526060",
      "lng": "128.5899836",
      "region": "대구광역시",
      "district": "남구"
    },
    {
      "id": 264,
      "name": "컴포즈커피 군포평생학습원사거리점",
      "address": "경기도 군포시 고산로 251 용호프라자 103호",
      "contact": "031-393-0528",
      "lat": "37.3459308",
      "lng": "126.9440861",
      "region": "경기도",
      "district": "군포시"
    },
    {
      "id": 265,
      "name": "컴포즈커피 김포모담도서관점",
      "address": "경기도 김포시 모담공원로 118 (운양동)",
      "contact": "031-8049-6440",
      "lat": "37.6498493",
      "lng": "126.6917818",
      "region": "경기도",
      "district": "김포시"
    },
    {
      "id": 266,
      "name": "컴포즈커피 부천중동시장점",
      "address": "경기도 부천시 원미구 부흥로 205 1층",
      "contact": "032-213-2112",
      "lat": "37.4961764",
      "lng": "126.7656149",
      "region": "경기도",
      "district": "부천시"
    },
    {
      "id": 267,
      "name": "컴포즈커피 천안안서점",
      "address": "충청남도 천안시 동남구 각원사길 66",
      "contact": "041-622-8879",
      "lat": "36.8305830",
      "lng": "127.1790469",
      "region": "충청남도",
      "district": "천안시"
    },
    {
      "id": 268,
      "name": "컴포즈커피 광주임동한국점",
      "address": "광주광역시 북구 천변우로79번길 89 1층",
      "contact": "062-522-0671",
      "lat": "35.1664767",
      "lng": "126.8914712",
      "region": "광주광역시",
      "district": "북구"
    },
    {
      "id": 269,
      "name": "컴포즈커피 판교봇들마을점",
      "address": "경기도 성남시 분당구 판교로 376 1층 102호",
      "contact": "031-705-6536",
      "lat": "37.4039533",
      "lng": "127.1161822",
      "region": "경기도",
      "district": "성남시"
    },
    {
      "id": 270,
      "name": "컴포즈커피 송우사거리점",
      "address": "경기도 포천시 소흘읍 솔모루로 53",
      "contact": "031-542-5509",
      "lat": "37.8271142",
      "lng": "127.1445439",
      "region": "경기도",
      "district": "포천시"
    },
    {
      "id": 271,
      "name": "컴포즈커피 오류ic점",
      "address": "서울특별시 구로구 경인로 240 (오류동, 예성라온팰리스)",
      "contact": "02-2060-2016",
      "lat": "37.4974382",
      "lng": "126.8472908",
      "region": "서울특별시",
      "district": "구로구"
    },
    {
      "id": 272,
      "name": "컴포즈커피 시흥길산지식산업센터점",
      "address": "경기도 시흥시 경기과기대로 219 105호",
      "contact": "031-498-3117",
      "lat": "37.3344900",
      "lng": "126.7325859",
      "region": "경기도",
      "district": "시흥시"
    },
    {
      "id": 273,
      "name": "컴포즈커피 대구범물점",
      "address": "대구광역시 수성구 용학로 272 (범물동, 범물창신태성한라맨션)",
      "contact": "053-781-3535",
      "lat": "35.8192543",
      "lng": "128.6386547",
      "region": "대구광역시",
      "district": "수성구"
    },
    {
      "id": 274,
      "name": "컴포즈커피 전주소양천점",
      "address": "전북특별자치도 전주시 덕진구 초포다리로 190 1층",
      "contact": "063-251-5859",
      "lat": "35.8726590",
      "lng": "127.1575149",
      "region": "전북특별자치도",
      "district": "전주시"
    },
    {
      "id": 275,
      "name": "컴포즈커피 신경주역점",
      "address": "경상북도 경주시 건천읍 경주역세권1로 90 (화천리, 신경주 유보라아이비파크 1단지)",
      "contact": null,
      "lat": "35.8054906",
      "lng": "129.1401921",
      "region": "경상북도",
      "district": "경주시"
    },
    {
      "id": 276,
      "name": "컴포즈커피 충주연수예성로점",
      "address": "충청북도 충주시 예성로 398",
      "contact": null,
      "lat": "36.9918021",
      "lng": "127.9343217",
      "region": "충청북도",
      "district": "충주시"
    },
    {
      "id": 277,
      "name": "컴포즈커피 당진석문점",
      "address": "충청남도 당진시 석문면 해명4로1길 40",
      "contact": "041-430-7726",
      "lat": "36.9785652",
      "lng": "126.5895109",
      "region": "충청남도",
      "district": "당진시"
    },
    {
      "id": 278,
      "name": "컴포즈커피 광주신가풍영리버빌점",
      "address": "광주광역시 광산구 수등로 287 상가동 1층 114호(신창동, 신가부영아파트)",
      "contact": "062-456-0603",
      "lat": "35.1870303",
      "lng": "126.8393036",
      "region": "광주광역시",
      "district": "광산구"
    },
    {
      "id": 279,
      "name": "컴포즈커피 완주삼봉지구점",
      "address": "전북특별자치도 완주군 삼례읍 상탁길 47 1층",
      "contact": "063-206-2060",
      "lat": "35.9191560",
      "lng": "127.1176386",
      "region": "전북특별자치도",
      "district": "완주군"
    },
    {
      "id": 280,
      "name": "컴포즈커피 광주도산점",
      "address": "광주광역시 광산구 도산로 10 1층 103, 104호",
      "contact": "062-457-5669",
      "lat": "35.1291753",
      "lng": "126.7917393",
      "region": "광주광역시",
      "district": "광산구"
    },
    {
      "id": 281,
      "name": "컴포즈커피 인천루원시티SK2차점",
      "address": "인천광역시 서구 봉오대로 270 302동 B204호",
      "contact": null,
      "lat": "37.5235973",
      "lng": "126.6819632",
      "region": "인천광역시",
      "district": "서구"
    },
    {
      "id": 282,
      "name": "컴포즈커피 일산장항로점",
      "address": "경기도 고양시 일산동구 장항로 273",
      "contact": null,
      "lat": "37.6422822",
      "lng": "126.7692747",
      "region": "경기도",
      "district": "고양시"
    },
    {
      "id": 283,
      "name": "컴포즈커피 화명하늘채후문점",
      "address": "부산광역시 북구 화명신도시로 70 상가1동 1층 106호(화명동, 코오롱하늘채1차아파트)",
      "contact": null,
      "lat": "35.2304251",
      "lng": "129.0115390",
      "region": "부산광역시",
      "district": "북구"
    },
    {
      "id": 284,
      "name": "컴포즈커피 삼성전자천안캠퍼스점",
      "address": "충청남도 천안시 서북구 번영로 465 (성성동, 삼성전자(주)천안캠퍼스)",
      "contact": null,
      "lat": "36.8417602",
      "lng": "127.1188281",
      "region": "충청남도",
      "district": "천안시"
    },
    {
      "id": 285,
      "name": "컴포즈커피 월미짱랜드점",
      "address": "인천광역시 중구 월미문화로 81 랜드마크 1층",
      "contact": null,
      "lat": "37.4713720",
      "lng": "126.5963911",
      "region": "인천광역시",
      "district": "중구"
    },
    {
      "id": 286,
      "name": "컴포즈커피 청라제일풍경채점",
      "address": "인천광역시 서구 청라커낼로 321 104호105호",
      "contact": "032-583-1000",
      "lat": "37.5372142",
      "lng": "126.6444001",
      "region": "인천광역시",
      "district": "서구"
    },
    {
      "id": 287,
      "name": "컴포즈커피 안산사동중앙점",
      "address": "경기도 안산시 상록구 석호로 208 범희빌딩 103호",
      "contact": "031-407-7666",
      "lat": "37.2946736",
      "lng": "126.8537673",
      "region": "경기도",
      "district": "안산시"
    },
    {
      "id": 288,
      "name": "컴포즈커피 부산대역2번출구점",
      "address": "부산광역시 금정구 부곡온천천로 32 1층",
      "contact": null,
      "lat": "35.2290338",
      "lng": "129.0898648",
      "region": "부산광역시",
      "district": "금정구"
    },
    {
      "id": 289,
      "name": "컴포즈커피 대구칠곡매천점",
      "address": "대구광역시 북구 매전로 80 1층 103호(태전동)",
      "contact": "053-326-3335",
      "lat": "35.9128522",
      "lng": "128.5468571",
      "region": "대구광역시",
      "district": "북구"
    },
    {
      "id": 290,
      "name": "컴포즈커피 강원화천터미널점",
      "address": "강원특별자치도 화천군 화천읍 중앙로 13-1 (하리, 이삭토스트외)",
      "contact": "033-442-3331",
      "lat": "38.1046473",
      "lng": "127.7058519",
      "region": "강원특별자치도",
      "district": "화천군"
    },
    {
      "id": 291,
      "name": "컴포즈커피 강원횡성운동장점",
      "address": "강원특별자치도 횡성군 횡성읍 문화체육로 31 (읍하리)",
      "contact": "033-342-0400",
      "lat": "37.4957539",
      "lng": "127.9858192",
      "region": "강원특별자치도",
      "district": "횡성군"
    },
    {
      "id": 292,
      "name": "컴포즈커피 평택더샵센트럴점",
      "address": "경기도 평택시 동삭1로22번길 19-17 102호",
      "contact": "031-658-2829",
      "lat": "37.0206347",
      "lng": "127.0930221",
      "region": "경기도",
      "district": "평택시"
    },
    {
      "id": 293,
      "name": "컴포즈커피 공릉태릉사거리점",
      "address": "서울특별시 노원구 공릉로 98",
      "contact": null,
      "lat": "37.6191946",
      "lng": "127.0784600",
      "region": "서울특별시",
      "district": "노원구"
    },
    {
      "id": 294,
      "name": "컴포즈커피 광주선운어등진아점",
      "address": "광주광역시 광산구 선운중앙로 82 상가동 1층 130호, 104호(선암동)",
      "contact": null,
      "lat": "35.1455087",
      "lng": "126.7833959",
      "region": "광주광역시",
      "district": "광산구"
    },
    {
      "id": 295,
      "name": "컴포즈커피 대구신매역점",
      "address": "대구광역시 수성구 고산로 90 상가동 1층 103호",
      "contact": null,
      "lat": "35.8384791",
      "lng": "128.7053986",
      "region": "대구광역시",
      "district": "수성구"
    },
    {
      "id": 296,
      "name": "컴포즈커피 횡성새말IC점",
      "address": "강원특별자치도 횡성군 우천면 한우로 1400 (우항리)",
      "contact": "033-343-2333",
      "lat": "37.4495598",
      "lng": "128.0738757",
      "region": "강원특별자치도",
      "district": "횡성군"
    },
    {
      "id": 297,
      "name": "컴포즈커피 익산배산점",
      "address": "전북특별자치도 익산시 선화로 17 117동 104호(모현동2가, 배산오투그란데)",
      "contact": "063-852-2525",
      "lat": "35.9527504",
      "lng": "126.9339934",
      "region": "전북특별자치도",
      "district": "익산시"
    },
    {
      "id": 298,
      "name": "컴포즈커피 대전한밭수목원만년점",
      "address": "대전광역시 서구 만년로67번길 34-26 대전서구 만년동 316",
      "contact": "8:00 - 251:00",
      "lat": "36.3687353",
      "lng": "127.3816131",
      "region": "대전광역시",
      "district": "서구"
    },
    {
      "id": 299,
      "name": "컴포즈커피 서울세관사거리점",
      "address": "서울특별시 강남구 학동로 235 (논현동)",
      "contact": "02-514-2282",
      "lat": "37.5156050",
      "lng": "127.0350255",
      "region": "서울특별시",
      "district": "강남구"
    },
    {
      "id": 300,
      "name": "컴포즈커피 오산칸타빌더퍼스트점",
      "address": "경기도 오산시 초평중앙로 140 1층 106호",
      "contact": "031-372-1990",
      "lat": "37.1432573",
      "lng": "127.0482346",
      "region": "경기도",
      "district": "오산시"
    },
    {
      "id": 301,
      "name": "컴포즈커피 용인신갈역점",
      "address": "경기도 용인시 기흥구 새천년로 22 101호",
      "contact": "031-3061-2820",
      "lat": "37.2890943",
      "lng": "127.1116464",
      "region": "경기도",
      "district": "용인시"
    },
    {
      "id": 302,
      "name": "컴포즈커피 삼성전자화성(17L)점",
      "address": "경기도 화성시 삼성전자로 1 삼성전자 내 (123)S3동 1층 일부호(반월동)",
      "contact": null,
      "lat": "37.2234547",
      "lng": "127.0633657",
      "region": "경기도",
      "district": "화성시"
    },
    {
      "id": 303,
      "name": "컴포즈커피 옥정제일풍경채점",
      "address": "경기도 양주시 옥정동로 187 107호 - 연락처 : 070-7857-8801",
      "contact": "070-7857-8801",
      "lat": "37.8236418",
      "lng": "127.0986631",
      "region": "경기도",
      "district": "양주시"
    },
    {
      "id": 304,
      "name": "컴포즈커피 충북보은점",
      "address": "충청북도 보은군 보은읍 보은로 107 (삼산리)",
      "contact": null,
      "lat": "36.4837504",
      "lng": "127.7177493",
      "region": "충청북도",
      "district": "보은군"
    },
    {
      "id": 305,
      "name": "컴포즈커피 광주신가선창초교점",
      "address": "광주광역시 광산구 신창로35번길 97 1층",
      "contact": "062-961-1155",
      "lat": "35.1865880",
      "lng": "126.8342690",
      "region": "광주광역시",
      "district": "광산구"
    },
    {
      "id": 306,
      "name": "컴포즈커피 부산북부면허시험장점",
      "address": "부산광역시 사상구 사상로367번길 42 1층",
      "contact": "051-711-7177",
      "lat": "35.1780352",
      "lng": "128.9819369",
      "region": "부산광역시",
      "district": "사상구"
    },
    {
      "id": 307,
      "name": "컴포즈커피 울산삼산디자인거리점",
      "address": "울산광역시 남구 삼산중로74번길 6 1층 106호",
      "contact": "052-256-2977",
      "lat": "35.5401422",
      "lng": "129.3363058",
      "region": "울산광역시",
      "district": "남구"
    },
    {
      "id": 308,
      "name": "컴포즈커피 분당느티마을점",
      "address": "경기도 성남시 분당구 느티로51번길 4-13",
      "contact": "070-8211-0494",
      "lat": "37.3690968",
      "lng": "127.1113283",
      "region": "경기도",
      "district": "성남시"
    },
    {
      "id": 309,
      "name": "컴포즈커피 당진신평점",
      "address": "충청남도 당진시 신평면 덕평로 1384 (거산리, 김밥마을)",
      "contact": "041-363-8355",
      "lat": "36.8783092",
      "lng": "126.7526105",
      "region": "충청남도",
      "district": "당진시"
    },
    {
      "id": 310,
      "name": "컴포즈커피 충북광혜원점",
      "address": "충청북도 진천군 광혜원면 중리3길 21 (광혜원리, 옥산빌딩)",
      "contact": "043-534-0324",
      "lat": "36.9894846",
      "lng": "127.4439339",
      "region": "충청북도",
      "district": "진천군"
    },
    {
      "id": 311,
      "name": "컴포즈커피 용인초당점",
      "address": "경기도 용인시 기흥구 동백중앙로 55 (중동)",
      "contact": "103호",
      "lat": "37.2611771",
      "lng": "127.1618699",
      "region": "경기도",
      "district": "용인시"
    },
    {
      "id": 312,
      "name": "컴포즈커피 화성반월SK뷰파크1차점",
      "address": "경기도 화성시 동탄원천로 382-37 SK뷰파크 제상가2동(후문 상가동) 저1층 제112호",
      "contact": "031-222-3007",
      "lat": "37.2229184",
      "lng": "127.0566745",
      "region": "경기도",
      "district": "화성시"
    },
    {
      "id": 313,
      "name": "컴포즈커피 일산공단중앙점",
      "address": "경기도 고양시 일산동구 장항로 187 (장항동)",
      "contact": null,
      "lat": "37.6386867",
      "lng": "126.7776797",
      "region": "경기도",
      "district": "고양시"
    },
    {
      "id": 314,
      "name": "컴포즈커피 동탄대방디에트르점",
      "address": "경기도 화성시 동탄오산로 29 (동탄2 택지개발지구 업무복합2블록) 동탄2신도시 동탄역 디에트르 더 플레이스 마당 판매시설 D동 123호(오산동)",
      "contact": "031-374-1201",
      "lat": "37.1993238",
      "lng": "127.0901895",
      "region": "경기도",
      "district": "화성시"
    },
    {
      "id": 315,
      "name": "컴포즈커피 속초법대로점",
      "address": "강원특별자치도 속초시 법대로 20 (동명동, 인트레빌하버뷰)",
      "contact": "033-633-7936",
      "lat": "38.2126133",
      "lng": "128.5933036",
      "region": "강원특별자치도",
      "district": "속초시"
    },
    {
      "id": 316,
      "name": "컴포즈커피 양평물맑은시장점",
      "address": "경기도 양평군 양평읍 양평시장길 4-1 17",
      "contact": "031-772-2883",
      "lat": "37.4897280",
      "lng": "127.4927895",
      "region": "경기도",
      "district": "양평군"
    },
    {
      "id": 317,
      "name": "컴포즈커피 화성사강시장점",
      "address": "경기도 화성시 송산면 사강로 201 B동",
      "contact": "070-4353-7176",
      "lat": "37.2134572",
      "lng": "126.7380583",
      "region": "경기도",
      "district": "화성시"
    },
    {
      "id": 318,
      "name": "컴포즈커피 천안불당호반점",
      "address": "충청남도 천안시 서북구 불당34길 25-6 106호",
      "contact": "041-622-9238",
      "lat": "36.8075980",
      "lng": "127.1056206",
      "region": "충청남도",
      "district": "천안시"
    },
    {
      "id": 319,
      "name": "컴포즈커피 진해석동먹자골목점",
      "address": "경상남도 창원시 진해구 냉천로 45 1층",
      "contact": null,
      "lat": "35.1514542",
      "lng": "128.7022747",
      "region": "경상남도",
      "district": "창원시"
    },
    {
      "id": 320,
      "name": "컴포즈커피 천안신부점",
      "address": "충청남도 천안시 동남구 터미널2로 25",
      "contact": "041-903-5939",
      "lat": "36.8212241",
      "lng": "127.1580123",
      "region": "충청남도",
      "district": "천안시"
    },
    {
      "id": 321,
      "name": "컴포즈커피 전주대신정문점",
      "address": "전북특별자치도 전주시 완산구 봉곡1길 1 (효자동3가)",
      "contact": "063-903-5717",
      "lat": "35.8133815",
      "lng": "127.0971856",
      "region": "전북특별자치도",
      "district": "전주시"
    },
    {
      "id": 322,
      "name": "컴포즈커피 방학역점",
      "address": "서울특별시 도봉구 도봉로150길 27 (방학동)",
      "contact": null,
      "lat": "37.6661840",
      "lng": "127.0447629",
      "region": "서울특별시",
      "district": "도봉구"
    },
    {
      "id": 323,
      "name": "컴포즈커피 파주역점",
      "address": "경기도 파주시 파주읍 주라위길 78",
      "contact": "031-952-7760",
      "lat": "37.8152628",
      "lng": "126.7953616",
      "region": "경기도",
      "district": "파주시"
    },
    {
      "id": 324,
      "name": "컴포즈커피 시흥월곶풍림점",
      "address": "경기도 시흥시 월곶중앙로70번길 3 (월곶동, 진주마을 풍림1차 아이원 단지내 상가동)",
      "contact": "070-4647-2633",
      "lat": "37.3894538",
      "lng": "126.7380123",
      "region": "경기도",
      "district": "시흥시"
    },
    {
      "id": 325,
      "name": "컴포즈커피 상도e편한세상점",
      "address": "서울특별시 동작구 만양로 6 1층 110호",
      "contact": "02-6368-5029",
      "lat": "37.5050223",
      "lng": "126.9475492",
      "region": "서울특별시",
      "district": "동작구"
    },
    {
      "id": 326,
      "name": "컴포즈커피 서초방배로점",
      "address": "서울특별시 서초구 방배로 113 (방배동, 수정빌딩)",
      "contact": null,
      "lat": "37.4841847",
      "lng": "126.9956303",
      "region": "서울특별시",
      "district": "서초구"
    },
    {
      "id": 327,
      "name": "컴포즈커피 광주용봉택지로점",
      "address": "광주광역시 북구 설죽로 207 1층(용봉동)",
      "contact": "062-513-8111",
      "lat": "35.1781840",
      "lng": "126.8971918",
      "region": "광주광역시",
      "district": "북구"
    },
    {
      "id": 328,
      "name": "컴포즈커피 고양대곡역롯데캐슬점",
      "address": "경기도 고양시 덕양구 토당로 124 287-1 근린생활시설",
      "contact": "031-972-1237",
      "lat": "37.6260069",
      "lng": "126.8178951",
      "region": "경기도",
      "district": "고양시"
    },
    {
      "id": 329,
      "name": "컴포즈커피 김해구산푸르지오점",
      "address": "경상남도 김해시 삼계로 30 111호(구산동, 탑스존)",
      "contact": "055-724-0320",
      "lat": "35.2570889",
      "lng": "128.8695448",
      "region": "경상남도",
      "district": "김해시"
    },
    {
      "id": 330,
      "name": "컴포즈커피 용인성복역아이파크점",
      "address": "경기도 용인시 수지구 상현로 144 (상현동, 성복역 아이파크)",
      "contact": "031-303-9877",
      "lat": "37.3098551",
      "lng": "127.0848337",
      "region": "경기도",
      "district": "용인시"
    },
    {
      "id": 331,
      "name": "컴포즈커피 고양서오릉점",
      "address": "경기도 고양시 덕양구 서오릉로 293 (용두동)",
      "contact": null,
      "lat": "37.6194503",
      "lng": "126.9043788",
      "region": "경기도",
      "district": "고양시"
    },
    {
      "id": 332,
      "name": "컴포즈커피 월계인덕대점",
      "address": "서울특별시 노원구 초안산로2라길 26 102-1호",
      "contact": null,
      "lat": "37.6305211",
      "lng": "127.0576337",
      "region": "서울특별시",
      "district": "노원구"
    },
    {
      "id": 333,
      "name": "컴포즈커피 대전통합청사점",
      "address": "대전광역시 중구 대종로517번길 61 1층 105호",
      "contact": "042-224-8884",
      "lat": "36.3284186",
      "lng": "127.4212605",
      "region": "대전광역시",
      "district": "중구"
    },
    {
      "id": 334,
      "name": "컴포즈커피 전남장성나노산단점",
      "address": "전라남도 장성군 남면 나노산단5로 15 (삼태리)",
      "contact": null,
      "lat": "35.2368813",
      "lng": "126.8331525",
      "region": "전라남도",
      "district": "장성군"
    },
    {
      "id": 335,
      "name": "컴포즈커피 청주분평농협사거리점",
      "address": "충청북도 청주시 서원구 월평로 4",
      "contact": null,
      "lat": "36.6110003",
      "lng": "127.4853065",
      "region": "충청북도",
      "district": "청주시"
    },
    {
      "id": 336,
      "name": "컴포즈커피 한성대입구역점",
      "address": "서울특별시 성북구 삼선교로 4 1층",
      "contact": "07:30 - 22:30",
      "lat": "37.5880068",
      "lng": "127.0064308",
      "region": "서울특별시",
      "district": "성북구"
    },
    {
      "id": 337,
      "name": "컴포즈커피 양주광적점",
      "address": "경기도 양주시 광적면 가래비길 118 (가납리)",
      "contact": "031-829-2270",
      "lat": "37.8253801",
      "lng": "126.9841488",
      "region": "경기도",
      "district": "양주시"
    },
    {
      "id": 338,
      "name": "컴포즈커피 진주정촌점",
      "address": "경상남도 진주시 정촌면 화개천로 126 1층",
      "contact": "070-8199-1117",
      "lat": "35.1281330",
      "lng": "128.1039151",
      "region": "경상남도",
      "district": "진주시"
    },
    {
      "id": 339,
      "name": "컴포즈커피 김해주촌공단점",
      "address": "경상남도 김해시 주촌면 골든루트로 193-26 (망덕리)",
      "contact": "070-8770-2067",
      "lat": "35.2225214",
      "lng": "128.8236161",
      "region": "경상남도",
      "district": "김해시"
    },
    {
      "id": 340,
      "name": "컴포즈커피 전북고창월곡점",
      "address": "전북특별자치도 고창군 고창읍 중앙로 316 (교촌리)",
      "contact": "063-563-6111",
      "lat": "35.4346902",
      "lng": "126.7100558",
      "region": "전북특별자치도",
      "district": "고창군"
    },
    {
      "id": 341,
      "name": "컴포즈커피 청주율량현대점",
      "address": "충청북도 청주시 청원구 주성로132번길 28-2 (율량동)",
      "contact": null,
      "lat": "36.6694398",
      "lng": "127.4819265",
      "region": "충청북도",
      "district": "청주시"
    },
    {
      "id": 342,
      "name": "컴포즈커피 순천신대로점",
      "address": "전라남도 순천시 해룡면 상성길 324 가동 1층",
      "contact": "061-721-5111",
      "lat": "34.9439076",
      "lng": "127.5394519",
      "region": "전라남도",
      "district": "순천시"
    },
    {
      "id": 343,
      "name": "컴포즈커피 좌동점",
      "address": "부산광역시 해운대구 좌동순환로 174 106호",
      "contact": "051-711-3528",
      "lat": "35.1776265",
      "lng": "129.1750479",
      "region": "부산광역시",
      "district": "해운대구"
    },
    {
      "id": 344,
      "name": "컴포즈커피 대전둔산자이파크점",
      "address": "대전광역시 서구 계룡로500번길 72 (갈마동)",
      "contact": "042-348-7788",
      "lat": "36.3417466",
      "lng": "127.3778365",
      "region": "대전광역시",
      "district": "서구"
    },
    {
      "id": 345,
      "name": "컴포즈커피 용호시장점",
      "address": "부산광역시 남구 용호로 173 (용호동, 장안빌딩)",
      "contact": "051-916-7142",
      "lat": "35.1167725",
      "lng": "129.1114258",
      "region": "부산광역시",
      "district": "남구"
    },
    {
      "id": 346,
      "name": "컴포즈커피 평택지제점",
      "address": "경기도 평택시 지제동삭1로 41 근생 130동 18호",
      "contact": "070-8211-0579",
      "lat": "37.0229222",
      "lng": "127.0755031",
      "region": "경기도",
      "district": "평택시"
    },
    {
      "id": 347,
      "name": "컴포즈커피 강릉회산점",
      "address": "강원특별자치도 강릉시 회산로 346 115동 101~102호",
      "contact": null,
      "lat": "37.7393206",
      "lng": "128.8662079",
      "region": "강원특별자치도",
      "district": "강릉시"
    },
    {
      "id": 348,
      "name": "컴포즈커피 천안터미널점",
      "address": "충청남도 천안시 동남구 만남로 18",
      "contact": "070-8648-3447",
      "lat": "36.8184252",
      "lng": "127.1540122",
      "region": "충청남도",
      "district": "천안시"
    },
    {
      "id": 349,
      "name": "컴포즈커피 목포이로초등학교점",
      "address": "전라남도 목포시 이로로9번길 16 (용해동)",
      "contact": "061-273-6532",
      "lat": "34.8036134",
      "lng": "126.4062969",
      "region": "전라남도",
      "district": "목포시"
    },
    {
      "id": 350,
      "name": "컴포즈커피 나주금천농협빛가람점",
      "address": "전라남도 나주시 중야2길 24 (빛가람동)",
      "contact": "061-333-5554",
      "lat": "35.0169427",
      "lng": "126.7851553",
      "region": "전라남도",
      "district": "나주시"
    },
    {
      "id": 351,
      "name": "컴포즈커피 양산북부점",
      "address": "경상남도 양산시 중앙우회로 142 1층 일부호",
      "contact": "055-388-0010",
      "lat": "35.3482332",
      "lng": "129.0388656",
      "region": "경상남도",
      "district": "양산시"
    },
    {
      "id": 352,
      "name": "컴포즈커피 대전용산호반써밋점",
      "address": "대전광역시 유성구 배울1로 132 108호",
      "contact": null,
      "lat": "36.4164144",
      "lng": "127.3940211",
      "region": "대전광역시",
      "district": "유성구"
    },
    {
      "id": 353,
      "name": "컴포즈커피 창원대산점",
      "address": "경상남도 창원시 의창구 대산면 진산대로 360 주건축물제1동 1층 일부호",
      "contact": null,
      "lat": "35.3320294",
      "lng": "128.7094371",
      "region": "경상남도",
      "district": "창원시"
    },
    {
      "id": 354,
      "name": "컴포즈커피 양산사송내송점",
      "address": "경상남도 양산시 동면 내송큰들로 73 상가동 412호(사송더샵데시앙 4단지)",
      "contact": "055-785-1232",
      "lat": "35.3215423",
      "lng": "129.0700947",
      "region": "경상남도",
      "district": "양산시"
    },
    {
      "id": 355,
      "name": "컴포즈커피 봉천제일종합시장점",
      "address": "서울특별시 관악구 남부순환로 1768 1층",
      "contact": "070-8866-6765",
      "lat": "37.4816723",
      "lng": "126.9463737",
      "region": "서울특별시",
      "district": "관악구"
    },
    {
      "id": 356,
      "name": "컴포즈커피 서산테크노밸리점",
      "address": "충청남도 서산시 성연면 성연3로 36 (왕정리, 이안 서산테크노밸리)",
      "contact": "041-429-2200",
      "lat": "36.8236553",
      "lng": "126.4517712",
      "region": "충청남도",
      "district": "서산시"
    },
    {
      "id": 357,
      "name": "컴포즈커피 대구만촌역점",
      "address": "대구광역시 수성구 달구벌대로 2565 1층 103호(만촌동)",
      "contact": null,
      "lat": "35.8592574",
      "lng": "128.6432932",
      "region": "대구광역시",
      "district": "수성구"
    },
    {
      "id": 358,
      "name": "컴포즈커피 대구만촌역점",
      "address": "대구광역시 수성구 달구벌대로 2565 1층 103호",
      "contact": null,
      "lat": "35.8592574",
      "lng": "128.6432932",
      "region": "대구광역시",
      "district": "수성구"
    },
    {
      "id": 359,
      "name": "컴포즈커피 광주백운대성초교점",
      "address": "광주광역시 남구 제중로 136 1층",
      "contact": "062-676-4089",
      "lat": "35.1430653",
      "lng": "126.9068672",
      "region": "광주광역시",
      "district": "남구"
    },
    {
      "id": 360,
      "name": "컴포즈커피 개봉현대아파트점",
      "address": "서울특별시 구로구 개봉로20길 78 1층",
      "contact": "02-6012-3955",
      "lat": "37.4932678",
      "lng": "126.8587060",
      "region": "서울특별시",
      "district": "구로구"
    },
    {
      "id": 361,
      "name": "컴포즈커피 동국대학교정보문화관점",
      "address": "서울특별시 중구 필동로1길 30 (필동3가, 동국대학교)",
      "contact": null,
      "lat": "37.5582582",
      "lng": "127.0001869",
      "region": "서울특별시",
      "district": "중구"
    },
    {
      "id": 362,
      "name": "컴포즈커피 전남해남터미널점",
      "address": "전라남도 해남군 해남읍 중앙1로 2-10 1층 102호",
      "contact": "061-958-9831",
      "lat": "34.5716179",
      "lng": "126.6076785",
      "region": "전라남도",
      "district": "해남군"
    },
    {
      "id": 363,
      "name": "컴포즈커피 대전복합터미널점",
      "address": "대전광역시 동구 동서대로 1679 (용전동)",
      "contact": "042-624-1110",
      "lat": "36.3493808",
      "lng": "127.4360494",
      "region": "대전광역시",
      "district": "동구"
    },
    {
      "id": 364,
      "name": "컴포즈커피 광주효덕로점",
      "address": "광주광역시 남구 효덕로 213 1층 103호",
      "contact": "062-681-7000",
      "lat": "35.1027964",
      "lng": "126.8983477",
      "region": "광주광역시",
      "district": "남구"
    },
    {
      "id": 365,
      "name": "컴포즈커피 봉화산역점",
      "address": "서울특별시 중랑구 신내로 211 144호",
      "contact": "070-7798-1988",
      "lat": "37.6163597",
      "lng": "127.0927002",
      "region": "서울특별시",
      "district": "중랑구"
    },
    {
      "id": 366,
      "name": "컴포즈커피 대구검단점",
      "address": "대구광역시 북구 검단로 135 104동 116호 (검단팩토리밸리)",
      "contact": "070-8648-1287",
      "lat": "35.9091873",
      "lng": "128.6220335",
      "region": "대구광역시",
      "district": "북구"
    },
    {
      "id": 367,
      "name": "컴포즈커피 대전도마호반점",
      "address": "대전광역시 서구 도산로 65 (도마동)",
      "contact": "042-525-0426",
      "lat": "36.3143947",
      "lng": "127.3783811",
      "region": "대전광역시",
      "district": "서구"
    },
    {
      "id": 368,
      "name": "컴포즈커피 정읍중앙로점",
      "address": "전북특별자치도 정읍시 조곡천1길 62 (시기동, 동경이야기)",
      "contact": "063-537-7550",
      "lat": "35.5670115",
      "lng": "126.8512089",
      "region": "전북특별자치도",
      "district": "정읍시"
    },
    {
      "id": 369,
      "name": "컴포즈커피 익산부송라온점",
      "address": "전북특별자치도 익산시 마한로 203 (부송동)",
      "contact": "063-831-5685",
      "lat": "35.9663990",
      "lng": "126.9859075",
      "region": "전북특별자치도",
      "district": "익산시"
    },
    {
      "id": 370,
      "name": "컴포즈커피 창원상남한마음병원점",
      "address": "경상남도 창원시 성산구 원이대로682번길 21 1층",
      "contact": "055-268-7879",
      "lat": "35.2208644",
      "lng": "128.6872100",
      "region": "경상남도",
      "district": "창원시"
    },
    {
      "id": 371,
      "name": "컴포즈커피 광주일곡마을로점",
      "address": "광주광역시 북구 일곡마을로 9 1층",
      "contact": "070-7525-8100",
      "lat": "35.2060864",
      "lng": "126.9001637",
      "region": "광주광역시",
      "district": "북구"
    },
    {
      "id": 372,
      "name": "컴포즈커피 군산조촌더샵점",
      "address": "전북특별자치도 군산시 궁포1로 79 104호",
      "contact": "063-442-6622",
      "lat": "35.9794574",
      "lng": "126.7460308",
      "region": "전북특별자치도",
      "district": "군산시"
    },
    {
      "id": 373,
      "name": "컴포즈커피 수원화서역점",
      "address": "경기도 수원시 팔달구 덕영대로697번길 7 아트프라자 101호",
      "contact": "070-4415-9515",
      "lat": "37.2848940",
      "lng": "126.9905473",
      "region": "경기도",
      "district": "수원시"
    },
    {
      "id": 374,
      "name": "컴포즈커피 인천구월정각사거리점",
      "address": "인천광역시 남동구 구월로 223 위너스프라자 101호",
      "contact": "032-465-4504",
      "lat": "37.4564911",
      "lng": "126.7157168",
      "region": "인천광역시",
      "district": "남동구"
    },
    {
      "id": 375,
      "name": "컴포즈커피 평강역우창점",
      "address": "부산광역시 강서구 대저중앙로 7 나동 1층 일부(대저1동)",
      "contact": "051-831-0365",
      "lat": "35.2149287",
      "lng": "128.9499557",
      "region": "부산광역시",
      "district": "강서구"
    },
    {
      "id": 376,
      "name": "컴포즈커피 잠실역사점",
      "address": "서울특별시 송파구 올림픽로 지하 265 5번출구 라인 B-20",
      "contact": null,
      "lat": "37.5131513",
      "lng": "127.0988333",
      "region": "서울특별시",
      "district": "송파구"
    },
    {
      "id": 377,
      "name": "컴포즈커피 기흥삼성반도체점",
      "address": "경기도 화성시 삼성1로6길 27",
      "contact": null,
      "lat": "37.2280748",
      "lng": "127.0739092",
      "region": "경기도",
      "district": "화성시"
    },
    {
      "id": 378,
      "name": "컴포즈커피 새벽시장로점",
      "address": "부산광역시 사상구 새벽시장로 25 1층 컴포즈커피",
      "contact": "051-913-5420",
      "lat": "35.1559440",
      "lng": "128.9768726",
      "region": "부산광역시",
      "district": "사상구"
    },
    {
      "id": 379,
      "name": "컴포즈커피 부천카톨릭대점",
      "address": "경기도 부천시 원미구 부일로685번길 33 A동 101호",
      "contact": null,
      "lat": "37.4857046",
      "lng": "126.8052703",
      "region": "경기도",
      "district": "부천시"
    },
    {
      "id": 380,
      "name": "컴포즈커피 금산추부점",
      "address": "충청남도 금산군 추부면 하마전로 35",
      "contact": "070-7576-4959",
      "lat": "36.1908981",
      "lng": "127.4707459",
      "region": "충청남도",
      "district": "금산군"
    },
    {
      "id": 381,
      "name": "컴포즈커피 용인상갈점",
      "address": "경기도 용인시 기흥구 금화로 101 (상갈동, 그린빌프라자)",
      "contact": "031-287-7579",
      "lat": "37.2661956",
      "lng": "127.1069534",
      "region": "경기도",
      "district": "용인시"
    },
    {
      "id": 382,
      "name": "컴포즈커피 울산세양청구점",
      "address": "울산광역시 남구 남중로126번길 5 1층",
      "contact": "052-274-6048",
      "lat": "35.5456486",
      "lng": "129.3490213",
      "region": "울산광역시",
      "district": "남구"
    },
    {
      "id": 383,
      "name": "컴포즈커피 광주봉선중앙로점",
      "address": "광주광역시 남구 대남대로159번길 24 A동 1층 104,105호",
      "contact": "062-673-6854",
      "lat": "35.1315057",
      "lng": "126.9072542",
      "region": "광주광역시",
      "district": "남구"
    },
    {
      "id": 384,
      "name": "컴포즈커피 서귀포화순점",
      "address": "제주특별자치도 서귀포시 안덕면 화순로 151 (화순리)",
      "contact": "010-2737-7651",
      "lat": "33.2464116",
      "lng": "126.3301108",
      "region": "제주특별자치도",
      "district": "서귀포시"
    },
    {
      "id": 385,
      "name": "컴포즈커피 길음뉴타운점",
      "address": "서울특별시 성북구 길음로 33 길음뉴타운 제상가비동 제지2층 제8호",
      "contact": null,
      "lat": "37.6072048",
      "lng": "127.0194894",
      "region": "서울특별시",
      "district": "성북구"
    },
    {
      "id": 386,
      "name": "컴포즈커피 아산탕정지웰시티점",
      "address": "충청남도 아산시 탕정면 한들물빛5로 36 G동 1층 101호",
      "contact": "070-8211-2527",
      "lat": "36.7858616",
      "lng": "127.0868579",
      "region": "충청남도",
      "district": "아산시"
    },
    {
      "id": 387,
      "name": "컴포즈커피 당진센트레빌점",
      "address": "충청남도 당진시 수청중앙로 85 상가동 1층 컴포즈커피",
      "contact": "010-9094-2542",
      "lat": "36.8987130",
      "lng": "126.6495994",
      "region": "충청남도",
      "district": "당진시"
    },
    {
      "id": 388,
      "name": "컴포즈커피 오산호반라포레점",
      "address": "경기도 오산시 죽담3로 6 오산W빌딩 101호",
      "contact": "070-4012-7008",
      "lat": "37.1636863",
      "lng": "127.0504457",
      "region": "경기도",
      "district": "오산시"
    },
    {
      "id": 389,
      "name": "컴포즈커피 속초대포항점",
      "address": "강원특별자치도 속초시 동해대로 3747-1 1, 2층",
      "contact": "010-2796-8357",
      "lat": "38.1699970",
      "lng": "128.6053979",
      "region": "강원특별자치도",
      "district": "속초시"
    },
    {
      "id": 390,
      "name": "컴포즈커피 구리검배사거리점",
      "address": "경기도 구리시 검배로 124 1층 102호",
      "contact": "031-566-7307",
      "lat": "37.5940134",
      "lng": "127.1515557",
      "region": "경기도",
      "district": "구리시"
    },
    {
      "id": 391,
      "name": "컴포즈커피 울산수암시장점",
      "address": "울산광역시 남구 수암로 126 A2동 5호",
      "contact": "052-700-7095",
      "lat": "35.5277913",
      "lng": "129.3208298",
      "region": "울산광역시",
      "district": "남구"
    },
    {
      "id": 392,
      "name": "컴포즈커피 전남곡성군청점",
      "address": "전라남도 곡성군 곡성읍 군청로 26 1층",
      "contact": "061-363-4436",
      "lat": "35.2805432",
      "lng": "127.2929498",
      "region": "전라남도",
      "district": "곡성군"
    },
    {
      "id": 393,
      "name": "컴포즈커피 분당정자두산타워점",
      "address": "경기도 성남시 분당구 정자일로 158 1층 103동",
      "contact": null,
      "lat": "37.3643418",
      "lng": "127.1063145",
      "region": "경기도",
      "district": "성남시"
    },
    {
      "id": 394,
      "name": "컴포즈커피 천안시청점",
      "address": "충청남도 천안시 서북구 불당25로 174 1층",
      "contact": null,
      "lat": "36.8163542",
      "lng": "127.1084244",
      "region": "충청남도",
      "district": "천안시"
    },
    {
      "id": 395,
      "name": "컴포즈커피 목포용해점",
      "address": "전라남도 목포시 포미로 16 1층",
      "contact": "061-279-0800",
      "lat": "34.8174286",
      "lng": "126.3978950",
      "region": "전라남도",
      "district": "목포시"
    },
    {
      "id": 396,
      "name": "컴포즈커피 제주베라체점",
      "address": "제주특별자치도 제주시 승천로 74 1층",
      "contact": "064-711-7995",
      "lat": "33.4921911",
      "lng": "126.5425781",
      "region": "제주특별자치도",
      "district": "제주시"
    },
    {
      "id": 397,
      "name": "컴포즈커피 평택시청점",
      "address": "경기도 평택시 평택5로20번길 34 1층",
      "contact": "031-692-8886",
      "lat": "36.9895344",
      "lng": "127.1140017",
      "region": "경기도",
      "district": "평택시"
    },
    {
      "id": 398,
      "name": "컴포즈커피 울산신복초교점",
      "address": "울산광역시 남구 신복로72번길 26 1층",
      "contact": "052-976-4691",
      "lat": "35.5517649",
      "lng": "129.2546817",
      "region": "울산광역시",
      "district": "남구"
    },
    {
      "id": 399,
      "name": "컴포즈커피 울산진하점",
      "address": "울산광역시 울주군 서생면 해맞이로 1586 1층",
      "contact": "052-237-1888",
      "lat": "35.3832825",
      "lng": "129.3419701",
      "region": "울산광역시",
      "district": "울주군"
    },
    {
      "id": 400,
      "name": "컴포즈커피 평택바로E빌딩점",
      "address": "경기도 평택시 탄현로371번길 55 101호",
      "contact": "010-3929-7617",
      "lat": "37.0872955",
      "lng": "127.0598299",
      "region": "경기도",
      "district": "평택시"
    },
    {
      "id": 401,
      "name": "컴포즈커피 제주드림타워점",
      "address": "제주특별자치도 제주시 원노형남1길 11 (노형동)",
      "contact": "064-743-7977",
      "lat": "33.4842433",
      "lng": "126.4817797",
      "region": "제주특별자치도",
      "district": "제주시"
    },
    {
      "id": 402,
      "name": "컴포즈커피 봉천e편한세상점",
      "address": "서울특별시 관악구 쑥고개로 70 1층 102호",
      "contact": "02-882-4123",
      "lat": "37.4793696",
      "lng": "126.9441835",
      "region": "서울특별시",
      "district": "관악구"
    },
    {
      "id": 403,
      "name": "컴포즈커피 전남영암대불점",
      "address": "전라남도 영암군 삼호읍 대불주거로 173 1층",
      "contact": "061-463-3333",
      "lat": "34.7539915",
      "lng": "126.4565768",
      "region": "전라남도",
      "district": "영암군"
    },
    {
      "id": 404,
      "name": "컴포즈커피 화도휴게소점",
      "address": "경기도 남양주시 화도읍 경춘로 2186 1층",
      "contact": "031-591-7956",
      "lat": "37.6539657",
      "lng": "127.3305463",
      "region": "경기도",
      "district": "남양주시"
    },
    {
      "id": 405,
      "name": "컴포즈커피 평촌트리지아점",
      "address": "경기도 안양시 동안구 귀인로 90 1층",
      "contact": "070-8211-2365",
      "lat": "37.3818026",
      "lng": "126.9498194",
      "region": "경기도",
      "district": "안양시"
    },
    {
      "id": 406,
      "name": "컴포즈커피 대구봉리단길점",
      "address": "대구광역시 중구 대봉로43길 21 401동 106호",
      "contact": null,
      "lat": "35.8568233",
      "lng": "128.6006821",
      "region": "대구광역시",
      "district": "중구"
    },
    {
      "id": 407,
      "name": "컴포즈커피 가야태화현대점",
      "address": "부산광역시 부산진구 가야대로 635-12 1층 101호",
      "contact": "051-892-6486",
      "lat": "35.1563555",
      "lng": "129.0416531",
      "region": "부산광역시",
      "district": "부산진구"
    },
    {
      "id": 408,
      "name": "컴포즈커피 광주금호화개점",
      "address": "광주광역시 서구 화개중앙로 71-1 1층",
      "contact": "062-674-3111",
      "lat": "35.1255474",
      "lng": "126.8542960",
      "region": "광주광역시",
      "district": "서구"
    },
    {
      "id": 409,
      "name": "컴포즈커피 불광초점",
      "address": "서울특별시 은평구 불광로2길 2 1층",
      "contact": null,
      "lat": "37.6119421",
      "lng": "126.9319515",
      "region": "서울특별시",
      "district": "은평구"
    },