{
  "meta": {
    "brand_id": "5f9941863253437ca3e54134f59c2700",
    "brand_name": "파파존스",
    "totalCount": 271,
    "extractedAt": "2026-03-17T07:17:22.622790+00:00",
    "sourceUrl": "https://pji.co.kr/store/region"
  },
  "stores": [
    {
      "name": "파파존스 KT위즈파크점",
      "address": "경기도 수원시 장안구 경수대로 893 KT위즈파크 , 5층",
      "contact": "031-253-8088",
      "lat": "37.3000583",
      "lng": "127.0097125",
      "region": "경기도",
      "district": "수원시",
      "id": 1
    },
    {
      "name": "파파존스 SSG 랜더스점",
      "address": "인천광역시 남구 매소홀로 618(문학동)",
      "contact": "1577-8080",
      "lat": "37.4349104",
      "lng": "126.6919653",
      "region": "인천광역시",
      "district": "남구",
      "id": 2
    },
    {
      "name": "파파존스 강동구청점",
      "address": "서울특별시 강동구 성내로 90",
      "contact": "024714677",
      "lat": "37.5267094",
      "lng": "127.129388",
      "region": "서울특별시",
      "district": "강동구",
      "id": 3
    },
    {
      "name": "파파존스 강릉점",
      "address": "강원도 강릉시 솔올로 25 1층",
      "contact": "0336455445",
      "lat": "37.7642131",
      "lng": "128.8776272",
      "region": "강원도",
      "district": "강릉시",
      "id": 4
    },
    {
      "name": "파파존스 개봉점",
      "address": "서울특별시 구로구 개봉동(개봉제1동) 146-5",
      "contact": "0226140814",
      "lat": "37.4975316",
      "lng": "126.8552953",
      "region": "서울특별시",
      "district": "구로구",
      "id": 5
    },
    {
      "name": "파파존스 개포점",
      "address": "서울특별시 강남구 개포동(개포4동) 1229-12",
      "contact": "025724894",
      "lat": "37.4763293",
      "lng": "127.0464426",
      "region": "서울특별시",
      "district": "강남구",
      "id": 6
    },
    {
      "name": "파파존스 거제옥포점",
      "address": "경상남도 거제시 옥포로 170",
      "contact": "0556878086",
      "lat": "34.8902018",
      "lng": "128.6921898",
      "region": "경상남도",
      "district": "거제시",
      "id": 7
    },
    {
      "name": "파파존스 거제점",
      "address": "경상남도 거제시 장평동 321-3",
      "contact": "0556328082",
      "lat": "34.8925045",
      "lng": "128.609872",
      "region": "경상남도",
      "district": "거제시",
      "id": 8
    },
    {
      "name": "파파존스 건대점",
      "address": "서울특별시 광진구 자양동(자양제1동) 226-28",
      "contact": "024546464",
      "lat": "37.5388081",
      "lng": "127.0752775",
      "region": "서울특별시",
      "district": "광진구",
      "id": 9
    },
    {
      "name": "파파존스 경기광주점",
      "address": "경기도 광주시 광주대로 69, 2층(경안동)",
      "contact": "0317668884",
      "lat": "37.412960",
      "lng": "127.260049",
      "region": "경기도",
      "district": "광주시",
      "id": 10
    },
    {
      "name": "파파존스 경기태전점",
      "address": "경기도 광주시 태전동로 29 태전프라자 104호",
      "contact": "0317640008",
      "lat": "37.3859659",
      "lng": "127.233970",
      "region": "경기도",
      "district": "광주시",
      "id": 11
    },
    {
      "name": "파파존스 경주점",
      "address": "경상북도 경주시 용담로 24-8(황성동 355-3)",
      "contact": "0547458081",
      "lat": "35.8612002",
      "lng": "129.219018",
      "region": "경상북도",
      "district": "경주시",
      "id": 12
    },
    {
      "name": "파파존스 계룡점",
      "address": "충청남도 계룡시 장안로 49",
      "contact": "0428412585",
      "lat": "36.2729550",
      "lng": "127.251025",
      "region": "충청남도",
      "district": "계룡시",
      "id": 13
    },
    {
      "name": "파파존스 고덕점",
      "address": "서울특별시 강동구 명일동(명일제2동) 69",
      "contact": "024268254",
      "lat": "37.5490294",
      "lng": "127.1545249",
      "region": "서울특별시",
      "district": "강동구",
      "id": 14
    },
    {
      "name": "파파존스 고려대점",
      "address": "서울특별시 성북구 안암로 145 고려대학교 학생회관 1층 파파존스",
      "contact": "02-922-7900",
      "lat": "37.586963",
      "lng": "127.032321",
      "region": "서울특별시",
      "district": "성북구",
      "id": 15
    },
    {
      "name": "파파존스 곤지암리조트점",
      "address": "경기도 광주시 도척면 도척윗로 278",
      "contact": "03180265025",
      "lat": "37.3373548",
      "lng": "127.302350",
      "region": "경기도",
      "district": "광주시",
      "id": 16
    },
    {
      "name": "파파존스 공릉점",
      "address": "서울특별시 노원구 공릉동 661-9",
      "contact": "029498081",
      "lat": "37.6187785",
      "lng": "127.0781077",
      "region": "서울특별시",
      "district": "노원구",
      "id": 17
    },
    {
      "name": "파파존스 공주점",
      "address": "충청남도 공주시 번영1로 138 103호",
      "contact": "0418555017",
      "lat": "36.4742102",
      "lng": "127.142845",
      "region": "충청남도",
      "district": "공주시",
      "id": 18
    },
    {
      "name": "파파존스 과천점",
      "address": "경기도 과천시 별양로 163, 래미안센트럴스위트 상가동 2층 202호",
      "contact": "025038850",
      "lat": "37.4318337",
      "lng": "126.9979284",
      "region": "경기도",
      "district": "과천시",
      "id": 19
    },
    {
      "name": "파파존스 광교점",
      "address": "경기도 수원시 영통구 이의동 센트럴타운로 107, 제204동 1층 1-001호",
      "contact": "0312174419",
      "lat": "37.2925705",
      "lng": "127.0481335",
      "region": "경기도",
      "district": "수원시",
      "id": 20
    },
    {
      "name": "파파존스 광명소하점",
      "address": "경기도 광명시 하안로 108 (에이스광명타워 101호)",
      "contact": "028988088",
      "lat": "37.4477465",
      "lng": "126.892203",
      "region": "경기도",
      "district": "광명시",
      "id": 21
    },
    {
      "name": "파파존스 광안점",
      "address": "부산광역시 수영구 광안동 775-4 1층",
      "contact": "0517558082",
      "lat": "35.1550024",
      "lng": "129.111777",
      "region": "부산광역시",
      "district": "수영구",
      "id": 22
    },
    {
      "name": "파파존스 광운대점",
      "address": "서울특별시 노원구 월계동 469-3 101호",
      "contact": "029418959",
      "lat": "37.6190582706818",
      "lng": "127.057604310052",
      "region": "서울특별시",
      "district": "노원구",
      "id": 23
    },
    {
      "name": "파파존스 광주남구점",
      "address": "광주광역시 남구 서문대로 793, 1층(주월동)",
      "contact": "0626548077",
      "lat": "35.1300869",
      "lng": "126.898283",
      "region": "광주광역시",
      "district": "남구",
      "id": 24
    },
    {
      "name": "파파존스 광주서구점",
      "address": "광주광역시 서구 쌍촌동(상무2동) 1002-8",
      "contact": "0623718077",
      "lat": "35.1513527",
      "lng": "126.8698636",
      "region": "광주광역시",
      "district": "서구",
      "id": 25
    },
    {
      "name": "파파존스 광주수완점",
      "address": "광주광역시 광산구 수완동 1539 103호",
      "contact": "0629528082",
      "lat": "35.1904443",
      "lng": "126.829353",
      "region": "광주광역시",
      "district": "광산구",
      "id": 26
    },
    {
      "name": "파파존스 광주오포점",
      "address": "경기도 광주시 오포읍 신현로 42, 101호(보아스)",
      "contact": "0317118883",
      "lat": "37.3603660",
      "lng": "127.151636",
      "region": "경기도",
      "district": "광주시",
      "id": 27
    },
    {
      "name": "파파존스 광주첨단점",
      "address": "광주광역시 광산구 첨단중앙로152번길 6-8 107호",
      "contact": "0629740013",
      "lat": "35.2182512",
      "lng": "126.842771",
      "region": "광주광역시",
      "district": "광산구",
      "id": 28
    },
    {
      "name": "파파존스 광진점",
      "address": "서울특별시 광진구 능동로 266, 광정빌딩 1층",
      "contact": "024558081",
      "lat": "37.5536847",
      "lng": "127.077874",
      "region": "서울특별시",
      "district": "광진구",
      "id": 29
    },
    {
      "name": "파파존스 구로점",
      "address": "서울특별시 구로구 구로동(구로제5동) 530-22",
      "contact": "028675551",
      "lat": "37.4989537",
      "lng": "126.8869911",
      "region": "서울특별시",
      "district": "구로구",
      "id": 30
    },
    {
      "name": "파파존스 구리1호점",
      "address": "경기도 구리시 교문동(교문2동) 807-11",
      "contact": "0315680228",
      "lat": "37.587855",
      "lng": "127.1307945",
      "region": "경기도",
      "district": "구리시",
      "id": 31
    },
    {
      "name": "파파존스 구미도량점",
      "address": "경상북도 구미시 야은로 381, 1동 1층 (도량동)",
      "contact": "0544575680",
      "lat": "36.1377459",
      "lng": "128.324663",
      "region": "경상북도",
      "district": "구미시",
      "id": 32
    },
    {
      "name": "파파존스 구의광장점",
      "address": "서울특별시 광진구 구의동 659 상가102호",
      "contact": "024478337",
      "lat": "37.5392440873756",
      "lng": "127.09221546662",
      "region": "서울특별시",
      "district": "광진구",
      "id": 33
    },
    {
      "name": "파파존스 군산점",
      "address": "전라북도 군산시 궁포1로 44",
      "contact": "0637312555",
      "lat": "35.976924",
      "lng": "126.742359",
      "region": "전라북도",
      "district": "군산시",
      "id": 34
    },
    {
      "name": "파파존스 군포점",
      "address": "경기도 군포시 삼성로 20번길 4-4 1층 102호(부곡동)",
      "contact": "0313998080",
      "lat": "37.3372225",
      "lng": "126.933349",
      "region": "경기도",
      "district": "군포시",
      "id": 35
    },
    {
      "name": "파파존스 권선점",
      "address": "경기도 수원시 권선구 권광로 55 (E편한세상 아파트 상가 A동 109호)",
      "contact": "0312320015",
      "lat": "37.254978",
      "lng": "127.026289",
      "region": "경기도",
      "district": "수원시",
      "id": 36
    },
    {
      "name": "파파존스 금천점",
      "address": "서울특별시 금천구 시흥대로 152 2층",
      "contact": "028038087",
      "lat": "37.4477676",
      "lng": "126.9036434",
      "region": "서울특별시",
      "district": "금천구",
      "id": 37
    },
    {
      "name": "파파존스 기아챔피언스필드점",
      "address": "광주광역시 북구 서림로 10",
      "contact": "15778080",
      "lat": "35.1684217",
      "lng": "126.888301",
      "region": "광주광역시",
      "district": "북구",
      "id": 38
    },
    {
      "name": "파파존스 길음점",
      "address": "서울특별시 성북구 길음동 1143, 2층",
      "contact": "029458080",
      "lat": "37.6085575",
      "lng": "127.0234286",
      "region": "서울특별시",
      "district": "성북구",
      "id": 39
    },
    {
      "name": "파파존스 김포점",
      "address": "경기도 김포시 김포대로 835 101호",
      "contact": "0319978089",
      "lat": "37.619275",
      "lng": "126.7205542",
      "region": "경기도",
      "district": "김포시",
      "id": 40
    },
    {
      "name": "파파존스 김포한강점",
      "address": "경기도 김포시 김포한강4로 162, 한강메트로 1동 102호",
      "contact": "0319863163",
      "lat": "37.6469799",
      "lng": "126.6642245",
      "region": "경기도",
      "district": "김포시",
      "id": 41
    },
    {
      "name": "파파존스 김해율하점",
      "address": "경상남도 김해시 율하동 1318-2 104호",
      "contact": "0553391577",
      "lat": "35.1744351",
      "lng": "128.8137948",
      "region": "경상남도",
      "district": "김해시",
      "id": 42
    },
    {
      "name": "파파존스 남양주점",
      "address": "경기도 남양주시 진접읍 해밀예당3로 93 리원프라자 101호",
      "contact": "0315278200",
      "lat": "37.7179921",
      "lng": "127.1970532",
      "region": "경기도",
      "district": "남양주시",
      "id": 43
    },
    {
      "name": "파파존스 남춘천점",
      "address": "강원도 춘천시 퇴계동 1170-1 파파존스 남춘천점",
      "contact": "0332428070",
      "lat": "37.8631900",
      "lng": "127.728559",
      "region": "강원도",
      "district": "춘천시",
      "id": 44
    },
    {
      "name": "파파존스 노원점",
      "address": "서울특별시 노원구 상계동 716-3 203호",
      "contact": "029368080",
      "lat": "37.6550304",
      "lng": "127.0626476",
      "region": "서울특별시",
      "district": "노원구",
      "id": 45
    },
    {
      "name": "파파존스 녹번점",
      "address": "서울특별시 은평구 녹번동 155-7",
      "contact": "023868023",
      "lat": "37.6033925",
      "lng": "126.925214",
      "region": "서울특별시",
      "district": "은평구",
      "id": 46
    },
    {
      "name": "파파존스 논현점",
      "address": "서울특별시 강남구 학동로 328 1층",
      "contact": "025118757",
      "lat": "37.5162221",
      "lng": "127.0389431",
      "region": "서울특별시",
      "district": "강남구",
      "id": 47
    },
    {
      "name": "파파존스 다산점",
      "address": "경기도 남양주시 다산순환로424(다산동 6130-2) 201호",
      "contact": "0315514298",
      "lat": "37.6196934",
      "lng": "127.157707",
      "region": "경기도",
      "district": "남양주시",
      "id": 48
    },
    {
      "name": "파파존스 답십리점",
      "address": "서울특별시 동대문구 답십리동 1003, 1004 래미안위브 제근린생활시설-1동,제지1층 제 1-3호",
      "contact": "0222498344",
      "lat": "37.5725697793012",
      "lng": "127.05192736483",
      "region": "서울특별시",
      "district": "동대문구",
      "id": 49
    },
    {
      "name": "파파존스 당산점",
      "address": "서울특별시 영등포구 영중로 101, 2층",
      "contact": "0226322426",
      "lat": "37.5253111",
      "lng": "126.9051596",
      "region": "서울특별시",
      "district": "영등포구",
      "id": 50
    },
    {
      "name": "파파존스 당진점",
      "address": "충청남도 당진시 시청1로 71",
      "contact": "0413548808",
      "lat": "36.8907840",
      "lng": "126.639624",
      "region": "충청남도",
      "district": "당진시",
      "id": 51
    },
    {
      "name": "파파존스 대구달서점",
      "address": "대구광역시 달서구 죽전동 270-26 2층",
      "contact": "0535579877",
      "lat": "35.8502037",
      "lng": "128.5342598",
      "region": "대구광역시",
      "district": "달서구",
      "id": 52
    },
    {
      "name": "파파존스 대구상인점",
      "address": "대구광역시 달서구 월배로129, 2층",
      "contact": "0532012204",
      "lat": "35.8154665",
      "lng": "128.5283121",
      "region": "대구광역시",
      "district": "달서구",
      "id": 53
    },
    {
      "name": "파파존스 대구수성점",
      "address": "대구광역시 수성구 범어동 674-2번지 2층",
      "contact": "0537410387",
      "lat": "35.8499728",
      "lng": "128.625508",
      "region": "대구광역시",
      "district": "수성구",
      "id": 54
    },
    {
      "name": "파파존스 대구시지점",
      "address": "대구광역시 수성구 달구벌대로 3148, 1층",
      "contact": "0537918811",
      "lat": "35.8414590",
      "lng": "128.701155",
      "region": "대구광역시",
      "district": "수성구",
      "id": 55
    },
    {
      "name": "파파존스 대구율하점",
      "address": "대구광역시 동구 율하서로 26 101호",
      "contact": "0532016888",
      "lat": "35.867084",
      "lng": "128.692411",
      "region": "대구광역시",
      "district": "동구",
      "id": 56
    },
    {
      "name": "파파존스 대구칠곡점",
      "address": "대구광역시 북구 동암로 104",
      "contact": "0533247775",
      "lat": "35.944008",
      "lng": "128.562378",
      "region": "대구광역시",
      "district": "북구",
      "id": 57
    },
    {
      "name": "파파존스 대구침산점",
      "address": "대구광역시 북구 침산로 21길 39 103호",
      "contact": "0533418484",
      "lat": "35.8860208",
      "lng": "128.586422",
      "region": "대구광역시",
      "district": "북구",
      "id": 58
    },
    {
      "name": "파파존스 대신점",
      "address": "부산광역시 서구 동대신동1가(동대신제1동) 389-2",
      "contact": "0512558080",
      "lat": "35.1080427",
      "lng": "129.0200393",
      "region": "부산광역시",
      "district": "서구",
      "id": 59
    },
    {
      "name": "파파존스 대전관저점",
      "address": "대전광역시 서구 도안동로 3, 1층 112호",
      "contact": "0425453082",
      "lat": "36.3055523",
      "lng": "127.3526723",
      "region": "대전광역시",
      "district": "서구",
      "id": 60
    },
    {
      "name": "파파존스 대전노은점",
      "address": "대전광역시 유성구 은구비남로33번길 5, 1층 102호(지족동, 경남아너스빌2)",
      "contact": "0428259082",
      "lat": "36.3725269",
      "lng": "127.319006",
      "region": "대전광역시",
      "district": "유성구",
      "id": 61
    },
    {
      "name": "파파존스 대전대덕점",
      "address": "대전광역시 대덕구 계족로 597, 101호",
      "contact": "0426390808",
      "lat": "36.3648979",
      "lng": "127.430276",
      "region": "대전광역시",
      "district": "대덕구",
      "id": 62
    },
    {
      "name": "파파존스 대전동구점",
      "address": "대전광역시 동구 계족로 130-1, 1층(대동)",
      "contact": "0422728088",
      "lat": "36.3258312",
      "lng": "127.445364",
      "region": "대전광역시",
      "district": "동구",
      "id": 63
    },
    {
      "name": "파파존스 대전둔산점",
      "address": "대전광역시 서구 둔산로 210",
      "contact": "0424711110",
      "lat": "36.3510369",
      "lng": "127.397145",
      "region": "대전광역시",
      "district": "서구",
      "id": 64
    },
    {
      "name": "파파존스 대전엑스포점",
      "address": "대전광역시 유성구 엑스포로 471, 1층",
      "contact": "0428630933",
      "lat": "36.3983887",
      "lng": "127.4045913",
      "region": "대전광역시",
      "district": "유성구",
      "id": 65
    },
    {
      "name": "파파존스 대전월평점",
      "address": "대전광역시 서구 월평북로 89",
      "contact": "0422531110",
      "lat": "36.3624325",
      "lng": "127.3783226",
      "region": "대전광역시",
      "district": "서구",
      "id": 66
    },
    {
      "name": "파파존스 대전유성점",
      "address": "대전광역시 유성구 온천로 45 푸르지오상가 106호",
      "contact": "0428258082",
      "lat": "36.3558181114592",
      "lng": "127.343017508767",
      "region": "대전광역시",
      "district": "유성구",
      "id": 67
    },
    {
      "name": "파파존스 대전중구점",
      "address": "대전광역시 중구 계룡로 849, 1층 102호(용두동)",
      "contact": "0422238082",
      "lat": "36.3251929",
      "lng": "127.409533",
      "region": "대전광역시",
      "district": "중구",
      "id": 68
    },
    {
      "name": "파파존스 대치점",
      "address": "서울특별시 강남구 대치동(대치4동) 902",
      "contact": "025548126",
      "lat": "37.5039585",
      "lng": "127.0570454",
      "region": "서울특별시",
      "district": "강남구",
      "id": 69
    },
    {
      "name": "파파존스 대학로점",
      "address": "서울특별시 종로구 대학로 75 2층",
      "contact": "027660018",
      "lat": "37.5780183866648",
      "lng": "127.001933065792",
      "region": "서울특별시",
      "district": "종로구",
      "id": 70
    },
    {
      "name": "파파존스 덕소점",
      "address": "경기도 남양주시 와부읍 덕소로 107 덕소빌딩 1층",
      "contact": "0315218089",
      "lat": "37.5845871",
      "lng": "127.212339",
      "region": "경기도",
      "district": "남양주시",
      "id": 71
    },
    {
      "name": "파파존스 덕천만덕점",
      "address": "부산광역시 북구 덕천동 373-1 삼정그린코아아파트 상가 4동 106호",
      "contact": "0513332817",
      "lat": "35.2138401",
      "lng": "129.020811",
      "region": "부산광역시",
      "district": "북구",
      "id": 72
    },
    {
      "name": "파파존스 도곡점",
      "address": "서울특별시 강남구 도곡동(도곡1동) 174-40",
      "contact": "0220571076",
      "lat": "37.4871594",
      "lng": "127.0465623",
      "region": "서울특별시",
      "district": "강남구",
      "id": 73
    },
    {
      "name": "파파존스 도봉점",
      "address": "서울특별시 도봉구 도봉동 617-15번지 1층",
      "contact": "0234938080",
      "lat": "37.6726137",
      "lng": "127.043730",
      "region": "서울특별시",
      "district": "도봉구",
      "id": 74
    },
    {
      "name": "파파존스 독립문점",
      "address": "서울특별시 종로구 무악동(무악동) 63-2",
      "contact": "027330528",
      "lat": "37.5764856",
      "lng": "126.9560424",
      "region": "서울특별시",
      "district": "종로구",
      "id": 75
    },
    {
      "name": "파파존스 돈암점",
      "address": "서울특별시 성북구 보문로 150, 1층",
      "contact": "0232918007",
      "lat": "37.5883086",
      "lng": "127.0178059",
      "region": "서울특별시",
      "district": "성북구",
      "id": 76
    },
    {
      "name": "파파존스 동두천점",
      "address": "경기도 동두천시 지행동 718-1 두손프라자 106호",
      "contact": "0318616809",
      "lat": "37.8917501",
      "lng": "127.052484",
      "region": "경기도",
      "district": "동두천시",
      "id": 77
    },
    {
      "name": "파파존스 동백점",
      "address": "경기도 용인시 기흥구 중동(동백동) 832-7",
      "contact": "0312818117",
      "lat": "37.2767089",
      "lng": "127.1519369",
      "region": "경기도",
      "district": "용인시",
      "id": 78
    },
    {
      "name": "파파존스 동인천점",
      "address": "인천광역시 중구 참외전로 190 1층",
      "contact": "0327722808",
      "lat": "37.4711560",
      "lng": "126.636732",
      "region": "인천광역시",
      "district": "중구",
      "id": 79
    },
    {
      "name": "파파존스 동탄2점",
      "address": "경기도 화성시 영천동 678-4 비젼프라자 203호",
      "contact": "0313727157",
      "lat": "37.2068828072143",
      "lng": "127.11026542022",
      "region": "경기도",
      "district": "화성시",
      "id": 80
    },
    {
      "name": "파파존스 동탄3호점",
      "address": "경기도 화성시 동탄대로 182",
      "contact": "0313778085",
      "lat": "37.1707362",
      "lng": "127.1072649",
      "region": "경기도",
      "district": "화성시",
      "id": 81
    },
    {
      "name": "파파존스 동탄점",
      "address": "경기도 화성시 능동(동탄3동) 1114-5",
      "contact": "0316138004",
      "lat": "37.2092216",
      "lng": "127.0604277",
      "region": "경기도",
      "district": "화성시",
      "id": 82
    },
    {
      "name": "파파존스 둔촌점",
      "address": "서울특별시 강동구 둔촌동50-1번지 1층",
      "contact": "024755818",
      "lat": "37.5341161",
      "lng": "127.144596",
      "region": "서울특별시",
      "district": "강동구",
      "id": 83
    },
    {
      "name": "파파존스 마곡점",
      "address": "서울특별시 강서구 강서로 402",
      "contact": "0236628088",
      "lat": "37.5613398",
      "lng": "126.8394914",
      "region": "서울특별시",
      "district": "강서구",
      "id": 84
    },
    {
      "name": "파파존스 마산합포점",
      "address": "경상남도 창원시 마산합포구 자산동 189-3",
      "contact": "0552418080",
      "lat": "35.2047649761587",
      "lng": "128.564221559741",
      "region": "경상남도",
      "district": "창원시",
      "id": 85
    },
    {
      "name": "파파존스 마산회원점",
      "address": "경상남도 창원시 마산회원구 양덕로 169",
      "contact": "0552568080",
      "lat": "35.2329477",
      "lng": "128.581972",
      "region": "경상남도",
      "district": "창원시",
      "id": 86
    },
    {
      "name": "파파존스 마석점",
      "address": "경기도 남양주시 화도읍 비룡로 55번길 3-37 1층",
      "contact": "0315118087",
      "lat": "37.6555108",
      "lng": "127.300536",
      "region": "경기도",
      "district": "남양주시",
      "id": 87
    },
    {
      "name": "파파존스 마포점",
      "address": "서울특별시 마포구 염리동(염리동) 178-16",
      "contact": "0232720955",
      "lat": "37.5471622",
      "lng": "126.9441325",
      "region": "서울특별시",
      "district": "마포구",
      "id": 88
    },
    {
      "name": "파파존스 망우점",
      "address": "서울특별시 중랑구 신내로 48 1층",
      "contact": "024358045",
      "lat": "37.6031628",
      "lng": "127.096112",
      "region": "서울특별시",
      "district": "중랑구",
      "id": 89
    },
    {
      "name": "파파존스 망원점",
      "address": "서울특별시 마포구 성미산로 43",
      "contact": "023228282",
      "lat": "37.5591453",
      "lng": "126.912798",
      "region": "서울특별시",
      "district": "마포구",
      "id": 90
    },
    {
      "name": "파파존스 망포반월점",
      "address": "경기도 화성시 영통로 27번길 1",
      "contact": "0312028084",
      "lat": "37.2330548",
      "lng": "127.0638383",
      "region": "경기도",
      "district": "화성시",
      "id": 91
    },
    {
      "name": "파파존스 매탄점",
      "address": "경기도 수원시 영통구 매탄동(매탄1동) 153-113",
      "contact": "0312171577",
      "lat": "37.275033",
      "lng": "127.0418198",
      "region": "경기도",
      "district": "수원시",
      "id": 92
    },
    {
      "name": "파파존스 목동점",
      "address": "서울특별시 양천구 목동(목1동) 923",
      "contact": "0226490855",
      "lat": "37.5280393",
      "lng": "126.8706223",
      "region": "서울특별시",
      "district": "양천구",
      "id": 93
    },
    {
      "name": "파파존스 목포점",
      "address": "전라남도 목포시 옥암로 95,목포 포르모 큐브상가 1122, 1122-1호",
      "contact": "0612828870",
      "lat": "34.8069052",
      "lng": "126.4258528",
      "region": "전라남도",
      "district": "목포시",
      "id": 94
    },
    {
      "name": "파파존스 문래점",
      "address": "서울특별시 영등포구 양평동1가 13-31 2층",
      "contact": "0226312426",
      "lat": "37.5212276",
      "lng": "126.8895445",
      "region": "서울특별시",
      "district": "영등포구",
      "id": 95
    },
    {
      "name": "파파존스 문정점",
      "address": "서울특별시 송파구 거여동 562번지 2층",
      "contact": "024030443",
      "lat": "37.493329",
      "lng": "127.1432864",
      "region": "서울특별시",
      "district": "송파구",
      "id": 96
    },
    {
      "name": "파파존스 미사점",
      "address": "경기도 하남시 망월동(풍산동) 968-1",
      "contact": "0317918081",
      "lat": "37.5686336",
      "lng": "127.1847513",
      "region": "경기도",
      "district": "하남시",
      "id": 97
    },
    {
      "name": "파파존스 미아점",
      "address": "서울특별시 강북구 미아동(미아동) 304-1",
      "contact": "029458090",
      "lat": "37.6260454",
      "lng": "127.0259638",
      "region": "서울특별시",
      "district": "강북구",
      "id": 98
    },
    {
      "name": "파파존스 반여재송점",
      "address": "부산광역시 해운대구 해운대로 139 1층 (재송동 0194-5)",
      "contact": "0517815187",
      "lat": "35.1847982",
      "lng": "129.121351",
      "region": "부산광역시",
      "district": "해운대구",
      "id": 99
    },
    {
      "name": "파파존스 반포점",
      "address": "서울특별시 서초구 반포동 91-10 1층",
      "contact": "0234760061",
      "lat": "37.4983432",
      "lng": "126.998488",
      "region": "서울특별시",
      "district": "서초구",
      "id": 100
    },
    {
      "name": "파파존스 방배점",
      "address": "서울특별시 서초구 방배로 269, 118호",
      "contact": "025334427",
      "lat": "37.4966608",
      "lng": "126.9877187",
      "region": "서울특별시",
      "district": "서초구",
      "id": 101
    },
    {
      "name": "파파존스 방화점",
      "address": "서울특별시 강서구 양천로 132",
      "contact": "0226613380",
      "lat": "37.5731268",
      "lng": "126.8184595",
      "region": "서울특별시",
      "district": "강서구",
      "id": 102
    },
    {
      "name": "파파존스 배곧점",
      "address": "경기도 시흥시 배곧3로 86 센터프라자 205호",
      "contact": "0313194812",
      "lat": "37.3701054",
      "lng": "126.729535",
      "region": "경기도",
      "district": "시흥시",
      "id": 103
    },
    {
      "name": "파파존스 백석점",
      "address": "경기도 고양시 일산동구 백석동(백석2동) 1299",
      "contact": "0319010037",
      "lat": "37.639793",
      "lng": "126.7913333",
      "region": "경기도",
      "district": "고양시",
      "id": 104
    },
    {
      "name": "파파존스 별내점",
      "address": "경기도 남양주시 별내중앙로 83 1층 5-1호, 5-2호",
      "contact": "0315724298",
      "lat": "37.6490736",
      "lng": "127.1208429",
      "region": "경기도",
      "district": "남양주시",
      "id": 105
    },
    {
      "name": "파파존스 봉천점",
      "address": "서울특별시 관악구 봉천동(행운동) 36-85",
      "contact": "028720568",
      "lat": "37.4855297",
      "lng": "126.9565141",
      "region": "서울특별시",
      "district": "관악구",
      "id": 106
    },
    {
      "name": "파파존스 부산개금점",
      "address": "부산광역시 부산진구 개금동(개금제1동) 201-86",
      "contact": "0518968070",
      "lat": "35.1534962",
      "lng": "129.0228414",
      "region": "부산광역시",
      "district": "부산진구",
      "id": 107
    },
    {
      "name": "파파존스 부산남구점",
      "address": "부산광역시 남구 대연동 561-1 2층",
      "contact": "0516269051",
      "lat": "35.1315499",
      "lng": "129.1011219",
      "region": "부산광역시",
      "district": "남구",
      "id": 108
    },
    {
      "name": "파파존스 부산대점",
      "address": "부산광역시 금정구 장전동(장전제2동) 419-60",
      "contact": "0515128144",
      "lat": "35.2316618",
      "lng": "129.0850333",
      "region": "부산광역시",
      "district": "금정구",
      "id": 109
    },
    {
      "name": "파파존스 부산동래점",
      "address": "부산광역시 동래구 명륜로 170, 명륜 아이파크상가 201동 104호",
      "contact": "0515588080",
      "lat": "35.2091033",
      "lng": "129.0834007",
      "region": "부산광역시",
      "district": "동래구",
      "id": 110
    },
    {
      "name": "파파존스 부산명지점",
      "address": "부산광역시 강서구 명지동 3347 109호",
      "contact": "0512718080",
      "lat": "35.103461",
      "lng": "128.922273",
      "region": "부산광역시",
      "district": "강서구",
      "id": 111
    },
    {
      "name": "파파존스 부산시청점",
      "address": "부산광역시 연제구 거제대로 275, 상가동 108호 (거제동,거제 미소지움 더퍼스트)",
      "contact": "0518668082",
      "lat": "35.1914790",
      "lng": "129.077483",
      "region": "부산광역시",
      "district": "연제구",
      "id": 112
    },
    {
      "name": "파파존스 부산정관점",
      "address": "부산광역시 기장군 정관읍 정관로 570, 1층 103호",
      "contact": "0517288089",
      "lat": "35.3210828",
      "lng": "129.1758783",
      "region": "부산광역시",
      "district": "기장군",
      "id": 113
    },
    {
      "name": "파파존스 부산초읍서면점",
      "address": "부산광역시 부산진구 성지로 34 1층",
      "contact": "0518028081",
      "lat": "35.1737391",
      "lng": "129.055071",
      "region": "부산광역시",
      "district": "부산진구",
      "id": 114
    },
    {
      "name": "파파존스 부산하단점",
      "address": "부산광역시 사하구 하단동 605-29",
      "contact": "0512078082",
      "lat": "35.1036712",
      "lng": "128.9621916",
      "region": "부산광역시",
      "district": "사하구",
      "id": 115
    },
    {
      "name": "파파존스 부산화명점",
      "address": "부산광역시 북구 금곡대로 175, 208동 111호 (화명동, 화명2차동원로얄듀크비스타)",
      "contact": "0513623800",
      "lat": "35.2247181",
      "lng": "129.0093264",
      "region": "부산광역시",
      "district": "북구",
      "id": 116
    },
    {
      "name": "파파존스 부천송내점",
      "address": "경기도 부천시 송내동 577-1 BYC위더스빌 102호, 103호",
      "contact": "0326128929",
      "lat": "37.4836788",
      "lng": "126.772654",
      "region": "경기도",
      "district": "부천시",
      "id": 117
    },
    {
      "name": "파파존스 부천오정점",
      "address": "경기도 부천시 소사로 627",
      "contact": "0326762777",
      "lat": "37.5131375",
      "lng": "126.800151",
      "region": "경기도",
      "district": "부천시",
      "id": 118
    },
    {
      "name": "파파존스 부평점",
      "address": "인천광역시 부평구 산곡동 411-3 1층 101호",
      "contact": "0325298080",
      "lat": "37.5039880",
      "lng": "126.711396",
      "region": "인천광역시",
      "district": "부평구",
      "id": 119
    },
    {
      "name": "파파존스 분당정자점",
      "address": "경기도 성남시 분당구 성남대로 295 대림아크로텔 112호",
      "contact": "0317148082",
      "lat": "37.3625062",
      "lng": "127.1075459",
      "region": "경기도",
      "district": "성남시",
      "id": 120
    },
    {
      "name": "파파존스 비산점",
      "address": "경기도 안양시 동안구 관악대로 157 두성프라자 104호",
      "contact": "0313813578",
      "lat": "37.399138",
      "lng": "126.941662",
      "region": "경기도",
      "district": "안양시",
      "id": 121
    },
    {
      "name": "파파존스 사당점",
      "address": "서울특별시 동작구 사당동(사당제1동) 321-8",
      "contact": "025859889",
      "lat": "37.4832107",
      "lng": "126.976166",
      "region": "서울특별시",
      "district": "동작구",
      "id": 122
    },
    {
      "name": "파파존스 산본점",
      "address": "경기도 군포시 산본동(궁내동) 1147",
      "contact": "0313933082",
      "lat": "37.3608566",
      "lng": "126.922564",
      "region": "경기도",
      "district": "군포시",
      "id": 123
    },
    {
      "name": "파파존스 삼산점",
      "address": "울산광역시 남구 달동 869-1 1층",
      "contact": "0522608082",
      "lat": "35.5387689",
      "lng": "129.316178",
      "region": "울산광역시",
      "district": "남구",
      "id": 124
    },
    {
      "name": "파파존스 삼성라이온즈파크점",
      "address": "대구광역시 수성구 연호동 648",
      "contact": "07042512905",
      "lat": "35.8411444",
      "lng": "128.681239",
      "region": "대구광역시",
      "district": "수성구",
      "id": 125
    },
    {
      "name": "파파존스 삼송점",
      "address": "경기도 고양시 덕양구 덕수천1로 64 104호",
      "contact": "023818892",
      "lat": "37.6482443751029",
      "lng": "126.884038272015",
      "region": "경기도",
      "district": "고양시",
      "id": 126
    },
    {
      "name": "파파존스 상도점",
      "address": "서울특별시 동작구 상도1동(상도제1동) 391",
      "contact": "028268052",
      "lat": "37.5013487",
      "lng": "126.9495951",
      "region": "서울특별시",
      "district": "동작구",
      "id": 127
    },
    {
      "name": "파파존스 상동점",
      "address": "경기도 부천시 원미구 상동(상3동) 538-4",
      "contact": "0323287051",
      "lat": "37.5060934",
      "lng": "126.7576747",
      "region": "경기도",
      "district": "부천시",
      "id": 128
    },
    {
      "name": "파파존스 상암점",
      "address": "서울특별시 은평구 수색동(수색동) 수색자이1단지",
      "contact": "023048484",
      "lat": "37.5795768",
      "lng": "126.8986998",
      "region": "서울특별시",
      "district": "은평구",
      "id": 129
    },
    {
      "name": "파파존스 서김해점",
      "address": "경상남도 김해시 우암로85번길 2",
      "contact": "0553371822",
      "lat": "35.2384228",
      "lng": "128.861968",
      "region": "경상남도",
      "district": "김해시",
      "id": 130
    },
    {
      "name": "파파존스 서수원점",
      "address": "경기도 수원시 권선구 탑동 744-4번지 2층",
      "contact": "0312938088",
      "lat": "37.2742319",
      "lng": "126.9708066",
      "region": "경기도",
      "district": "수원시",
      "id": 131
    },
    {
      "name": "파파존스 서울대점",
      "address": "서울특별시 관악구 신림동(서림동) 131-21",
      "contact": "028878081",
      "lat": "37.4709529",
      "lng": "126.9393848",
      "region": "서울특별시",
      "district": "관악구",
      "id": 132
    },
    {
      "name": "파파존스 서인천점",
      "address": "인천광역시 서구 서곶로323",
      "contact": "0325638081",
      "lat": "37.5464785",
      "lng": "126.676616",
      "region": "인천광역시",
      "district": "서구",
      "id": 133
    },
    {
      "name": "파파존스 서초점",
      "address": "서울특별시 서초구 서초동(서초1동) 1443-6",
      "contact": "025978135",
      "lat": "37.4855001",
      "lng": "127.0191424",
      "region": "서울특별시",
      "district": "서초구",
      "id": 134
    },
    {
      "name": "파파존스 서충주점",
      "address": "충청북도 충주시 대소원면 첨단산업1로 81(대소원면) 104호 [본리.1047-0]",
      "contact": "0438528088",
      "lat": "36.985615",
      "lng": "127.830254",
      "region": "충청북도",
      "district": "충주시",
      "id": 135
    },
    {
      "name": "파파존스 서현점",
      "address": "경기도 성남시 분당구 서현동(서현1동) 81-4",
      "contact": "0317097305",
      "lat": "37.3849322",
      "lng": "127.1288152",
      "region": "경기도",
      "district": "성남시",
      "id": 136
    },
    {
      "name": "파파존스 성남모란점",
      "address": "경기도 성남시 수정구 수진2동 3399 파파존스 성남모란점",
      "contact": "0317548070",
      "lat": "37.4394081",
      "lng": "127.132268",
      "region": "경기도",
      "district": "성남시",
      "id": 137
    },
    {
      "name": "파파존스 성남점",
      "address": "경기도 성남시 금광동 4398",
      "contact": "0317318080",
      "lat": "37.4461354",
      "lng": "127.1579745",
      "region": "경기도",
      "district": "성남시",
      "id": 138
    },
    {
      "name": "파파존스 성복점",
      "address": "경기도 용인시 수지구 성복동(성복동) 740",
      "contact": "0312728050",
      "lat": "37.3153794",
      "lng": "127.0806383",
      "region": "경기도",
      "district": "용인시",
      "id": 139
    },
    {
      "name": "파파존스 성수점",
      "address": "서울특별시 성동구 성수동1가(성수1가제2동) 656-297",
      "contact": "024618188",
      "lat": "37.5477075",
      "lng": "127.0447668",
      "region": "서울특별시",
      "district": "성동구",
      "id": 140
    },
    {
      "name": "파파존스 세곡점",
      "address": "서울특별시 강남구 헌릉로569길 9, 강남지웰파인즈 205호",
      "contact": "0234128080",
      "lat": "37.4667896",
      "lng": "127.1007772",
      "region": "서울특별시",
      "district": "강남구",
      "id": 141
    },
    {
      "name": "파파존스 세종1호점",
      "address": "세종특별자치시 종촌동 660 104호",
      "contact": "0448652585",
      "lat": "36.5048058077585",
      "lng": "127.24890723718",
      "region": "세종특별자치시",
      "district": "종촌동",
      "id": 142
    },
    {
      "name": "파파존스 세종2호점",
      "address": "세종특별자치시 대평동 142-1 판타지타워 103호",
      "contact": "0448651320",
      "lat": "36.4721539",
      "lng": "127.2783677",
      "region": "세종특별자치시",
      "district": "대평동",
      "id": 143
    },
    {
      "name": "파파존스 센텀시티점",
      "address": "부산광역시 해운대구 우동(우제2동) 대우월드마크센텀 상가 B동 210호",
      "contact": "0517471084",
      "lat": "35.1715043",
      "lng": "129.1314225",
      "region": "부산광역시",
      "district": "해운대구",
      "id": 144
    },
    {
      "name": "파파존스 속초점",
      "address": "강원도 속초시 수복로 11, 101호",
      "contact": "0336378082",
      "lat": "38.1940678",
      "lng": "128.574890",
      "region": "강원도",
      "district": "속초시",
      "id": 145
    },
    {
      "name": "파파존스 송도국제도시점",
      "address": "인천광역시 연수구 송도과학로28번길 50, 1층 120호(송도동, 더샵송도트리플타워 West)",
      "contact": "0328218881",
      "lat": "37.3793249",
      "lng": "126.657659",
      "region": "인천광역시",
      "district": "연수구",
      "id": 146
    },
    {
      "name": "파파존스 송파구청점",
      "address": "서울특별시 송파구 송파동(송파1동) 58-1",
      "contact": "024121472",
      "lat": "37.5115453",
      "lng": "127.1081869",
      "region": "서울특별시",
      "district": "송파구",
      "id": 147
    },
    {
      "name": "파파존스 수내점",
      "address": "경기도 성남시 분당구 정자동 46-1 2층",
      "contact": "0317262842",
      "lat": "37.3732268",
      "lng": "127.1143293",
      "region": "경기도",
      "district": "성남시",
      "id": 148
    },
    {
      "name": "파파존스 수서점",
      "address": "서울특별시 강남구 일원동(일원본동) 722",
      "contact": "0234140160",
      "lat": "37.4828799",
      "lng": "127.0796195",
      "region": "서울특별시",
      "district": "강남구",
      "id": 149
    },
    {
      "name": "파파존스 수원정자점",
      "address": "경기도 수원시 장안구 정자동(정자3동) 874-1",
      "contact": "0312698585",
      "lat": "37.2969626",
      "lng": "126.9953645",
      "region": "경기도",
      "district": "수원시",
      "id": 150
    },
    {
      "name": "파파존스 수원중앙점",
      "address": "경기도 수원시 팔달구 수원천로 292 1층",
      "contact": "0312529773",
      "lat": "37.2795208",
      "lng": "127.018917",
      "region": "경기도",
      "district": "수원시",
      "id": 151
    },
    {
      "name": "파파존스 수유점",
      "address": "서울특별시 강북구 삼각산로 141-1, 1층(수유동)",
      "contact": "029998090",
      "lat": "37.6412298",
      "lng": "127.020010",
      "region": "서울특별시",
      "district": "강북구",
      "id": 152
    },
    {
      "name": "파파존스 수지점",
      "address": "경기도 용인시 수지구 동천동(동천동) 946-7",
      "contact": "0312728700",
      "lat": "37.3355341",
      "lng": "127.0903266",
      "region": "경기도",
      "district": "용인시",
      "id": 153
    },
    {
      "name": "파파존스 숙대점",
      "address": "서울특별시 용산구 원효로2가 1-37",
      "contact": "027197707",
      "lat": "37.5377393",
      "lng": "126.9665244",
      "region": "서울특별시",
      "district": "용산구",
      "id": 154
    },
    {
      "name": "파파존스 시흥은행점",
      "address": "경기도 시흥시 은행로 86, 1층 106호(은행동, 경동프라자)",
      "contact": "0313136995",
      "lat": "37.439254",
      "lng": "126.797136",
      "region": "경기도",
      "district": "시흥시",
      "id": 155
    },
    {
      "name": "파파존스 시흥장현점",
      "address": "경기도 시흥시 승지로 69번길 11 1층, 103호 (능곡동)",
      "contact": "0313111577",
      "lat": "37.3706043",
      "lng": "126.809349",
      "region": "경기도",
      "district": "시흥시",
      "id": 156
    },
    {
      "name": "파파존스 신갈점",
      "address": "경기도 용인시 기흥구 구갈로 92",
      "contact": "0312878883",
      "lat": "37.2824694",
      "lng": "127.1115025",
      "region": "경기도",
      "district": "용인시",
      "id": 157
    },
    {
      "name": "파파존스 신길대방점",
      "address": "서울특별시 영등포구 신길동 4062번지 2층",
      "contact": "028488088",
      "lat": "37.498671958283",
      "lng": "126.916902142045",
      "region": "서울특별시",
      "district": "영등포구",
      "id": 158
    },
    {
      "name": "파파존스 신림점",
      "address": "서울특별시 금천구 남부순환로 1424",
      "contact": "028651424",
      "lat": "37.4804582",
      "lng": "126.908934",
      "region": "서울특별시",
      "district": "금천구",
      "id": 159
    },
    {
      "name": "파파존스 신월화곡점",
      "address": "서울특별시 양천구 가로공원로 128",
      "contact": "0226927070",
      "lat": "37.5358970",
      "lng": "126.8301398",
      "region": "서울특별시",
      "district": "양천구",
      "id": 160
    },
    {
      "name": "파파존스 신정점",
      "address": "서울특별시 양천구 신정동(신정1동) 1017-1",
      "contact": "0226515292",
      "lat": "37.5218388",
      "lng": "126.8612665",
      "region": "서울특별시",
      "district": "양천구",
      "id": 161
    },
    {
      "name": "파파존스 쌍문점",
      "address": "서울특별시 도봉구 쌍문동(쌍문제2동) 81-50",
      "contact": "029948080",
      "lat": "37.6524325",
      "lng": "127.0365572",
      "region": "서울특별시",
      "district": "도봉구",
      "id": 162
    },
    {
      "name": "파파존스 아산온양점",
      "address": "충청남도 아산시 온천대로 1632 2층",
      "contact": "0415488088",
      "lat": "36.778516",
      "lng": "127.018775",
      "region": "충청남도",
      "district": "아산시",
      "id": 163
    },
    {
      "name": "파파존스 안동점",
      "address": "경상북도 안동시 당북동 333-128",
      "contact": "0548588090",
      "lat": "36.5624221",
      "lng": "128.720437",
      "region": "경상북도",
      "district": "안동시",
      "id": 164
    },
    {
      "name": "파파존스 안산상록점",
      "address": "경기도 안산시 본오로 89-1",
      "contact": "0315028030",
      "lat": "37.2931406",
      "lng": "126.866229",
      "region": "경기도",
      "district": "안산시",
      "id": 165
    },
    {
      "name": "파파존스 안산선부점",
      "address": "경기도 안산시 단원구 선부동 961 103호",
      "contact": "0314818030",
      "lat": "37.3335660",
      "lng": "126.805528",
      "region": "경기도",
      "district": "안산시",
      "id": 166
    },
    {
      "name": "파파존스 안산점",
      "address": "경기도 안산시 단원구 초지동(초지동) 735",
      "contact": "0314108030",
      "lat": "37.3082346",
      "lng": "126.815242",
      "region": "경기도",
      "district": "안산시",
      "id": 167
    },
    {
      "name": "파파존스 안산중앙점",
      "address": "경기도 안산시 단원구 고잔로 72, 102호",
      "contact": "0314818588",
      "lat": "37.3189413",
      "lng": "126.834233",
      "region": "경기도",
      "district": "안산시",
      "id": 168
    },
    {
      "name": "파파존스 안양만안점",
      "address": "경기도 안양시 만안구 태평로 52번길 47",
      "contact": "0314438089",
      "lat": "37.3963921",
      "lng": "126.9315828",
      "region": "경기도",
      "district": "안양시",
      "id": 169
    },
    {
      "name": "파파존스 압구정점",
      "address": "서울특별시 강남구 신사동 550-1 원영빌딩 2층",
      "contact": "025440893",
      "lat": "37.5238215",
      "lng": "127.023431",
      "region": "서울특별시",
      "district": "강남구",
      "id": 170
    },
    {
      "name": "파파존스 야탑점",
      "address": "경기도 성남시 분당구 야탑동(야탑1동) 382-4",
      "contact": "0317098071",
      "lat": "37.4119575",
      "lng": "127.1335831",
      "region": "경기도",
      "district": "성남시",
      "id": 171
    },
    {
      "name": "파파존스 약수점",
      "address": "서울특별시 중구 신당동(신당제3동) 373-12",
      "contact": "0222333905",
      "lat": "37.5538872",
      "lng": "127.0117358",
      "region": "서울특별시",
      "district": "중구",
      "id": 172
    },
    {
      "name": "파파존스 양산물금점",
      "address": "경상남도 양산시 물금읍 중산역로 146 1F 104호",
      "contact": "0553648081",
      "lat": "35.3094755",
      "lng": "129.0055269",
      "region": "경상남도",
      "district": "양산시",
      "id": 173
    },
    {
      "name": "파파존스 양주덕계점",
      "address": "경기도 양주시 회천중앙로 244, 105호",
      "contact": "0318618809",
      "lat": "37.8193858",
      "lng": "127.053298",
      "region": "경기도",
      "district": "양주시",
      "id": 174
    },
    {
      "name": "파파존스 양주옥정점",
      "address": "경기도 양주시 옥정동 963-13 109호",
      "contact": "0318638808",
      "lat": "37.819004",
      "lng": "127.092176",
      "region": "경기도",
      "district": "양주시",
      "id": 175
    },
    {
      "name": "파파존스 여수점",
      "address": "전라남도 여수시 학동 61-1 103호",
      "contact": "0616821577",
      "lat": "34.7613581",
      "lng": "127.656977",
      "region": "전라남도",
      "district": "여수시",
      "id": 176
    },
    {
      "name": "파파존스 여의도점",
      "address": "서울특별시 영등포구 여의도동(여의동) 54-2",
      "contact": "027828020",
      "lat": "37.5188734",
      "lng": "126.9319595",
      "region": "서울특별시",
      "district": "영등포구",
      "id": 177
    },
    {
      "name": "파파존스 역곡점",
      "address": "경기도 부천시 양지로40번길 양지빌딩 104/105호",
      "contact": "0323448088",
      "lat": "37.4764687",
      "lng": "126.8128583",
      "region": "경기도",
      "district": "부천시",
      "id": 178
    },
    {
      "name": "파파존스 역삼점",
      "address": "서울특별시 강남구 역삼로 246",
      "contact": "0232884382",
      "lat": "37.4975430",
      "lng": "127.043145",
      "region": "서울특별시",
      "district": "강남구",
      "id": 179
    },
    {
      "name": "파파존스 연신내점",
      "address": "서울특별시 은평구 불광제1동 528번지 1층",
      "contact": "023538015",
      "lat": "37.6272355",
      "lng": "126.9200939",
      "region": "서울특별시",
      "district": "은평구",
      "id": 180
    },
    {
      "name": "파파존스 연희점",
      "address": "서울특별시 서대문구 연희동(연희동) 341-1",
      "contact": "0231431181",
      "lat": "37.563202",
      "lng": "126.9310703",
      "region": "서울특별시",
      "district": "서대문구",
      "id": 181
    },
    {
      "name": "파파존스 염창점",
      "address": "서울특별시 강서구 등촌동(등촌제1동) 632-9",
      "contact": "0236658448",
      "lat": "37.5551717",
      "lng": "126.865180",
      "region": "서울특별시",
      "district": "강서구",
      "id": 182
    },
    {
      "name": "파파존스 영종운서점",
      "address": "인천광역시 중구 모랫말로 6-2 101호",
      "contact": "0327468089",
      "lat": "37.4893784",
      "lng": "126.495960",
      "region": "인천광역시",
      "district": "중구",
      "id": 183
    },
    {
      "name": "파파존스 영종하늘도시점",
      "address": "인천광역시 중구 하늘달빛로 70 116호 (메디피아 1층)",
      "contact": "0327528088",
      "lat": "37.4858937",
      "lng": "126.559413",
      "region": "인천광역시",
      "district": "중구",
      "id": 184
    },
    {
      "name": "파파존스 영통점",
      "address": "경기도 수원시 영통구 영통동(영통1동) 945-2",
      "contact": "0312028152",
      "lat": "37.2673085",
      "lng": "127.0813537",
      "region": "경기도",
      "district": "수원시",
      "id": 185
    },
    {
      "name": "파파존스 오금점",
      "address": "서울특별시 송파구 중대로 245 1층",
      "contact": "024070915",
      "lat": "37.5033739",
      "lng": "127.129066",
      "region": "서울특별시",
      "district": "송파구",
      "id": 186
    },
    {
      "name": "파파존스 오리죽전점",
      "address": "경기도 용인시 수지구 죽전동(죽전1동) 1176-1",
      "contact": "0318983782",
      "lat": "37.3319696",
      "lng": "127.120465",
      "region": "경기도",
      "district": "용인시",
      "id": 187
    },
    {
      "name": "파파존스 오산세교점",
      "address": "경기도 오산시 문헌공로 9 105호",
      "contact": "0313775100",
      "lat": "37.1748014",
      "lng": "127.051311",
      "region": "경기도",
      "district": "오산시",
      "id": 188
    },
    {
      "name": "파파존스 오산점",
      "address": "경기도 오산시 원동 757-27번지 1층",
      "contact": "0313768090",
      "lat": "37.1474918",
      "lng": "127.073396",
      "region": "경기도",
      "district": "오산시",
      "id": 189
    },
    {
      "name": "파파존스 오송조치원점",
      "address": "충청북도 청주시 흥덕구 오송읍 오송생명12로 31",
      "contact": "0432378288",
      "lat": "36.6204220",
      "lng": "127.319763",
      "region": "충청북도",
      "district": "청주시",
      "id": 190
    },
    {
      "name": "파파존스 옥수점",
      "address": "서울특별시 성동구 옥수동(옥수동) 517-29",
      "contact": "0222946111",
      "lat": "37.5453722",
      "lng": "127.0170077",
      "region": "서울특별시",
      "district": "성동구",
      "id": 191
    },
    {
      "name": "파파존스 온천사직점",
      "address": "부산광역시 동래구 충렬대로 107번길 65, 래미안 아이파크 상가 315동 105호",
      "contact": "0515538988",
      "lat": "35.2108676",
      "lng": "129.071938",
      "region": "부산광역시",
      "district": "동래구",
      "id": 192
    },
    {
      "name": "파파존스 왕십리점",
      "address": "서울특별시 성동구 응봉동(응봉동) 100",
      "contact": "0222960050",
      "lat": "37.5518919",
      "lng": "127.0332827",
      "region": "서울특별시",
      "district": "성동구",
      "id": 193
    },
    {
      "name": "파파존스 외대경희점",
      "address": "서울특별시 동대문구 이문로 83",
      "contact": "029698080",
      "lat": "37.5946046711623",
      "lng": "127.058818247863",
      "region": "서울특별시",
      "district": "동대문구",
      "id": 194
    },
    {
      "name": "파파존스 용인점",
      "address": "경기도 용인시 처인구 명지로 40번길 9 지석 프라자 1층 105호",
      "contact": "0313328804",
      "lat": "37.2322698",
      "lng": "127.187340",
      "region": "경기도",
      "district": "용인시",
      "id": 195
    },
    {
      "name": "파파존스 울산무거점",
      "address": "울산광역시 남구 북부순환도로 29",
      "contact": "0522248088",
      "lat": "35.5522078",
      "lng": "129.266639",
      "region": "울산광역시",
      "district": "남구",
      "id": 196
    },
    {
      "name": "파파존스 울산중구점",
      "address": "울산광역시 중구 번영로 442, 1층 101호(복산동)",
      "contact": "0522938801",
      "lat": "35.5619649",
      "lng": "129.332857",
      "region": "울산광역시",
      "district": "중구",
      "id": 197
    },
    {
      "name": "파파존스 원주점",
      "address": "강원도 원주시 단구동(단구동) 128-15",
      "contact": "0337648050",
      "lat": "37.3245002",
      "lng": "127.9595062",
      "region": "강원도",
      "district": "원주시",
      "id": 198
    },
    {
      "name": "파파존스 위례점",
      "address": "경기도 성남시 수정구 창곡동 546 204호",
      "contact": "0317590357",
      "lat": "37.4683425",
      "lng": "127.1401508",
      "region": "경기도",
      "district": "성남시",
      "id": 199
    },
    {
      "name": "파파존스 은평점",
      "address": "서울특별시 서대문구 응암로 133 102호 (대경아르체아파트 1층)",
      "contact": "023048857",
      "lat": "37.5846533",
      "lng": "126.914172",
      "region": "서울특별시",
      "district": "서대문구",
      "id": 200
    },
    {
      "name": "파파존스 을지로점",
      "address": "서울특별시 중구 필동2가 10 충무빌딩 1층",
      "contact": "0222658236",
      "lat": "37.5614396",
      "lng": "126.9939354",
      "region": "서울특별시",
      "district": "중구",
      "id": 201
    },
    {
      "name": "파파존스 의왕호계점",
      "address": "경기도 안양시 동안구 호계동 959-14 2층",
      "contact": "0314274343",
      "lat": "37.3710953234836",
      "lng": "126.957506961207",
      "region": "경기도",
      "district": "안양시",
      "id": 202
    },
    {
      "name": "파파존스 의정부민락점",
      "address": "경기도 의정부시 용민로 192 웅신프라자 113호",
      "contact": "0318528089",
      "lat": "37.7456881",
      "lng": "127.0936166",
      "region": "경기도",
      "district": "의정부시",
      "id": 203
    },
    {
      "name": "파파존스 의정부점",
      "address": "경기도 의정부시 신흥로 193",
      "contact": "0318768088",
      "lat": "37.7334537",
      "lng": "127.0432391",
      "region": "경기도",
      "district": "의정부시",
      "id": 204
    },
    {
      "name": "파파존스 의정부호원점",
      "address": "경기도 의정부시 회룡로 178 1층 116호",
      "contact": "0318368089",
      "lat": "37.7263725",
      "lng": "127.0534967",
      "region": "경기도",
      "district": "의정부시",
      "id": 205
    },
    {
      "name": "파파존스 이대아현점",
      "address": "서울특별시 서대문구 북아현동 251-50번지 2층",
      "contact": "023628255",
      "lat": "37.557203",
      "lng": "126.9491494",
      "region": "서울특별시",
      "district": "서대문구",
      "id": 206
    },
    {
      "name": "파파존스 이천점",
      "address": "경기도 이천시 구만리로 191 롯데캐슬 골드스카이 R110호",
      "contact": "0316378657",
      "lat": "37.2746358",
      "lng": "127.454618",
      "region": "경기도",
      "district": "이천시",
      "id": 207
    },
    {
      "name": "파파존스 이태원점",
      "address": "서울특별시 용산구 우사단로33, 2층",
      "contact": "027908084",
      "lat": "37.5332091",
      "lng": "126.9954245",
      "region": "서울특별시",
      "district": "용산구",
      "id": 208
    },
    {
      "name": "파파존스 인천간석점",
      "address": "인천광역시 남동구 간석동 895",
      "contact": "0324248080",
      "lat": "37.4654595",
      "lng": "126.692905",
      "region": "인천광역시",
      "district": "남동구",
      "id": 209
    },
    {
      "name": "파파존스 인천검단점",
      "address": "인천광역시 서구 당하동 1092-10",
      "contact": "0325617872",
      "lat": "37.5932481",
      "lng": "126.676413",
      "region": "인천광역시",
      "district": "서구",
      "id": 210
    },
    {
      "name": "파파존스 인천계양점",
      "address": "인천광역시 계양구 계양문화로 119 108호",
      "contact": "0325565300",
      "lat": "37.5419743",
      "lng": "126.7382176",
      "region": "인천광역시",
      "district": "계양구",
      "id": 211
    },
    {
      "name": "파파존스 인천구월점",
      "address": "인천광역시 남동구 구월남로 216(가나프라자 8,9호)",
      "contact": "0324610369",
      "lat": "37.4525098",
      "lng": "126.713426",
      "region": "인천광역시",
      "district": "남동구",
      "id": 212
    },
    {
      "name": "파파존스 인천논현점",
      "address": "인천광역시 남동구 논현동(논현고잔동) 751-1",
      "contact": "0324250140",
      "lat": "37.40002",
      "lng": "126.7337687",
      "region": "인천광역시",
      "district": "남동구",
      "id": 213
    },
    {
      "name": "파파존스 인천삼산점",
      "address": "인천광역시 부평구 장제로 220 1층",
      "contact": "0325158008",
      "lat": "37.5051279",
      "lng": "126.7313857",
      "region": "인천광역시",
      "district": "부평구",
      "id": 214
    },
    {
      "name": "파파존스 인천서구점",
      "address": "인천광역시 서구 여우재로 119, 인천가좌두산위브트레지움 상가 101호",
      "contact": "0325778288",
      "lat": "37.4886299",
      "lng": "126.6843153",
      "region": "인천광역시",
      "district": "서구",
      "id": 215
    },
    {
      "name": "파파존스 인천서창점",
      "address": "인천광역시 남동구 서창방산로 55 서창비젼프라자 108호",
      "contact": "0324648295",
      "lat": "37.422466",
      "lng": "126.750681",
      "region": "인천광역시",
      "district": "남동구",
      "id": 216
    },
    {
      "name": "파파존스 인천송도점",
      "address": "인천광역시 연수구 컨벤시아대로 69 밀레니엄빌딩 2층 207호 (송도동 3-1)",
      "contact": "0328338081",
      "lat": "37.3956507",
      "lng": "126.6509144",
      "region": "인천광역시",
      "district": "연수구",
      "id": 217
    },
    {
      "name": "파파존스 인천연수점",
      "address": "인천광역시 연수구 청학동 503-4 112호",
      "contact": "0328218081",
      "lat": "37.4143527",
      "lng": "126.6757103",
      "region": "인천광역시",
      "district": "연수구",
      "id": 218
    },
    {
      "name": "파파존스 인천원당점",
      "address": "인천광역시 서구 원당대로 865 101호",
      "contact": "0325618840",
      "lat": "37.5938635",
      "lng": "126.697732",
      "region": "인천광역시",
      "district": "서구",
      "id": 219
    },
    {
      "name": "파파존스 인천주안점",
      "address": "인천광역시 미추홀구 인주대로 395 1층 1호",
      "contact": "0324217388",
      "lat": "37.4516468",
      "lng": "126.6804614",
      "region": "인천광역시",
      "district": "미추홀구",
      "id": 220
    },
    {
      "name": "파파존스 인하대점",
      "address": "인천광역시 미추홀구 독배로 384-1, 1층",
      "contact": "0328818080",
      "lat": "37.4540878",
      "lng": "126.6489809",
      "region": "인천광역시",
      "district": "미추홀구",
      "id": 221
    },
    {
      "name": "파파존스 일산서구점",
      "address": "경기도 고양시 일산서구 탄현동 174-42",
      "contact": "0319113015",
      "lat": "37.6928422908354",
      "lng": "126.763510481862",
      "region": "경기도",
      "district": "고양시",
      "id": 222
    },
    {
      "name": "파파존스 잠원점",
      "address": "서울특별시 서초구 잠원동(잠원동) 40-7",
      "contact": "025188088",
      "lat": "37.5107103",
      "lng": "127.0191601",
      "region": "서울특별시",
      "district": "서초구",
      "id": 223
    },
    {
      "name": "파파존스 장안점",
      "address": "서울특별시 동대문구 장안동(장안제2동) 312-5",
      "contact": "0222429601",
      "lat": "37.5764536",
      "lng": "127.0723154",
      "region": "서울특별시",
      "district": "동대문구",
      "id": 224
    },
    {
      "name": "파파존스 전남대점",
      "address": "광주광역시 북구 용봉동(용봉동) 161-6",
      "contact": "0622651122",
      "lat": "35.1751872",
      "lng": "126.9130012",
      "region": "광주광역시",
      "district": "북구",
      "id": 225
    },
    {
      "name": "파파존스 전북도청점",
      "address": "전라북도 전주시 완산구 홍산1길 7 SK리더스뷰 판매시설동 1층 116호",
      "contact": "0632368880",
      "lat": "35.8145363698203",
      "lng": "127.10778761037976",
      "region": "전라북도",
      "district": "전주시",
      "id": 226
    },
    {
      "name": "파파존스 전주점",
      "address": "전라북도 전주시 덕진구 금암동(금암1동) 664-43",
      "contact": "0632510880",
      "lat": "35.8415473",
      "lng": "127.1306012",
      "region": "전라북도",
      "district": "전주시",
      "id": 227
    },
    {
      "name": "파파존스 정발산점",
      "address": "경기도 고양시 일산동구 정발산동(정발산동) 1139-2",
      "contact": "0319168090",
      "lat": "37.6741925",
      "lng": "126.7766145",
      "region": "경기도",
      "district": "고양시",
      "id": 228
    },
    {
      "name": "파파존스 제주점",
      "address": "제주특별자치도 제주시 중앙로 386 1층",
      "contact": "0647258080",
      "lat": "33.4878722829685",
      "lng": "126.539871749688",
      "region": "제주특별자치도",
      "district": "제주시",
      "id": 229
    },
    {
      "name": "파파존스 중계점",
      "address": "서울특별시 노원구 중계동 366-6 그랜드프라자 2층",
      "contact": "0233928111",
      "lat": "37.6509769",
      "lng": "127.077163",
      "region": "서울특별시",
      "district": "노원구",
      "id": 230
    },
    {
      "name": "파파존스 중동점",
      "address": "경기도 부천시 부흥로 339 중동스타팰리움 103동 211호",
      "contact": "0326637051",
      "lat": "37.493979",
      "lng": "126.7807987",
      "region": "경기도",
      "district": "부천시",
      "id": 231
    },
    {
      "name": "파파존스 중화점",
      "address": "서울특별시 중랑구 중화동 283-1",
      "contact": "024348863",
      "lat": "37.605172",
      "lng": "127.0791162",
      "region": "서울특별시",
      "district": "중랑구",
      "id": 232
    },
    {
      "name": "파파존스 진주점",
      "address": "경상남도 진주시 동진로 238",
      "contact": "0557581577",
      "lat": "35.1797858",
      "lng": "128.117097",
      "region": "경상남도",
      "district": "진주시",
      "id": 233
    },
    {
      "name": "파파존스 진해점",
      "address": "경상남도 창원시 진해구 충장로 505, 2호",
      "contact": "0555479060",
      "lat": "35.144188",
      "lng": "128.7013218",
      "region": "경상남도",
      "district": "창원시",
      "id": 234
    },
    {
      "name": "파파존스 창원상남점",
      "address": "경상남도 창원시 성산구 마디미로3번길 17",
      "contact": "0552610970",
      "lat": "35.2229809",
      "lng": "128.6873601",
      "region": "경상남도",
      "district": "창원시",
      "id": 235
    },
    {
      "name": "파파존스 창원의창점",
      "address": "경상남도 창원시 의창구 태복산로 2",
      "contact": "0557168050",
      "lat": "35.2521668",
      "lng": "128.6391219",
      "region": "경상남도",
      "district": "창원시",
      "id": 236
    },
    {
      "name": "파파존스 천안두정점",
      "address": "충청남도 천안시 서북구 성정두정로 70 107호",
      "contact": "0415621577",
      "lat": "36.8319414",
      "lng": "127.1421678",
      "region": "충청남도",
      "district": "천안시",
      "id": 237
    },
    {
      "name": "파파존스 천안불당쌍용점",
      "address": "충청남도 천안시 서북구 번영로 100, 센트럴프라자 104호",
      "contact": "0415571577",
      "lat": "36.8101978",
      "lng": "127.1085198",
      "region": "충청남도",
      "district": "천안시",
      "id": 238
    },
    {
      "name": "파파존스 천안청수점",
      "address": "충청남도 천안시 동남구 청수로 127 대성빌딩 103호",
      "contact": "0415651577",
      "lat": "36.7940141",
      "lng": "127.1579376",
      "region": "충청남도",
      "district": "천안시",
      "id": 239
    },
    {
      "name": "파파존스 천호암사점",
      "address": "서울특별시 강동구 고덕로 81 1층",
      "contact": "0234268082",
      "lat": "37.5549499",
      "lng": "127.134473",
      "region": "서울특별시",
      "district": "강동구",
      "id": 240
    },
    {
      "name": "파파존스 철산점",
      "address": "경기도 광명시 철산동(철산3동) 637 푸르지오 하늘채상가 207호,208호",
      "contact": "0226810140",
      "lat": "37.4725892",
      "lng": "126.8685588",
      "region": "경기도",
      "district": "광명시",
      "id": 241
    },
    {
      "name": "파파존스 청담점",
      "address": "서울특별시 강남구 삼성동(삼성1동) 53-2",
      "contact": "025468763",
      "lat": "37.5187103",
      "lng": "127.0521247",
      "region": "서울특별시",
      "district": "강남구",
      "id": 242
    },
    {
      "name": "파파존스 청라점",
      "address": "인천광역시 서구 중봉대로586번길 22 청라풍림엑슬루타워 판매시설A동 1층 A109호",
      "contact": "0322178080",
      "lat": "37.53131",
      "lng": "126.6515484",
      "region": "인천광역시",
      "district": "서구",
      "id": 243
    },
    {
      "name": "파파존스 청주가경점",
      "address": "충청북도 청주시 흥덕구 풍산로 59-1, 1층(가경동)",
      "contact": "0432332279",
      "lat": "36.6278553",
      "lng": "127.436871",
      "region": "충청북도",
      "district": "청주시",
      "id": 244
    },
    {
      "name": "파파존스 청주산남점",
      "address": "충청북도 청주시 서원구 산남로 18",
      "contact": "0432878188",
      "lat": "36.6119075",
      "lng": "127.471880",
      "region": "충청북도",
      "district": "청주시",
      "id": 245
    },
    {
      "name": "파파존스 청주용암점",
      "address": "충청북도 청주시 상당구 월평로 206",
      "contact": "0432923535",
      "lat": "36.6086919",
      "lng": "127.5064831",
      "region": "충청북도",
      "district": "청주시",
      "id": 246
    },
    {
      "name": "파파존스 청주율량점",
      "address": "충청북도 청주시 청원구 충청대로 98, 1층 103호(율량동, 한길빌딩)",
      "contact": "0432168288",
      "lat": "36.6649047",
      "lng": "127.493644",
      "region": "충청북도",
      "district": "청주시",
      "id": 247
    },
    {
      "name": "파파존스 춘천점",
      "address": "강원도 춘천시 후평동 702번지 1층",
      "contact": "0332518070",
      "lat": "37.8814032",
      "lng": "127.7491547",
      "region": "강원도",
      "district": "춘천시",
      "id": 248
    },
    {
      "name": "파파존스 충주점",
      "address": "충청북도 충주시 칠금중앙로 53",
      "contact": "0438518088",
      "lat": "36.9820820",
      "lng": "127.920816",
      "region": "충청북도",
      "district": "충주시",
      "id": 249
    },
    {
      "name": "파파존스 파주교하점",
      "address": "경기도 파주시 책향기로 245",
      "contact": "0319579966",
      "lat": "37.7201962",
      "lng": "126.715013",
      "region": "경기도",
      "district": "파주시",
      "id": 250
    },
    {
      "name": "파파존스 파주금촌점",
      "address": "경기도 파주시 중앙로 191(금릉동)",
      "contact": "0319470746",
      "lat": "37.7544780",
      "lng": "126.782330",
      "region": "경기도",
      "district": "파주시",
      "id": 251
    },
    {
      "name": "파파존스 파주운정점",
      "address": "경기도 파주시 청암로 17번길33 현대메디컬빌딩 202호",
      "contact": "0319418447",
      "lat": "37.7287093",
      "lng": "126.7363864",
      "region": "경기도",
      "district": "파주시",
      "id": 252
    },
    {
      "name": "파파존스 판교2테크노밸리점",
      "address": "경기도 성남시 수정구 창업로 17 판교아이스퀘어 F동 B102호",
      "contact": "0317559080",
      "lat": "37.4121316",
      "lng": "127.097780",
      "region": "경기도",
      "district": "성남시",
      "id": 253
    },
    {
      "name": "파파존스 판교점",
      "address": "경기도 성남시 분당구 판교동 512번지 2층",
      "contact": "0317099492",
      "lat": "37.3997904",
      "lng": "127.0951875",
      "region": "경기도",
      "district": "성남시",
      "id": 254
    },
    {
      "name": "파파존스 평창대관령점",
      "address": "강원도 평창군 송천길 30 (AM호텔 1층  106호)",
      "contact": "0333330529",
      "lat": "37.670933",
      "lng": "128.7114871",
      "region": "강원도",
      "district": "평창군",
      "id": 255
    },
    {
      "name": "파파존스 평촌점",
      "address": "경기도 안양시 동안구 평촌동(귀인동) 922",
      "contact": "0313812744",
      "lat": "37.3836443",
      "lng": "126.9606267",
      "region": "경기도",
      "district": "안양시",
      "id": 256
    },
    {
      "name": "파파존스 평택고덕점",
      "address": "경기도 평택시 고덕국제3길 14",
      "contact": "0316658855",
      "lat": "37.0489791",
      "lng": "127.047248",
      "region": "경기도",
      "district": "평택시",
      "id": 257
    },
    {
      "name": "파파존스 평택대점",
      "address": "경기도 평택시 서동대로 3867",
      "contact": "0316583350",
      "lat": "36.9939003",
      "lng": "127.136657",
      "region": "경기도",
      "district": "평택시",
      "id": 258
    },
    {
      "name": "파파존스 평택점",
      "address": "경기도 평택시 비전동 1015번지 엘도라도시티 201호",
      "contact": "0316518081",
      "lat": "37.0041069",
      "lng": "127.1032326",
      "region": "경기도",
      "district": "평택시",
      "id": 259
    },
    {
      "name": "파파존스 포항남구점",
      "address": "경상북도 포항시 이동 652-5번지 1층",
      "contact": "0542758090",
      "lat": "36.0298356",
      "lng": "129.3390336",
      "region": "경상북도",
      "district": "포항시",
      "id": 260
    },
    {
      "name": "파파존스 하남점",
      "address": "경기도 하남시 신장동 589-5 101호",
      "contact": "0317948081",
      "lat": "37.5434626",
      "lng": "127.2121949",
      "region": "경기도",
      "district": "하남시",
      "id": 261
    },
    {
      "name": "파파존스 한솔오크밸리점",
      "address": "강원도 원주시 지정면 판대리 557-1 콘도C동 1층",
      "contact": "0337439990",
      "lat": "37.4065281",
      "lng": "127.800553",
      "region": "강원도",
      "district": "원주시",
      "id": 262
    },
    {
      "name": "파파존스 해운대점",
      "address": "부산광역시 해운대구 해운대해변로 163, 현대베네시티 상가동 110호",
      "contact": "0517472305",
      "lat": "35.1585436",
      "lng": "129.1506795",
      "region": "부산광역시",
      "district": "해운대구",
      "id": 263
    },
    {
      "name": "파파존스 호평평내점",
      "address": "경기도 남양주시 호평로 33",
      "contact": "0315944298",
      "lat": "37.6561713",
      "lng": "127.2433051",
      "region": "경기도",
      "district": "남양주시",
      "id": 264
    },
    {
      "name": "파파존스 홍대점",
      "address": "서울특별시 마포구 상수동 309-3번지 2층",
      "contact": "023249130",
      "lat": "37.5479214",
      "lng": "126.9237638",
      "region": "서울특별시",
      "district": "마포구",
      "id": 265
    },
    {
      "name": "파파존스 홍제상명대점",
      "address": "서울특별시 종로구 홍지문길 2",
      "contact": "023798805",
      "lat": "37.6000867",
      "lng": "126.9574299",
      "region": "서울특별시",
      "district": "종로구",
      "id": 266
    },
    {
      "name": "파파존스 화곡점",
      "address": "서울특별시 강서구 화곡동 24-200 1층",
      "contact": "0226058855",
      "lat": "37.5443722",
      "lng": "126.846054",
      "region": "서울특별시",
      "district": "강서구",
      "id": 267
    },
    {
      "name": "파파존스 화성남양점",
      "address": "경기도 화성시 남양읍 남양로 675, 1층 102호 (센트럴 큐브시티)",
      "contact": "0313578087",
      "lat": "37.198674",
      "lng": "126.826333",
      "region": "경기도",
      "district": "화성시",
      "id": 268
    },
    {
      "name": "파파존스 화성봉담점",
      "address": "경기도 화성시 봉담읍 참샘길 33 106호 파파존스 화성봉담점",
      "contact": "0312345577",
      "lat": "37.2146007",
      "lng": "126.9742106",
      "region": "경기도",
      "district": "화성시",
      "id": 269
    },
    {
      "name": "파파존스 화성향남점",
      "address": "경기도 경기도 화성시 향남읍 행정서로 32",
      "contact": "0313528255",
      "lat": "37.1259614",
      "lng": "126.915083",
      "region": "경기도",
      "district": "경기도",
      "id": 270
    },
    {
      "name": "파파존스 화정점",
      "address": "경기도 고양시 덕양구 화정동(화정2동) 1148-1",
      "contact": "0319383101",
      "lat": "37.627528",
      "lng": "126.8289321",
      "region": "경기도",
      "district": "고양시",
      "id": 271
    }
  ]
}