{
  "meta": {
    "brand_id": "6afc269234e74988a63d2f34dc419c34",
    "brand_name": "피자헛",
    "totalCount": 254,
    "extractedAt": "2026-03-17T07:30:00.403Z",
    "sourceUrl": "https://www.pizzahut.co.kr/misc/store"
  },
  "stores": [
    {
      "id": 1,
      "name": "피자헛 독립문역점",
      "address": "서울특별시 종로구 송월길 155, 상가동 4102호",
      "contact": "02-739-9025",
      "lat": "37.572869",
      "lng": "126.959844",
      "region": "서울특별시",
      "district": "종로구"
    },
    {
      "id": 2,
      "name": "피자헛 을지로본점",
      "address": "서울특별시 중구 마른내로 71(PJ호텔 1층)",
      "contact": "070-7600-4397",
      "lat": "37.565038",
      "lng": "126.995719",
      "region": "서울특별시",
      "district": "중구"
    },
    {
      "id": 3,
      "name": "피자헛 공덕점",
      "address": "서울특별시 마포구 만리재로 33, 2층",
      "contact": "02-2078-2113",
      "lat": "37.544816",
      "lng": "126.954793",
      "region": "서울특별시",
      "district": "마포구"
    },
    {
      "id": 4,
      "name": "피자헛 창신점",
      "address": "서울특별시 종로구 숭인동 61-61",
      "contact": "02-764-7485",
      "lat": "37.576259",
      "lng": "127.015725",
      "region": "서울특별시",
      "district": "종로구"
    },
    {
      "id": 5,
      "name": "피자헛 신수점",
      "address": "서울특별시 마포구 창전로 38, 1층 피자헛",
      "contact": "02-2078-2174",
      "lat": "37.54581",
      "lng": "126.932058",
      "region": "서울특별시",
      "district": "마포구"
    },
    {
      "id": 6,
      "name": "피자헛 금호사거리점",
      "address": "서울특별시 성동구 금호동1가 1801-3 1층",
      "contact": "02-2297-9116",
      "lat": "37.548811",
      "lng": "127.026083",
      "region": "서울특별시",
      "district": "성동구"
    },
    {
      "id": 7,
      "name": "피자헛 한남역점",
      "address": "서울특별시 용산구 한남동 107-10 1층",
      "contact": "02-7968-3532",
      "lat": "37.531005",
      "lng": "127.00733",
      "region": "서울특별시",
      "district": "용산구"
    },
    {
      "id": 8,
      "name": "피자헛 왕십리한양대점",
      "address": "서울특별시 성동구 왕십리로 259",
      "contact": "02-3395-5456",
      "lat": "37.558232",
      "lng": "127.038432",
      "region": "서울특별시",
      "district": "성동구"
    },
    {
      "id": 9,
      "name": "피자헛 응암본점",
      "address": "서울특별시 은평구 응암동 678-1",
      "contact": "02-373-1066",
      "lat": "37.586242",
      "lng": "126.921698",
      "region": "서울특별시",
      "district": "은평구"
    },
    {
      "id": 10,
      "name": "피자헛 성산3호점",
      "address": "서울특별시 마포구 성산동 108-4",
      "contact": "02-338-5589",
      "lat": "37.563253",
      "lng": "126.913941",
      "region": "서울특별시",
      "district": "마포구"
    },
    {
      "id": 11,
      "name": "피자헛 홍대서교점",
      "address": "서울특별시 마포구 서교동 481-2 태복빌딩",
      "contact": "02-3141-4053",
      "lat": "37.55457",
      "lng": "126.914601",
      "region": "서울특별시",
      "district": "마포구"
    },
    {
      "id": 12,
      "name": "피자헛 불광역점",
      "address": "서울특별시 은평구 녹번동 2",
      "contact": "02-354-5538",
      "lat": "37.610299",
      "lng": "126.939058",
      "region": "서울특별시",
      "district": "은평구"
    },
    {
      "id": 13,
      "name": "피자헛 압구정역점",
      "address": "서울특별시 강남구 신사동 577-7",
      "contact": "02-3448-5523",
      "lat": "37.525229",
      "lng": "127.027349",
      "region": "서울특별시",
      "district": "강남구"
    },
    {
      "id": 14,
      "name": "피자헛 삼양점",
      "address": "서울특별시 강북구 삼양로27길 19",
      "contact": "02-989-9132",
      "lat": "37.616126",
      "lng": "127.021745",
      "region": "서울특별시",
      "district": "강북구"
    },
    {
      "id": 15,
      "name": "피자헛 동덕여대본점",
      "address": "서울특별시 성북구 화랑로 104",
      "contact": "02-909-2588",
      "lat": "37.603302",
      "lng": "127.043314",
      "region": "서울특별시",
      "district": "성북구"
    },
    {
      "id": 16,
      "name": "피자헛 상암DMC점",
      "address": "서울특별시 은평구 수색로 217",
      "contact": "02-375-4075",
      "lat": "37.579605",
      "lng": "126.898716",
      "region": "서울특별시",
      "district": "은평구"
    },
    {
      "id": 17,
      "name": "피자헛 대방점",
      "address": "서울특별시 동작구 대방동 341-4",
      "contact": "02-825-8400",
      "lat": "37.511954",
      "lng": "126.925539",
      "region": "서울특별시",
      "district": "동작구"
    },
    {
      "id": 18,
      "name": "피자헛 장안동점",
      "address": "서울특별시 동대문구 답십리로72길 66 1층",
      "contact": "02-2249-9215",
      "lat": "37.569359",
      "lng": "127.073074",
      "region": "서울특별시",
      "district": "동대문구"
    },
    {
      "id": 19,
      "name": "피자헛 서초교대역점",
      "address": "서울특별시 서초구 서초동 1689-2",
      "contact": "02-3477-7960",
      "lat": "37.49524",
      "lng": "127.018072",
      "region": "서울특별시",
      "district": "서초구"
    },
    {
      "id": 20,
      "name": "피자헛 양평동점",
      "address": "서울특별시 영등포구 당산동1가 53-4",
      "contact": "02-2633-0036",
      "lat": "37.521323",
      "lng": "126.897651",
      "region": "서울특별시",
      "district": "영등포구"
    },
    {
      "id": 21,
      "name": "피자헛 월계2호점",
      "address": "서울특별시 성북구 장위3동 165-3번지 1층",
      "contact": "02-902-2777",
      "lat": "37.621812",
      "lng": "127.051528",
      "region": "서울특별시",
      "district": "성북구"
    },
    {
      "id": 22,
      "name": "피자헛 사당점",
      "address": "서울특별시 동작구 사당로 189",
      "contact": "02-3482-8353",
      "lat": "37.485561",
      "lng": "126.96962",
      "region": "서울특별시",
      "district": "동작구"
    },
    {
      "id": 23,
      "name": "피자헛 보라매점",
      "address": "서울특별시 동작구 대방동 400-3번지",
      "contact": "02-824-8133",
      "lat": "37.499402",
      "lng": "126.920614",
      "region": "서울특별시",
      "district": "동작구"
    },
    {
      "id": 24,
      "name": "피자헛 목동중앙점",
      "address": "서울특별시 양천구 목동 908-34 부영그린타운3차109,110호",
      "contact": "02-2655-0838",
      "lat": "37.536694",
      "lng": "126.882198",
      "region": "서울특별시",
      "district": "양천구"
    },
    {
      "id": 25,
      "name": "피자헛 군자2호점",
      "address": "서울특별시 광진구 중곡동 162-12",
      "contact": "02-468-1560",
      "lat": "37.560303",
      "lng": "127.080943",
      "region": "서울특별시",
      "district": "광진구"
    },
    {
      "id": 26,
      "name": "피자헛 수유리2호점",
      "address": "서울특별시 강북구 수유동 322-13",
      "contact": "02-999-4100",
      "lat": "37.646009",
      "lng": "127.015519",
      "region": "서울특별시",
      "district": "강북구"
    },
    {
      "id": 27,
      "name": "피자헛 은평뉴타운점",
      "address": "서울특별시 은평구 진관3로37 (진관동, 에코테라스 106호)",
      "contact": "02-389-8687",
      "lat": "37.638342",
      "lng": "126.919237",
      "region": "서울특별시",
      "district": "은평구"
    },
    {
      "id": 28,
      "name": "피자헛 구의점",
      "address": "서울특별시 광진구 아차산로 431 강변SK뷰 102동 102호",
      "contact": "02-455-5138",
      "lat": "37.538732",
      "lng": "127.090303",
      "region": "서울특별시",
      "district": "광진구"
    },
    {
      "id": 29,
      "name": "피자헛 교육장(주문불가)",
      "address": "서울특별시 강남구 대치동 976-2 원영빌딩 6층, 7층",
      "contact": null,
      "lat": "37.500983",
      "lng": "127.06283",
      "region": "서울특별시",
      "district": "강남구"
    },
    {
      "id": 30,
      "name": "피자헛 공릉본점",
      "address": "서울특별시 노원구 공릉동 379-3",
      "contact": "02-975-0541",
      "lat": "37.626886",
      "lng": "127.071089",
      "region": "서울특별시",
      "district": "노원구"
    },
    {
      "id": 31,
      "name": "피자헛 대치동점",
      "address": "서울특별시 강남구 도곡로 532",
      "contact": "02-3453-8078",
      "lat": "37.499771",
      "lng": "127.064533",
      "region": "서울특별시",
      "district": "강남구"
    },
    {
      "id": 32,
      "name": "피자헛 난곡2호점",
      "address": "서울특별시 관악구 신림동 1570-9",
      "contact": "02-855-7011",
      "lat": "37.482177",
      "lng": "126.918364",
      "region": "서울특별시",
      "district": "관악구"
    },
    {
      "id": 33,
      "name": "피자헛 신구로점",
      "address": "서울특별시 구로구 구로동 97-3 1층",
      "contact": "02-836-3492",
      "lat": "37.496379",
      "lng": "126.891618",
      "region": "서울특별시",
      "district": "구로구"
    },
    {
      "id": 34,
      "name": "피자헛 신림점",
      "address": "서울특별시 관악구 신림로 136, 1층",
      "contact": "02-889-9787",
      "lat": "37.47171",
      "lng": "126.934672",
      "region": "서울특별시",
      "district": "관악구"
    },
    {
      "id": 35,
      "name": "피자헛 망우사거리점",
      "address": "서울특별시 중랑구 망우로 431",
      "contact": "02-496-8814",
      "lat": "37.599998",
      "lng": "127.100021",
      "region": "서울특별시",
      "district": "중랑구"
    },
    {
      "id": 36,
      "name": "피자헛 개포중앙점",
      "address": "서울특별시 강남구 개포로 238, 106~7호",
      "contact": "02-571-2327",
      "lat": "37.478745",
      "lng": "127.04856",
      "region": "서울특별시",
      "district": "강남구"
    },
    {
      "id": 37,
      "name": "피자헛 노원점",
      "address": "서울특별시 노원구 상계동 751-4",
      "contact": "02-935-5143",
      "lat": "37.652098",
      "lng": "127.065473",
      "region": "서울특별시",
      "district": "노원구"
    },
    {
      "id": 38,
      "name": "피자헛 고양삼송점",
      "address": "경기도 고양시 덕양구 삼송동 74-1",
      "contact": "070-7843-1286",
      "lat": "37.652904",
      "lng": "126.89053",
      "region": "경기도",
      "district": "고양시"
    },
    {
      "id": 39,
      "name": "피자헛 까치산2호점",
      "address": "서울특별시 강서구 화곡동 921-22",
      "contact": "02-2694-8383",
      "lat": "37.53005",
      "lng": "126.840928",
      "region": "서울특별시",
      "district": "강서구"
    },
    {
      "id": 40,
      "name": "피자헛 중계본점",
      "address": "서울특별시 노원구 중계동 430-37",
      "contact": "02-931-0613",
      "lat": "37.656996",
      "lng": "127.074123",
      "region": "서울특별시",
      "district": "노원구"
    },
    {
      "id": 41,
      "name": "피자헛 개봉2호점",
      "address": "서울특별시 구로구 개봉동 353-14 2층",
      "contact": "02-2682-5523",
      "lat": "37.497077",
      "lng": "126.856187",
      "region": "서울특별시",
      "district": "구로구"
    },
    {
      "id": 42,
      "name": "피자헛 신정푸른마을점",
      "address": "서울특별시 양천구 신정로11길 64",
      "contact": "02-2066-7458",
      "lat": "37.512253",
      "lng": "126.837504",
      "region": "서울특별시",
      "district": "양천구"
    },
    {
      "id": 43,
      "name": "피자헛 구리교문점",
      "address": "경기도 구리시 교문동 754-9",
      "contact": "031-554-1505",
      "lat": "37.593545",
      "lng": "127.131603",
      "region": "경기도",
      "district": "구리시"
    },
    {
      "id": 44,
      "name": "피자헛 방이점",
      "address": "서울특별시 송파구 방이동 160번지 1층",
      "contact": "02-443-2123",
      "lat": "37.512436",
      "lng": "127.119834",
      "region": "서울특별시",
      "district": "송파구"
    },
    {
      "id": 45,
      "name": "피자헛 수락산역점",
      "address": "서울특별시 노원구 동일로 1665",
      "contact": "02-3392-2103",
      "lat": "37.677147",
      "lng": "127.054753",
      "region": "서울특별시",
      "district": "노원구"
    },
    {
      "id": 46,
      "name": "피자헛 마곡점",
      "address": "서울특별시 강서구 마곡동 747 마곡엠밸리10단지",
      "contact": "02-2665-2248",
      "lat": "37.560071",
      "lng": "126.819368",
      "region": "서울특별시",
      "district": "강서구"
    },
    {
      "id": 47,
      "name": "피자헛 금천시흥점",
      "address": "서울특별시 금천구 은행나무로 43",
      "contact": "02-807-5551",
      "lat": "37.450981",
      "lng": "126.907302",
      "region": "서울특별시",
      "district": "금천구"
    },
    {
      "id": 48,
      "name": "피자헛 강동3호점",
      "address": "서울특별시 강동구 천호동 151-2",
      "contact": "02-487-6510",
      "lat": "37.538419",
      "lng": "127.135566",
      "region": "서울특별시",
      "district": "강동구"
    },
    {
      "id": 49,
      "name": "피자헛 구리갈매점",
      "address": "경기도 구리시 경춘북로 252, 갈매역아이파크 애비뉴 B동 134호",
      "contact": "031-575-7005",
      "lat": "37.633777",
      "lng": "127.11828",
      "region": "경기도",
      "district": "구리시"
    },
    {
      "id": 50,
      "name": "피자헛 오류점",
      "address": "서울특별시 구로구 오류동 44-10",
      "contact": "02-2614-3939",
      "lat": "37.494347",
      "lng": "126.84095",
      "region": "서울특별시",
      "district": "구로구"
    },
    {
      "id": 51,
      "name": "피자헛 강남자곡점",
      "address": "서울특별시 강남구 자곡로 108",
      "contact": "02-3414-6688",
      "lat": "37.47202",
      "lng": "127.095372",
      "region": "서울특별시",
      "district": "강남구"
    },
    {
      "id": 52,
      "name": "피자헛 고양덕양점",
      "address": "경기도 고양시 덕양구 화정동 1002-7",
      "contact": "031-979-6130",
      "lat": "37.630435",
      "lng": "126.831053",
      "region": "경기도",
      "district": "고양시"
    },
    {
      "id": 53,
      "name": "피자헛 남양주별내점",
      "address": "경기도 남양주시 별내중앙로 58번길 30",
      "contact": "070-7843-3054",
      "lat": "37.647387",
      "lng": "127.124353",
      "region": "경기도",
      "district": "남양주시"
    },
    {
      "id": 54,
      "name": "피자헛 광명로데오점",
      "address": "경기도 광명시 소하로 94 1층 107호,108호",
      "contact": "02-2636-8080",
      "lat": "37.446507",
      "lng": "126.883496",
      "region": "경기도",
      "district": "광명시"
    },
    {
      "id": 55,
      "name": "피자헛 구리다산점",
      "address": "경기도 남양주시 미금로 31",
      "contact": "031-556-6464",
      "lat": "37.607822",
      "lng": "127.151724",
      "region": "경기도",
      "district": "남양주시"
    },
    {
      "id": 56,
      "name": "피자헛 가락문정점",
      "address": "서울특별시 송파구 새말로 141, 1층",
      "contact": "02-449-0709",
      "lat": "37.48401",
      "lng": "127.129472",
      "region": "서울특별시",
      "district": "송파구"
    },
    {
      "id": 57,
      "name": "피자헛 송파위례점",
      "address": "경기도 성남시 수정구 위례광장로 322 아이플렉스 1층",
      "contact": "031-721-5589",
      "lat": "37.471377",
      "lng": "127.14292",
      "region": "경기도",
      "district": "성남시"
    },
    {
      "id": 58,
      "name": "피자헛 김포고촌점",
      "address": "김포시 고촌읍 신곡리 1157",
      "contact": "031-989-9245",
      "lat": "37.602582",
      "lng": "126.77403",
      "region": "김포시",
      "district": "고촌읍"
    },
    {
      "id": 59,
      "name": "피자헛 의정부본점",
      "address": "경기도 의정부시 신흥로 95, 1층",
      "contact": "031-879-8003",
      "lat": "37.7245972",
      "lng": "127.0435635",
      "region": "경기도",
      "district": "의정부시"
    },
    {
      "id": 60,
      "name": "피자헛 안양평촌점",
      "address": "(부안중 건너편, 관양동 1123-1) 경기도 안양시 동안구 부림로 188 청용빌딩 1층",
      "contact": "031-388-4992",
      "lat": "37.399889",
      "lng": "126.961608",
      "region": "(부안중",
      "district": "건너편,"
    },
    {
      "id": 61,
      "name": "피자헛 신중동점",
      "address": "경기도 부천시 중동 1079-2 블래스랜드빌딩107호",
      "contact": "032-326-0182",
      "lat": "37.503317",
      "lng": "126.777831",
      "region": "경기도",
      "district": "부천시"
    },
    {
      "id": 62,
      "name": "피자헛 하남미사점",
      "address": "경기도 하남시 망월동 927 한강타워114,115호",
      "contact": "031-796-5512",
      "lat": "37.568829",
      "lng": "127.195067",
      "region": "경기도",
      "district": "하남시"
    },
    {
      "id": 63,
      "name": "피자헛 안양점",
      "address": "경기도 안양시 만안구 박달로 516, 1층",
      "contact": "031-441-1916",
      "lat": "37.402423",
      "lng": "126.909866",
      "region": "경기도",
      "district": "안양시"
    },
    {
      "id": 64,
      "name": "피자헛 성남종합운동장점",
      "address": "경기도 성남시 중원구 성남동 3304번지",
      "contact": "070-4282-0987",
      "lat": "37.432765",
      "lng": "127.135315",
      "region": "경기도",
      "district": "성남시"
    },
    {
      "id": 65,
      "name": "피자헛 남한산성2호점",
      "address": "경기도 성남시 중원구 금광2동 4842번지",
      "contact": "031-605-0082",
      "lat": "37.453743",
      "lng": "127.16118",
      "region": "경기도",
      "district": "성남시"
    },
    {
      "id": 66,
      "name": "피자헛 인천박촌점",
      "address": "인천광역시 계양구 동양로 11, 상가동 102호 (박촌동, 박촌풍림아이원)",
      "contact": "032-266-0111",
      "lat": "37.55692",
      "lng": "126.746612",
      "region": "인천광역시",
      "district": "계양구"
    },
    {
      "id": 67,
      "name": "피자헛 부천송내점",
      "address": "경기도 부천시 경인로 130",
      "contact": "032-665-0589",
      "lat": "37.483794",
      "lng": "126.76969",
      "region": "경기도",
      "district": "부천시"
    },
    {
      "id": 68,
      "name": "피자헛 하남신장점",
      "address": "경기도 하남시 신장동 448-35 지송빌딩 1층",
      "contact": "031-796-1186",
      "lat": "37.539047",
      "lng": "127.211589",
      "region": "경기도",
      "district": "하남시"
    },
    {
      "id": 69,
      "name": "피자헛 가능점",
      "address": "경기도 의정부시 가능동 17-1 동진빌딩 1층 104호",
      "contact": "031-847-7886",
      "lat": "37.750838",
      "lng": "127.044802",
      "region": "경기도",
      "district": "의정부시"
    },
    {
      "id": 70,
      "name": "피자헛 시흥대야점",
      "address": "경기도 시흥시 대야동 557-1",
      "contact": "031-316-5585",
      "lat": "37.439816",
      "lng": "126.792744",
      "region": "경기도",
      "district": "시흥시"
    },
    {
      "id": 71,
      "name": "피자헛 판교중앙점",
      "address": "경기도 성남시 분당구 판교동 621-4 번지",
      "contact": "031-724-0503",
      "lat": "37.389998",
      "lng": "127.088951",
      "region": "경기도",
      "district": "성남시"
    },
    {
      "id": 72,
      "name": "피자헛 산본본점",
      "address": "경기도 군포시 산본로 398 (산본동, 태주빌딩)",
      "contact": "031-393-0505",
      "lat": "37.365505",
      "lng": "126.929423",
      "region": "경기도",
      "district": "군포시"
    },
    {
      "id": 73,
      "name": "피자헛 일산탄현점",
      "address": "경기도 고양시 일산서구 고양대로 632",
      "contact": "070-7843-1303",
      "lat": "37.683794",
      "lng": "126.769119",
      "region": "경기도",
      "district": "고양시"
    },
    {
      "id": 74,
      "name": "피자헛 계양2호점",
      "address": "인천광역시 계양구 계양대로 101",
      "contact": "032-541-4392",
      "lat": "37.532767",
      "lng": "126.722082",
      "region": "인천광역시",
      "district": "계양구"
    },
    {
      "id": 75,
      "name": "피자헛 일산킨텍스점",
      "address": "경기도 고양시 일산서구 킨텍스로 285",
      "contact": "031-924-1570",
      "lat": "37.670656",
      "lng": "126.751742",
      "region": "경기도",
      "district": "고양시"
    },
    {
      "id": 76,
      "name": "피자헛 부흥오거리점",
      "address": "인천광역시 부평구 장제로 154",
      "contact": "032-330-9474",
      "lat": "37.499161",
      "lng": "126.730784",
      "region": "인천광역시",
      "district": "부평구"
    },
    {
      "id": 77,
      "name": "피자헛 분당백현점",
      "address": "경기도 성남시 분당구 백현동 605-11",
      "contact": "031-8017-8770",
      "lat": "37.3869",
      "lng": "127.114537",
      "region": "경기도",
      "district": "성남시"
    },
    {
      "id": 78,
      "name": "피자헛 인천아라점",
      "address": "인천광역시 서구 서로3로 277, 검단신도시로제비앙 상가동 202호 (1층)",
      "contact": "032-563-8827",
      "lat": "37.602303",
      "lng": "126.711615",
      "region": "인천광역시",
      "district": "서구"
    },
    {
      "id": 79,
      "name": "피자헛 김포본점",
      "address": "경기도 김포시 사우동 1030",
      "contact": "031-997-2071",
      "lat": "37.621361",
      "lng": "126.714318",
      "region": "경기도",
      "district": "김포시"
    },
    {
      "id": 80,
      "name": "피자헛 의정부낙양점",
      "address": "경기도 의정부시 낙양동 743",
      "contact": "031-853-9711",
      "lat": "37.75613",
      "lng": "127.11341",
      "region": "경기도",
      "district": "의정부시"
    },
    {
      "id": 81,
      "name": "피자헛 목감점",
      "address": "경기도 시흥시 목감둘레로 59-9",
      "contact": "031-487-9506",
      "lat": "37.374305",
      "lng": "126.848333",
      "region": "경기도",
      "district": "시흥시"
    },
    {
      "id": 82,
      "name": "피자헛 의왕고천점",
      "address": "경기도 의왕시 고천동 234-6",
      "contact": "031-453-7745",
      "lat": "37.345536",
      "lng": "126.974914",
      "region": "경기도",
      "district": "의왕시"
    },
    {
      "id": 83,
      "name": "피자헛 남양주호평점",
      "address": "경기도 남양주시 호평동 633-9",
      "contact": "031-591-5537",
      "lat": "37.653882",
      "lng": "127.240173",
      "region": "경기도",
      "district": "남양주시"
    },
    {
      "id": 84,
      "name": "피자헛 인천서창점",
      "address": "인천광역시 남동구 서창남순환로 62",
      "contact": "070-4120-5588",
      "lat": "37.429453",
      "lng": "126.750924",
      "region": "인천광역시",
      "district": "남동구"
    },
    {
      "id": 85,
      "name": "피자헛 부평본점",
      "address": "인천광역시 부평구 마장로 256",
      "contact": "032-515-3438",
      "lat": "37.500629",
      "lng": "126.703116",
      "region": "인천광역시",
      "district": "부평구"
    },
    {
      "id": 86,
      "name": "피자헛 분당금곡점",
      "address": "경기도 성남시 분당구 불정로87번길 2, 1층",
      "contact": "070-7600-4415",
      "lat": "37.360212",
      "lng": "127.11452",
      "region": "경기도",
      "district": "성남시"
    },
    {
      "id": 87,
      "name": "피자헛 인천검암점",
      "address": "인천광역시 서구 검암동 514-6, 1층(102호)",
      "contact": "032-569-6026",
      "lat": "37.566323",
      "lng": "126.682756",
      "region": "인천광역시",
      "district": "서구"
    },
    {
      "id": 88,
      "name": "피자헛 남양주진접역점",
      "address": "경기도 남양주시 진접읍 금곡리 1021-3",
      "contact": "031-575-4300",
      "lat": "37.72053",
      "lng": "127.202305",
      "region": "경기도",
      "district": "남양주시"
    },
    {
      "id": 89,
      "name": "피자헛 분당점",
      "address": "경기도 성남시 분당구 분당동 90-6 SHN빌딩 1층",
      "contact": "070-7600-5558",
      "lat": "37.369656",
      "lng": "127.142443",
      "region": "경기도",
      "district": "성남시"
    },
    {
      "id": 90,
      "name": "피자헛 동암만수점",
      "address": "인천광역시 부평구 열우물로 64, 108호",
      "contact": "032-425-1566",
      "lat": "37.4736118",
      "lng": "126.6998414",
      "region": "인천광역시",
      "district": "부평구"
    },
    {
      "id": 91,
      "name": "피자헛 인천검단점",
      "address": "인천광역시 서구 원당대로 669",
      "contact": "032-561-6288",
      "lat": "37.593658",
      "lng": "126.675682",
      "region": "인천광역시",
      "district": "서구"
    },
    {
      "id": 92,
      "name": "피자헛 파주운정점",
      "address": "경기도 파주시 목동동 778-2",
      "contact": "031-947-6588",
      "lat": "37.729886",
      "lng": "126.747308",
      "region": "경기도",
      "district": "파주시"
    },
    {
      "id": 93,
      "name": "피자헛 인천남동점",
      "address": "인천광역시 남동구 구월1동 1191-9 (1층)",
      "contact": "032-472-4111",
      "lat": "37.447366",
      "lng": "126.70764",
      "region": "인천광역시",
      "district": "남동구"
    },
    {
      "id": 94,
      "name": "피자헛 가정2호점",
      "address": "인천광역시 서구 원창로 163, 1층 (신현동)",
      "contact": "032-568-0455",
      "lat": "37.517856",
      "lng": "126.667639",
      "region": "인천광역시",
      "district": "서구"
    },
    {
      "id": 95,
      "name": "피자헛 김포장기점",
      "address": "경기도 김포시 장기동 1424",
      "contact": "070-7602-5588",
      "lat": "37.643612",
      "lng": "126.670629",
      "region": "경기도",
      "district": "김포시"
    },
    {
      "id": 96,
      "name": "피자헛 죽전점",
      "address": "경기도 용인시 수지구 탄천상로 1 인현마을 현대홈타운2상가 1층 101,102호",
      "contact": "031-719-4115",
      "lat": "37.331667",
      "lng": "127.111561",
      "region": "경기도",
      "district": "용인시"
    },
    {
      "id": 97,
      "name": "피자헛 신봉점",
      "address": "경기도 용인시 수지구 수지로 217 부광주차타워 1층",
      "contact": "031-896-1047",
      "lat": "37.32081",
      "lng": "127.0841",
      "region": "경기도",
      "district": "용인시"
    },
    {
      "id": 98,
      "name": "피자헛 인천논현동점",
      "address": "인천광역시 남동구 청능대로 593 (논현동, 신성프라자) 102호",
      "contact": "032-713-8605",
      "lat": "37.401421",
      "lng": "126.725118",
      "region": "인천광역시",
      "district": "남동구"
    },
    {
      "id": 99,
      "name": "피자헛 주안본점",
      "address": "인천광역시 미추홀구 주안동 197-22",
      "contact": "032-431-3271",
      "lat": "37.459015",
      "lng": "126.677298",
      "region": "인천광역시",
      "district": "미추홀구"
    },
    {
      "id": 100,
      "name": "피자헛 안산성포점",
      "address": "경기도 안산시 상록구 성포동 592-2 현대1차 상가",
      "contact": "070-7600-0042",
      "lat": "37.323809",
      "lng": "126.845315",
      "region": "경기도",
      "district": "안산시"
    },
    {
      "id": 101,
      "name": "피자헛 광주태전점",
      "address": "경기도 광주시 순암로 150",
      "contact": "031-769-1544",
      "lat": "37.39691",
      "lng": "127.233596",
      "region": "경기도",
      "district": "광주시"
    },
    {
      "id": 102,
      "name": "피자헛 인천미추홀점",
      "address": "인천광역시 미추홀구 주안동 1460-6, 7호",
      "contact": "032-867-5327",
      "lat": "37.44881",
      "lng": "126.679214",
      "region": "인천광역시",
      "district": "미추홀구"
    },
    {
      "id": 103,
      "name": "피자헛 청라점",
      "address": "인천광역시 서구 청라동 144-22",
      "contact": "032-567-8689",
      "lat": "37.536464",
      "lng": "126.644336",
      "region": "인천광역시",
      "district": "서구"
    },
    {
      "id": 104,
      "name": "피자헛 수원송죽점",
      "address": "경기도 수원시 장안구 송원로 51",
      "contact": "031-242-1870",
      "lat": "37.299922",
      "lng": "127.007631",
      "region": "경기도",
      "district": "수원시"
    },
    {
      "id": 105,
      "name": "피자헛 남양주마석점",
      "address": "경기도 남양주시 화도읍 녹촌리 12번지 오월프라자 103호",
      "contact": "070-7843-2410",
      "lat": "37.652012",
      "lng": "127.298392",
      "region": "경기도",
      "district": "남양주시"
    },
    {
      "id": 106,
      "name": "피자헛 양주옥정점",
      "address": "경기도 양주시 옥정로 214",
      "contact": "070-4231-2021",
      "lat": "37.82069",
      "lng": "127.092109",
      "region": "경기도",
      "district": "양주시"
    },
    {
      "id": 107,
      "name": "피자헛 경기광주본점",
      "address": "경기도 광주시 광주대로 97번길 4",
      "contact": "031-798-7052",
      "lat": "37.415461",
      "lng": "127.259671",
      "region": "경기도",
      "district": "광주시"
    },
    {
      "id": 108,
      "name": "피자헛 시흥배곧점",
      "address": "경기도 시흥시 배곧4로 22, 103호",
      "contact": "031-431-9539",
      "lat": "37.377861",
      "lng": "126.727038",
      "region": "경기도",
      "district": "시흥시"
    },
    {
      "id": 109,
      "name": "피자헛 천천점",
      "address": "경기도 수원시 장안구 정자천로13번길 41-3",
      "contact": "031-269-4030",
      "lat": "37.290585",
      "lng": "126.978297",
      "region": "경기도",
      "district": "수원시"
    },
    {
      "id": 110,
      "name": "피자헛 안산상록수점",
      "address": "경기도 안산시 상록구 반석로 69",
      "contact": "031-406-5598",
      "lat": "37.296788",
      "lng": "126.867679",
      "region": "경기도",
      "district": "안산시"
    },
    {
      "id": 111,
      "name": "피자헛 수원지동점",
      "address": "경기도 수원시 팔달구 경수대로 597",
      "contact": "031-246-7351",
      "lat": "37.278987",
      "lng": "127.030387",
      "region": "경기도",
      "district": "수원시"
    },
    {
      "id": 112,
      "name": "피자헛 용인구성본점",
      "address": "경기도 용인시 마북동 317-2",
      "contact": "031-693-8731",
      "lat": "37.295306",
      "lng": "127.116733",
      "region": "경기도",
      "district": "용인시"
    },
    {
      "id": 113,
      "name": "피자헛 시화본점",
      "address": "경기도 시흥시 정왕동 1735-4 1층",
      "contact": "031-488-8550",
      "lat": "37.345472",
      "lng": "126.735367",
      "region": "경기도",
      "district": "시흥시"
    },
    {
      "id": 114,
      "name": "피자헛 수원호매실점",
      "address": "경기도 수원시 권선구 금곡로102번길 48",
      "contact": "031-278-6624",
      "lat": "37.272038",
      "lng": "126.941515",
      "region": "경기도",
      "district": "수원시"
    },
    {
      "id": 115,
      "name": "피자헛 수원중앙점",
      "address": "경기도 수원시 팔달구 매산로3가 62-5",
      "contact": "031-248-1578",
      "lat": "37.268982",
      "lng": "127.008492",
      "region": "경기도",
      "district": "수원시"
    },
    {
      "id": 116,
      "name": "피자헛 안산사동점",
      "address": "경기도 안산시 상록구 사동 1410-2 위즈덤빌딩 1층",
      "contact": "031-502-2317",
      "lat": "37.284889",
      "lng": "126.850342",
      "region": "경기도",
      "district": "안산시"
    },
    {
      "id": 117,
      "name": "피자헛 용인흥덕점",
      "address": "경기도 용인시 기흥구 흥덕2로75번길 36-1",
      "contact": "031-216-3791",
      "lat": "37.274115",
      "lng": "127.069993",
      "region": "경기도",
      "district": "용인시"
    },
    {
      "id": 118,
      "name": "피자헛 송도점",
      "address": "인천광역시 연수구 신송로6번길 7(송도동,송도성지리벨루스 104,105호)",
      "contact": "032-214-8689",
      "lat": "37.389418",
      "lng": "126.662232",
      "region": "인천광역시",
      "district": "연수구"
    },
    {
      "id": 119,
      "name": "피자헛 송도국제도시점",
      "address": "인천광역시 연수구 신송로 164 (그린에비뉴 아파트 부근)",
      "contact": "032-858-9413",
      "lat": "37.398211",
      "lng": "126.64888",
      "region": "인천광역시",
      "district": "연수구"
    },
    {
      "id": 120,
      "name": "피자헛 용인신갈점",
      "address": "경기도 용인시 기흥구 금화로 103",
      "contact": "031-282-3058",
      "lat": "37.266174",
      "lng": "127.106594",
      "region": "경기도",
      "district": "용인시"
    },
    {
      "id": 121,
      "name": "피자헛 수원영통점",
      "address": "경기도 용인시 기흥구 예현로 23, 1층",
      "contact": "031-202-5060",
      "lat": "37.244704",
      "lng": "127.068508",
      "region": "경기도",
      "district": "용인시"
    },
    {
      "id": 122,
      "name": "피자헛 동두천본점",
      "address": "경기도 동두천시 평화로2261번길 48",
      "contact": "031-861-7300",
      "lat": "37.891894",
      "lng": "127.052694",
      "region": "경기도",
      "district": "동두천시"
    },
    {
      "id": 123,
      "name": "피자헛 화성봉담점",
      "address": "경기도 화성시 봉담읍 동화리 622 번지",
      "contact": "070-7843-1290",
      "lat": "37.215173",
      "lng": "126.963435",
      "region": "경기도",
      "district": "화성시"
    },
    {
      "id": 124,
      "name": "피자헛 동탄1신도시점",
      "address": "경기도 화성시 반송동 93-3 동탄파라곤 145~146호",
      "contact": "031-891-5588",
      "lat": "37.203997",
      "lng": "127.072176",
      "region": "경기도",
      "district": "화성시"
    },
    {
      "id": 125,
      "name": "피자헛 동동탄점",
      "address": "경기도 화성시 영천동 701-12",
      "contact": "031-378-2128",
      "lat": "37.205718",
      "lng": "127.112464",
      "region": "경기도",
      "district": "화성시"
    },
    {
      "id": 126,
      "name": "피자헛 남동탄점",
      "address": "경기도 화성시 산척동 253-3",
      "contact": "031-378-8491",
      "lat": "37.172304",
      "lng": "127.112519",
      "region": "경기도",
      "district": "화성시"
    },
    {
      "id": 127,
      "name": "피자헛 경기양평점",
      "address": "경기도 양평군 양평읍 공흥리 470-4",
      "contact": "031-699-5555",
      "lat": "37.490752",
      "lng": "127.502045",
      "region": "경기도",
      "district": "양평군"
    },
    {
      "id": 128,
      "name": "피자헛 오산원동점",
      "address": "경기도 오산시 경기대로 254",
      "contact": "031-373-9657",
      "lat": "37.14739",
      "lng": "127.073812",
      "region": "경기도",
      "district": "오산시"
    },
    {
      "id": 129,
      "name": "피자헛 평택점",
      "address": "경기도 평택시 이충동 155-1, 102호",
      "contact": "031-665-2201",
      "lat": "37.05839",
      "lng": "127.073824",
      "region": "경기도",
      "district": "평택시"
    },
    {
      "id": 130,
      "name": "피자헛 평택동삭점",
      "address": "경기도 평택시 동삭동 680-5",
      "contact": "031-654-6077",
      "lat": "37.01245",
      "lng": "127.101531",
      "region": "경기도",
      "district": "평택시"
    },
    {
      "id": 131,
      "name": "피자헛 평택중앙점",
      "address": "경기도 평택시 합정동 672-2 스카이빌딩1층",
      "contact": "031-692-2739",
      "lat": "36.993426",
      "lng": "127.093688",
      "region": "경기도",
      "district": "평택시"
    },
    {
      "id": 132,
      "name": "피자헛 평택용이점",
      "address": "경기도 평택시 현촌5길 5-24",
      "contact": "031-692-1932",
      "lat": "36.997308",
      "lng": "127.132873",
      "region": "경기도",
      "district": "평택시"
    },
    {
      "id": 133,
      "name": "피자헛 여주점",
      "address": "경기도 여주시 홍문동 233-13",
      "contact": "031-8051-5587",
      "lat": "37.288967",
      "lng": "127.63373",
      "region": "경기도",
      "district": "여주시"
    },
    {
      "id": 134,
      "name": "피자헛 춘천점",
      "address": "강원특별자치도 춘천시 소양로3가 177-3",
      "contact": "033-251-4512",
      "lat": "37.882118",
      "lng": "127.724784",
      "region": "강원특별자치도",
      "district": "춘천시"
    },
    {
      "id": 135,
      "name": "피자헛 춘천석사점",
      "address": "강원특별자치도 춘천시 석사동 774-3",
      "contact": "033-255-5711",
      "lat": "37.861888",
      "lng": "127.746576",
      "region": "강원특별자치도",
      "district": "춘천시"
    },
    {
      "id": 136,
      "name": "피자헛 천안성성점",
      "address": "충청남도 천안시 서북구 서부대로 769",
      "contact": "041-622-7237",
      "lat": "36.835882",
      "lng": "127.133403",
      "region": "충청남도",
      "district": "천안시"
    },
    {
      "id": 137,
      "name": "피자헛 천안불당점",
      "address": "충청남도 천안시 서북구 불당26로 77",
      "contact": "041-622-6895",
      "lat": "36.816085",
      "lng": "127.105865",
      "region": "충청남도",
      "district": "천안시"
    },
    {
      "id": 138,
      "name": "피자헛 천안신방점",
      "address": "충청남도 천안시 동남구 서부대로 247-12",
      "contact": "041-592-6701",
      "lat": "36.790587",
      "lng": "127.127749",
      "region": "충청남도",
      "district": "천안시"
    },
    {
      "id": 139,
      "name": "피자헛 원주봉화점",
      "address": "강원특별자치도 원주시 백간길 25, 벨라시티 SG프라자 측면1층",
      "contact": "033-748-0281",
      "lat": "37.352004",
      "lng": "127.926129",
      "region": "강원특별자치도",
      "district": "원주시"
    },
    {
      "id": 140,
      "name": "피자헛 아산온양점",
      "address": "충청남도 아산시 용화고길 55번길 27",
      "contact": "041-547-8600",
      "lat": "36.773188",
      "lng": "127.009236",
      "region": "충청남도",
      "district": "아산시"
    },
    {
      "id": 141,
      "name": "피자헛 천안청당점",
      "address": "충청남도 천안시 동남구 청수4로 18",
      "contact": "041-622-9697",
      "lat": "36.783586",
      "lng": "127.152763",
      "region": "충청남도",
      "district": "천안시"
    },
    {
      "id": 142,
      "name": "피자헛 아산배방점",
      "address": "충청남도 아산시 배방읍 북수리 645-10",
      "contact": "041-911-5588",
      "lat": "36.77413",
      "lng": "127.068993",
      "region": "충청남도",
      "district": "아산시"
    },
    {
      "id": 143,
      "name": "피자헛 원주단구점",
      "address": "강원특별자치도 원주시 단구동 1477-18",
      "contact": "033-901-5588",
      "lat": "37.320004",
      "lng": "127.966128",
      "region": "강원특별자치도",
      "district": "원주시"
    },
    {
      "id": 144,
      "name": "피자헛 서산호수공원점",
      "address": "충청남도 서산시 호수공원11로 30",
      "contact": "041-681-9412",
      "lat": "36.773846",
      "lng": "126.448007",
      "region": "충청남도",
      "district": "서산시"
    },
    {
      "id": 145,
      "name": "피자헛 충북오창점",
      "address": "충청북도 청주시 청원구 오창읍 과학산업2로 373",
      "contact": "070-4706-5577",
      "lat": "36.715524",
      "lng": "127.422539",
      "region": "충청북도",
      "district": "청주시"
    },
    {
      "id": 146,
      "name": "피자헛 내포신도시점",
      "address": "충청남도 홍성군 홍북읍 신경리 587번지 센텀시티프라자 109호",
      "contact": "041-631-8878",
      "lat": "36.65695",
      "lng": "126.67923",
      "region": "충청남도",
      "district": "홍성군"
    },
    {
      "id": 147,
      "name": "피자헛 충주본점",
      "address": "충청북도 충주시 연수동 1705",
      "contact": "043-844-5766",
      "lat": "36.982243",
      "lng": "127.940248",
      "region": "충청북도",
      "district": "충주시"
    },
    {
      "id": 148,
      "name": "피자헛 청주대점",
      "address": "충청북도 청주시 청원구 우암동 232-8",
      "contact": "043-255-5581",
      "lat": "36.651866",
      "lng": "127.488612",
      "region": "충청북도",
      "district": "청주시"
    },
    {
      "id": 149,
      "name": "피자헛 충북대본점",
      "address": "충청북도 청주시 서원구 사창동 521",
      "contact": "043-277-5625",
      "lat": "36.631678",
      "lng": "127.460955",
      "region": "충청북도",
      "district": "청주시"
    },
    {
      "id": 150,
      "name": "피자헛 청주가경본점",
      "address": "충청북도 청주시 흥덕구 서현북로 48",
      "contact": "043-231-3697",
      "lat": "36.62102",
      "lng": "127.427775",
      "region": "충청북도",
      "district": "청주시"
    },
    {
      "id": 151,
      "name": "피자헛 금천광장점",
      "address": "충청북도 청주시 상당구 산성로 98번길 8-1",
      "contact": "043-285-5588",
      "lat": "36.63118",
      "lng": "127.50377",
      "region": "충청북도",
      "district": "청주시"
    },
    {
      "id": 152,
      "name": "피자헛 분평대로점",
      "address": "충청북도 청주시 서원구 분평동 561",
      "contact": "043-292-5589",
      "lat": "36.605787",
      "lng": "127.493438",
      "region": "충청북도",
      "district": "청주시"
    },
    {
      "id": 153,
      "name": "피자헛 충북제천점",
      "address": "충청북도 제천시 청전대로 165",
      "contact": "043-651-5588",
      "lat": "37.151967",
      "lng": "128.215671",
      "region": "충청북도",
      "district": "제천시"
    },
    {
      "id": 154,
      "name": "피자헛 세종다정점",
      "address": "세종특별자치시 다정남로 130",
      "contact": "044-868-5736",
      "lat": "36.492379",
      "lng": "127.254958",
      "region": "세종특별자치시",
      "district": "다정남로"
    },
    {
      "id": 155,
      "name": "피자헛 공주신관점",
      "address": "충청남도 공주시 신관동 265-15",
      "contact": "041-852-9947",
      "lat": "36.474397",
      "lng": "127.139463",
      "region": "충청남도",
      "district": "공주시"
    },
    {
      "id": 156,
      "name": "피자헛 세종시청점",
      "address": "세종특별자치시 보람동 615-2 금강르네상스 1층",
      "contact": "044-868-4216",
      "lat": "36.483219",
      "lng": "127.293049",
      "region": "세종특별자치시",
      "district": "보람동"
    },
    {
      "id": 157,
      "name": "피자헛 대전테크노밸리점",
      "address": "대전광역시 유성구 관평동 943",
      "contact": "070-7600-5003",
      "lat": "36.426019",
      "lng": "127.391222",
      "region": "대전광역시",
      "district": "유성구"
    },
    {
      "id": 158,
      "name": "피자헛 대전노은점",
      "address": "대전광역시 유성구 노은서로 112번길 86",
      "contact": "042-822-5580",
      "lat": "36.371991",
      "lng": "127.317427",
      "region": "대전광역시",
      "district": "유성구"
    },
    {
      "id": 159,
      "name": "피자헛 대전유성점",
      "address": "대전광역시 유성구 문화원로 14",
      "contact": "042-822-9346",
      "lat": "36.361367",
      "lng": "127.337722",
      "region": "대전광역시",
      "district": "유성구"
    },
    {
      "id": 160,
      "name": "피자헛 대전갈마점",
      "address": "대전광역시 서구 갈마동 262-12",
      "contact": "042-486-4098",
      "lat": "36.355108",
      "lng": "127.369603",
      "region": "대전광역시",
      "district": "서구"
    },
    {
      "id": 161,
      "name": "피자헛 단양점",
      "address": "충청북도 단양군 단양읍 삼봉로 247",
      "contact": "043-422-5580",
      "lat": "36.979115",
      "lng": "128.367257",
      "region": "충청북도",
      "district": "단양군"
    },
    {
      "id": 162,
      "name": "피자헛 대전도안점",
      "address": "대전광역시 서구 도안북로 117번길 62(도안동) 1층",
      "contact": "042-825-5888",
      "lat": "36.330943",
      "lng": "127.341073",
      "region": "대전광역시",
      "district": "서구"
    },
    {
      "id": 163,
      "name": "피자헛 대전우송점",
      "address": "대전광역시 동구 가양동 172-4",
      "contact": "042-223-7536",
      "lat": "36.343501",
      "lng": "127.446926",
      "region": "대전광역시",
      "district": "동구"
    },
    {
      "id": 164,
      "name": "피자헛 테스트매장(주문불가)0995",
      "address": "강원특별자치도 속초시 설악동 산 38",
      "contact": "02-3468-0166",
      "lat": "37.507892",
      "lng": "127.065899",
      "region": "강원특별자치도",
      "district": "속초시"
    },
    {
      "id": 165,
      "name": "피자헛 문경점촌본점",
      "address": "경상북도 문경시 모전로 61",
      "contact": "054-556-3388",
      "lat": "36.586911",
      "lng": "128.191218",
      "region": "경상북도",
      "district": "문경시"
    },
    {
      "id": 166,
      "name": "피자헛 속초본점",
      "address": "강원특별자치도 속초시 교동 1021-1",
      "contact": "033-631-7023",
      "lat": "38.196383",
      "lng": "128.579927",
      "region": "강원특별자치도",
      "district": "속초시"
    },
    {
      "id": 167,
      "name": "피자헛 영주본점",
      "address": "경상북도 영주시 중앙로 50",
      "contact": "054-638-8090",
      "lat": "36.82083",
      "lng": "128.621986",
      "region": "경상북도",
      "district": "영주시"
    },
    {
      "id": 168,
      "name": "피자헛 강릉교동점",
      "address": "강원특별자치도 강릉시 정원로 52",
      "contact": "033-655-9579",
      "lat": "37.762433",
      "lng": "128.876207",
      "region": "강원특별자치도",
      "district": "강릉시"
    },
    {
      "id": 169,
      "name": "피자헛 사북고한점",
      "address": "강원특별자치도 정선군 고한읍 고한리 120-4",
      "contact": "033-592-5925",
      "lat": "37.207248",
      "lng": "128.844356",
      "region": "강원특별자치도",
      "district": "정선군"
    },
    {
      "id": 170,
      "name": "피자헛 강릉입암점",
      "address": "강원특별자치도 강릉시 입암동 204-4",
      "contact": "033-653-9815",
      "lat": "37.757469",
      "lng": "128.921835",
      "region": "강원특별자치도",
      "district": "강릉시"
    },
    {
      "id": 171,
      "name": "피자헛 군산점",
      "address": "전북특별자치도 군산시 수송6길 22 (수송동),1층",
      "contact": "063-466-1588",
      "lat": "35.968746",
      "lng": "126.716773",
      "region": "전북특별자치도",
      "district": "군산시"
    },
    {
      "id": 172,
      "name": "피자헛 동해본점",
      "address": "강원특별자치도 동해시 천곡로 42-1",
      "contact": "033-533-0900",
      "lat": "37.524187",
      "lng": "129.109875",
      "region": "강원특별자치도",
      "district": "동해시"
    },
    {
      "id": 173,
      "name": "피자헛 김천대신점",
      "address": "경상북도 김천시 신음동 464-1번지",
      "contact": "054-434-7511",
      "lat": "36.135059",
      "lng": "128.117713",
      "region": "경상북도",
      "district": "김천시"
    },
    {
      "id": 174,
      "name": "피자헛 전주송천점",
      "address": "전북특별자치도 전주시 덕진구 천마산로 54",
      "contact": "063-276-9915",
      "lat": "35.864108",
      "lng": "127.127728",
      "region": "전북특별자치도",
      "district": "전주시"
    },
    {
      "id": 175,
      "name": "피자헛 안동본점",
      "address": "경상북도 안동시 당북동 119-13",
      "contact": "054-855-2007",
      "lat": "36.565989",
      "lng": "128.720416",
      "region": "경상북도",
      "district": "안동시"
    },
    {
      "id": 176,
      "name": "피자헛 전주본점",
      "address": "전북특별자치도 전주시 완산구 새터로 52",
      "contact": "063-276-9732",
      "lat": "35.835345",
      "lng": "127.11197",
      "region": "전북특별자치도",
      "district": "전주시"
    },
    {
      "id": 177,
      "name": "피자헛 전주효자점",
      "address": "전북특별자치도 전주시 완산구 효자동1가 효자동1가 298-4",
      "contact": "063-244-1588",
      "lat": "35.80624",
      "lng": "127.121687",
      "region": "전북특별자치도",
      "district": "전주시"
    },
    {
      "id": 178,
      "name": "피자헛 구미도량점",
      "address": "경상북도 구미시 야은로 308",
      "contact": "054-455-2183",
      "lat": "36.138471",
      "lng": "128.316553",
      "region": "경상북도",
      "district": "구미시"
    },
    {
      "id": 179,
      "name": "피자헛 구미시청점",
      "address": "경상북도 구미시 송정동 77",
      "contact": "054-441-5582",
      "lat": "36.117406",
      "lng": "128.349593",
      "region": "경상북도",
      "district": "구미시"
    },
    {
      "id": 180,
      "name": "피자헛 전북부안점",
      "address": "전북특별자치도 부안군 봉덕리 779 1층 102호",
      "contact": "063-584-5525",
      "lat": "35.723121",
      "lng": "126.737073",
      "region": "전북특별자치도",
      "district": "부안군"
    },
    {
      "id": 181,
      "name": "피자헛 구미인동점",
      "address": "경상북도 구미시 인동2길6 (진평동620)",
      "contact": "070-7600-1611",
      "lat": "36.104879",
      "lng": "128.41993",
      "region": "경상북도",
      "district": "구미시"
    },
    {
      "id": 182,
      "name": "피자헛 정읍점",
      "address": "전북특별자치도 정읍시 충정로 70(상동206-3)",
      "contact": "063-537-4110",
      "lat": "35.560071",
      "lng": "126.869144",
      "region": "전북특별자치도",
      "district": "정읍시"
    },
    {
      "id": 183,
      "name": "피자헛 대구칠곡본점",
      "address": "대구광역시 북구 동천동 905-3",
      "contact": "053-325-5580",
      "lat": "35.942415",
      "lng": "128.558414",
      "region": "대구광역시",
      "district": "북구"
    },
    {
      "id": 184,
      "name": "피자헛 대구태전점",
      "address": "대구광역시 북구 매전로 46, 1층",
      "contact": "053-314-5582",
      "lat": "35.909637",
      "lng": "128.546693",
      "region": "대구광역시",
      "district": "북구"
    },
    {
      "id": 185,
      "name": "피자헛 연경봉무점",
      "address": "대구광역시 동구 지묘동 1354-3, 105호",
      "contact": "053-982-9689",
      "lat": "35.944663",
      "lng": "128.628976",
      "region": "대구광역시",
      "district": "동구"
    },
    {
      "id": 186,
      "name": "피자헛 성서계명대점",
      "address": "대구광역시 달서구 신당동 1804-4번지",
      "contact": "053-264-0588",
      "lat": "35.855284",
      "lng": "128.494839",
      "region": "대구광역시",
      "district": "달서구"
    },
    {
      "id": 187,
      "name": "피자헛 복현점",
      "address": "대구광역시 북구 복현동 200-2",
      "contact": "053-939-0213",
      "lat": "35.897608",
      "lng": "128.616102",
      "region": "대구광역시",
      "district": "북구"
    },
    {
      "id": 188,
      "name": "피자헛 대구감삼점",
      "address": "대구광역시 달서구 감삼동 64-10",
      "contact": "070-7600-0391",
      "lat": "35.853239",
      "lng": "128.544326",
      "region": "대구광역시",
      "district": "달서구"
    },
    {
      "id": 189,
      "name": "피자헛 대구침산점",
      "address": "대구광역시 북구 칠성동2가 81-3",
      "contact": "053-295-5588",
      "lat": "35.879708",
      "lng": "128.589316",
      "region": "대구광역시",
      "district": "북구"
    },
    {
      "id": 190,
      "name": "피자헛 대구성당점",
      "address": "대구광역시 달서구 성당동 567-1 번지",
      "contact": "053-627-9034",
      "lat": "35.841484",
      "lng": "128.549005",
      "region": "대구광역시",
      "district": "달서구"
    },
    {
      "id": 191,
      "name": "피자헛 대구유천점",
      "address": "대구광역시 달서구 유천동 374-3",
      "contact": "053-642-0271",
      "lat": "35.812024",
      "lng": "128.517264",
      "region": "대구광역시",
      "district": "달서구"
    },
    {
      "id": 192,
      "name": "피자헛 대구상인점",
      "address": "대구광역시 달서구 월배로 227 (상인동 730)",
      "contact": "053-642-0278",
      "lat": "35.819437",
      "lng": "128.538057",
      "region": "대구광역시",
      "district": "달서구"
    },
    {
      "id": 193,
      "name": "피자헛 수성2호점",
      "address": "대구광역시 수성구 달구벌대로 2337",
      "contact": "053-753-0681",
      "lat": "35.859808",
      "lng": "128.618441",
      "region": "대구광역시",
      "district": "수성구"
    },
    {
      "id": 194,
      "name": "피자헛 대구봉덕점",
      "address": "대구광역시 남구 봉덕로 42-1",
      "contact": "053-475-9560",
      "lat": "35.844853",
      "lng": "128.595221",
      "region": "대구광역시",
      "district": "남구"
    },
    {
      "id": 195,
      "name": "피자헛 대구황금역점",
      "address": "대구광역시 수성구 청수로 166",
      "contact": "053-766-9252",
      "lat": "35.838987",
      "lng": "128.626101",
      "region": "대구광역시",
      "district": "수성구"
    },
    {
      "id": 196,
      "name": "피자헛 대구안심점",
      "address": "대구광역시 동구 동호동 106-25",
      "contact": "053-961-8844",
      "lat": "35.869216",
      "lng": "128.713427",
      "region": "대구광역시",
      "district": "동구"
    },
    {
      "id": 197,
      "name": "피자헛 대구현풍점",
      "address": "대구광역시 달성군 현풍읍 테크노상업로 46, 1층 102호",
      "contact": "053-591-7942",
      "lat": "35.692632",
      "lng": "128.454731",
      "region": "대구광역시",
      "district": "달성군"
    },
    {
      "id": 198,
      "name": "피자헛 대구신매점",
      "address": "대구광역시 수성구 신매동 586-1",
      "contact": "053-475-5588",
      "lat": "35.834421",
      "lng": "128.708115",
      "region": "대구광역시",
      "district": "수성구"
    },
    {
      "id": 199,
      "name": "피자헛 테스트매장0992",
      "address": "경상남도 함양군 마천면 강청리 산 100",
      "contact": "02-000-0000",
      "lat": "37.581276",
      "lng": "126.911695",
      "region": "경상남도",
      "district": "함양군"
    },
    {
      "id": 200,
      "name": "피자헛 광주첨단양산점",
      "address": "광주광역시 북구 연제동 478-56",
      "contact": "070-7858-5171",
      "lat": "35.206074",
      "lng": "126.870841",
      "region": "광주광역시",
      "district": "북구"
    },
    {
      "id": 201,
      "name": "피자헛 광주문흥점",
      "address": "광주광역시 북구 문흥동 952-13",
      "contact": "062-267-6182",
      "lat": "35.187009",
      "lng": "126.918203",
      "region": "광주광역시",
      "district": "북구"
    },
    {
      "id": 202,
      "name": "피자헛 광주비엔날레점",
      "address": "광주시 북구 용봉동 1035번지",
      "contact": "062-521-0680",
      "lat": "35.181139",
      "lng": "126.88993",
      "region": "광주시",
      "district": "북구"
    },
    {
      "id": 203,
      "name": "피자헛 광주수완점",
      "address": "광주광역시 광산구 하남동 752",
      "contact": "070-4205-4455",
      "lat": "35.179548",
      "lng": "126.804454",
      "region": "광주광역시",
      "district": "광산구"
    },
    {
      "id": 204,
      "name": "피자헛 광주충장로점",
      "address": "광주광역시 동구 중앙로 218",
      "contact": "062-225-3414",
      "lat": "35.151854",
      "lng": "126.917833",
      "region": "광주광역시",
      "district": "동구"
    },
    {
      "id": 205,
      "name": "피자헛 광주금호점",
      "address": "광주광역시 서구 금호동 732-8",
      "contact": "070-7618-7736",
      "lat": "35.139996",
      "lng": "126.859013",
      "region": "광주광역시",
      "district": "서구"
    },
    {
      "id": 206,
      "name": "피자헛 광주주월점",
      "address": "광주광역시 남구 서문대로 789",
      "contact": "062-674-0167",
      "lat": "35.129647",
      "lng": "126.897969",
      "region": "광주광역시",
      "district": "남구"
    },
    {
      "id": 207,
      "name": "피자헛 포항북구점",
      "address": "경상북도 포항시 북구 우창동로 70, 109호",
      "contact": "054-232-9539",
      "lat": "36.056982",
      "lng": "129.365752",
      "region": "경상북도",
      "district": "포항시"
    },
    {
      "id": 208,
      "name": "피자헛 포항효자점",
      "address": "경상북도 포항시 남구 효자동 579, 효자웰빙타운SK VIEW2차 근린생활시설 상가 103호",
      "contact": "054-286-6276",
      "lat": "36.007822",
      "lng": "129.340173",
      "region": "경상북도",
      "district": "포항시"
    },
    {
      "id": 209,
      "name": "피자헛 경주황성점",
      "address": "경상북도 경주시 황성동 480-6",
      "contact": "054-774-4306",
      "lat": "35.862595",
      "lng": "129.215959",
      "region": "경상북도",
      "district": "경주시"
    },
    {
      "id": 210,
      "name": "피자헛 포항오천점",
      "address": "경상북도 포항시 오천읍 문덕리 187-3 엠파이어상가 1층 114호",
      "contact": "054-293-3914",
      "lat": "35.963204",
      "lng": "129.403443",
      "region": "경상북도",
      "district": "포항시"
    },
    {
      "id": 211,
      "name": "피자헛 진주혁신점",
      "address": "경상남도 진주시 충무공동 287-5 솔레어빌딩 1층 105호,106호",
      "contact": "055-755-1588",
      "lat": "35.176877",
      "lng": "128.144292",
      "region": "경상남도",
      "district": "진주시"
    },
    {
      "id": 212,
      "name": "피자헛 진주경상대점",
      "address": "경상남도 진주시 진주대로 624",
      "contact": "070-7600-8289",
      "lat": "35.162466",
      "lng": "128.106754",
      "region": "경상남도",
      "district": "진주시"
    },
    {
      "id": 213,
      "name": "피자헛 남경주점",
      "address": "경상북도 경주시 외동읍 연안리 594-4",
      "contact": "054-771-8888",
      "lat": "35.727101",
      "lng": "129.321783",
      "region": "경상북도",
      "district": "경주시"
    },
    {
      "id": 214,
      "name": "피자헛 순천본점",
      "address": "전라남도 순천시 조례동 1597-15",
      "contact": "061-723-6213",
      "lat": "34.952867",
      "lng": "127.522795",
      "region": "전라남도",
      "district": "순천시"
    },
    {
      "id": 215,
      "name": "피자헛 순천장천점",
      "address": "전라남도 순천시 저전동 229-5",
      "contact": "061-901-5587",
      "lat": "34.947562",
      "lng": "127.487047",
      "region": "전라남도",
      "district": "순천시"
    },
    {
      "id": 216,
      "name": "피자헛 김해진영본점",
      "address": "경상남도 김해시 진영읍 장등로6번길 75",
      "contact": "055-346-1212",
      "lat": "35.313229",
      "lng": "128.735631",
      "region": "경상남도",
      "district": "김해시"
    },
    {
      "id": 217,
      "name": "피자헛 순천신대점",
      "address": "전라남도 순천시 해룡면 향매로126-1",
      "contact": "061-723-4589",
      "lat": "34.932649",
      "lng": "127.552545",
      "region": "전라남도",
      "district": "순천시"
    },
    {
      "id": 218,
      "name": "피자헛 광양중마점",
      "address": "전라남도 광양시 중동 1296-11",
      "contact": "061-792-1588",
      "lat": "34.941502",
      "lng": "127.698337",
      "region": "전라남도",
      "district": "광양시"
    },
    {
      "id": 219,
      "name": "피자헛 창원명서2호점",
      "address": "경상남도 창원시 의창구 명서동 202-3번지",
      "contact": "055-288-6996",
      "lat": "35.240774",
      "lng": "128.649704",
      "region": "경상남도",
      "district": "창원시"
    },
    {
      "id": 220,
      "name": "피자헛 마산중앙점",
      "address": "경상남도 창원시 마산합포구 중앙동1가 6-6",
      "contact": "055-242-7490",
      "lat": "35.189951",
      "lng": "128.562815",
      "region": "경상남도",
      "district": "창원시"
    },
    {
      "id": 221,
      "name": "피자헛 창원상남로점",
      "address": "경상남도 창원시 성산구 상남로 192",
      "contact": "055-264-3770",
      "lat": "35.228948",
      "lng": "128.687731",
      "region": "경상남도",
      "district": "창원시"
    },
    {
      "id": 222,
      "name": "피자헛 창원성산점",
      "address": "경상남도 창원시 성산구 가음로 64",
      "contact": "055-274-1588",
      "lat": "35.207502",
      "lng": "128.701899",
      "region": "경상남도",
      "district": "창원시"
    },
    {
      "id": 223,
      "name": "피자헛 김해삼계점",
      "address": "경상남도 김해시 구산동 547-6",
      "contact": "055-322-3477",
      "lat": "35.253298",
      "lng": "128.87135",
      "region": "경상남도",
      "district": "김해시"
    },
    {
      "id": 224,
      "name": "피자헛 김해장유본점",
      "address": "경상남도 김해시 삼문동 39-13 제일프라자 1층",
      "contact": "055-313-3768",
      "lat": "35.202992",
      "lng": "128.808719",
      "region": "경상남도",
      "district": "김해시"
    },
    {
      "id": 225,
      "name": "피자헛 진해중앙점",
      "address": "경상남도 창원시 진해구 이동 675-15",
      "contact": "055-544-6336",
      "lat": "35.154665",
      "lng": "128.696961",
      "region": "경상남도",
      "district": "창원시"
    },
    {
      "id": 226,
      "name": "피자헛 김해율하점",
      "address": "경상남도 김해시 율하1로 165",
      "contact": "055-333-1023",
      "lat": "35.172081",
      "lng": "128.821717",
      "region": "경상남도",
      "district": "김해시"
    },
    {
      "id": 227,
      "name": "피자헛 양산물금점",
      "address": "경상남도 양산시 물금읍 가촌리 1280-4 나래메트로 시티상가 A동 108호",
      "contact": "070-4456-5785",
      "lat": "35.314784",
      "lng": "129.004526",
      "region": "경상남도",
      "district": "양산시"
    },
    {
      "id": 228,
      "name": "피자헛 양산중부점",
      "address": "경상남도 양산시 중부동 685-4",
      "contact": "055-912-0012",
      "lat": "35.337123",
      "lng": "129.033042",
      "region": "경상남도",
      "district": "양산시"
    },
    {
      "id": 229,
      "name": "피자헛 부산덕천본점",
      "address": "부산광역시 북구 덕천동 817, 포레나 부산 덕천 근린생활시설 502동 3호",
      "contact": "051-341-5558",
      "lat": "35.2127206",
      "lng": "129.0130047",
      "region": "부산광역시",
      "district": "북구"
    },
    {
      "id": 230,
      "name": "피자헛 부산학장점",
      "address": "부산광역시 사상구 학감대로 187",
      "contact": "051-325-0772",
      "lat": "35.147988",
      "lng": "128.987707",
      "region": "부산광역시",
      "district": "사상구"
    },
    {
      "id": 231,
      "name": "피자헛 부산명지점",
      "address": "부산광역시 강서구 명지동 3231번지 퀸덤1차아파트 상가동",
      "contact": "051-202-9890",
      "lat": "35.086405",
      "lng": "128.897705",
      "region": "부산광역시",
      "district": "강서구"
    },
    {
      "id": 232,
      "name": "피자헛 부산구서점",
      "address": "부산광역시 금정구 구서동 86-89",
      "contact": "070-4282-1007",
      "lat": "35.248491",
      "lng": "129.090835",
      "region": "부산광역시",
      "district": "금정구"
    },
    {
      "id": 233,
      "name": "피자헛 양산웅상점",
      "address": "경상남도 양산시 삼호1길 36-13(삼호동)",
      "contact": "055-386-0620",
      "lat": "35.413245",
      "lng": "129.167836",
      "region": "경상남도",
      "district": "양산시"
    },
    {
      "id": 234,
      "name": "피자헛 부산온천점",
      "address": "부산광역시 동래구 온천1동 154-12",
      "contact": "051-557-1718",
      "lat": "35.219516",
      "lng": "129.083549",
      "region": "부산광역시",
      "district": "동래구"
    },
    {
      "id": 235,
      "name": "피자헛 부산부암점",
      "address": "부산광역시 부산진구 부암동 80-50",
      "contact": "051-808-6166",
      "lat": "35.165179",
      "lng": "129.052789",
      "region": "부산광역시",
      "district": "부산진구"
    },
    {
      "id": 236,
      "name": "피자헛 부산연산점",
      "address": "부산광역시 연제구 거제동 1470-14",
      "contact": "051-864-3422",
      "lat": "35.192474",
      "lng": "129.080849",
      "region": "부산광역시",
      "district": "연제구"
    },
    {
      "id": 237,
      "name": "피자헛 부산진역본점",
      "address": "부산광역시 동구 중앙대로 377",
      "contact": "070-7709-6235",
      "lat": "35.129163",
      "lng": "129.0488",
      "region": "부산광역시",
      "district": "동구"
    },
    {
      "id": 238,
      "name": "피자헛 부산망미2호점",
      "address": "부산광역시 수영구 과정로 58-1",
      "contact": "051-752-8976",
      "lat": "35.17658",
      "lng": "129.107611",
      "region": "부산광역시",
      "district": "수영구"
    },
    {
      "id": 239,
      "name": "피자헛 부산대연점",
      "address": "부산광역시 남구 대연동 324-17 1층",
      "contact": "051-621-1320",
      "lat": "35.135499",
      "lng": "129.096446",
      "region": "부산광역시",
      "district": "남구"
    },
    {
      "id": 240,
      "name": "피자헛 부산용호점",
      "address": "부산광역시 남구 용호동 532-6",
      "contact": "051-611-8981",
      "lat": "35.113767",
      "lng": "129.111293",
      "region": "부산광역시",
      "district": "남구"
    },
    {
      "id": 241,
      "name": "피자헛 부산기장점",
      "address": "부산광역시 기장군 일광면 삼성리 828 센텀타워 1층",
      "contact": "051-722-0678",
      "lat": "35.266303",
      "lng": "129.225314",
      "region": "부산광역시",
      "district": "기장군"
    },
    {
      "id": 242,
      "name": "피자헛 울산삼호점",
      "address": "울산광역시 남구 무거동 172-8",
      "contact": "052-224-2050",
      "lat": "35.5521",
      "lng": "129.268413",
      "region": "울산광역시",
      "district": "남구"
    },
    {
      "id": 243,
      "name": "피자헛 신해운대점",
      "address": "부산광역시 해운대구 좌동 1327-5",
      "contact": "051-704-6862",
      "lat": "35.168705",
      "lng": "129.182574",
      "region": "부산광역시",
      "district": "해운대구"
    },
    {
      "id": 244,
      "name": "피자헛 울산달동점",
      "address": "울산광역시 남구 달동 880-6",
      "contact": "070-7853-5407",
      "lat": "35.536303",
      "lng": "129.313881",
      "region": "울산광역시",
      "district": "남구"
    },
    {
      "id": 245,
      "name": "피자헛 울산약사로점",
      "address": "울산광역시 중구 반구2동 26-24번지",
      "contact": "052-289-0029",
      "lat": "35.566524",
      "lng": "129.340323",
      "region": "울산광역시",
      "district": "중구"
    },
    {
      "id": 246,
      "name": "피자헛 울산호계점",
      "address": "울산광역시 북구 호계동 258-10",
      "contact": "052-911-5588",
      "lat": "35.628517",
      "lng": "129.351217",
      "region": "울산광역시",
      "district": "북구"
    },
    {
      "id": 247,
      "name": "피자헛 울산송정점",
      "address": "울산광역시 북구 박상진2로 54",
      "contact": "052-291-1588",
      "lat": "35.59889",
      "lng": "129.36145",
      "region": "울산광역시",
      "district": "북구"
    },
    {
      "id": 248,
      "name": "피자헛 여수문수점",
      "address": "전라남도 여수시 문수동 128-1",
      "contact": "061-652-5588",
      "lat": "34.752529",
      "lng": "127.701443",
      "region": "전라남도",
      "district": "여수시"
    },
    {
      "id": 249,
      "name": "피자헛 여수시청점",
      "address": "전라남도 여수시 학동 106-4, 1층",
      "contact": "061-662-5588",
      "lat": "34.760784",
      "lng": "127.659423",
      "region": "전라남도",
      "district": "여수시"
    },
    {
      "id": 250,
      "name": "피자헛 제주이도본점",
      "address": "제주특별자치도 제주시 연삼로 436",
      "contact": "070-7843-1465",
      "lat": "33.496983",
      "lng": "126.5375",
      "region": "제주특별자치도",
      "district": "제주시"
    },
    {
      "id": 251,
      "name": "피자헛 신제주점",
      "address": "제주특별자치도 제주시 국기로 9 (제주도 연동 1481)",
      "contact": "064-711-8295",
      "lat": "33.480896",
      "lng": "126.490023",
      "region": "제주특별자치도",
      "district": "제주시"
    },
    {
      "id": 252,
      "name": "피자헛매장",
      "address": "경상북도 울릉군 북면 나리 186",
      "contact": null,
      "lat": "37.581276",
      "lng": "126.911695",
      "region": "경상북도",
      "district": "울릉군"
    },
    {
      "id": 253,
      "name": "피자헛 서귀포점",
      "address": "제주특별자치도 서귀포시 동홍동 116-9",
      "contact": "064-732-0973",
      "lat": "33.254949",
      "lng": "126.570502",
      "region": "제주특별자치도",
      "district": "서귀포시"
    },
    {
      "id": 254,
      "name": "피자헛 개발계 0999",
      "address": "제주특별자치도 서귀포시 대정읍 가파리 583-1",
      "contact": null,
      "lat": "37.508044",
      "lng": "127.065847",
      "region": "제주특별자치도",
      "district": "서귀포시"
    }
  ]
}
