{
  "meta": {
    "brand_id": "2f2c1d149bb64928b53310360d959b81",
    "brand_name": "하삼동커피",
    "totalCount": 713,
    "extractedAt": "2026-03-17T08:59:53.534Z",
    "sourceUrl": "https://www.hasamdongcoffee.com/store.php"
  },
  "stores": [
    {
      "id": 1,
      "name": "하삼동커피 거제장목마을점",
      "address": "경남 거제시 장목면 거제북로 1163-1 (장목리) 우측 하삼동커피",
      "contact": "010-5543-5903",
      "lat": "34.9872005881931",
      "lng": "128.680813064329",
      "region": "경남",
      "district": "거제시"
    },
    {
      "id": 2,
      "name": "하삼동커피 양산서창점",
      "address": "경남 양산시 서창서2길 2 (삼호동, 새마을금고) 1층 2-1호",
      "contact": "010-8518-2964",
      "lat": "35.4163539675977",
      "lng": "129.172435661532",
      "region": "경남",
      "district": "양산시"
    },
    {
      "id": 3,
      "name": "하삼동커피 창녕대신새길점",
      "address": "경남 창녕군 남지읍 대신길 1 (남지리) 1층 하삼동커피",
      "contact": "070-4647-0320",
      "lat": "35.3886248289209",
      "lng": "128.473353087096",
      "region": "경남",
      "district": "창녕군"
    },
    {
      "id": 4,
      "name": "하삼동커피 인천영종운서역점",
      "address": "인천 중구 운서동 2803-1 메가스타 영종 217호",
      "contact": "032-746-0337",
      "lat": "37.4934353770054",
      "lng": "126.49149218543",
      "region": "인천",
      "district": "중구"
    },
    {
      "id": 5,
      "name": "하삼동커피 수원 경희대국제캠퍼스점",
      "address": "경기 수원시 영통구 영통동 1023-5 1층 101호",
      "contact": "070-8670-2722",
      "lat": "37.2483601682995",
      "lng": "127.076742082513",
      "region": "경기",
      "district": "수원시"
    },
    {
      "id": 6,
      "name": "하삼동커피 창녕영산점",
      "address": "경남 창녕군 영산면 서리상촌길 321 (서리) 하삼동커피",
      "contact": "055-521-5889",
      "lat": "35.456026357912",
      "lng": "128.525968699967",
      "region": "경남",
      "district": "창녕군"
    },
    {
      "id": 7,
      "name": "하삼동커피 김해대동산단점",
      "address": "경남 김해시 대동면 대동산단2로 106 (월촌리) 1층",
      "contact": "010-6390-4917",
      "lat": "35.2671910252799",
      "lng": "128.995448169964",
      "region": "경남",
      "district": "김해시"
    },
    {
      "id": 8,
      "name": "하삼동커피 부산가내찬태광후지킨점",
      "address": "부산 강서구 화전산단3로 32 (화전동) 24동 1층",
      "contact": "051-961-1323",
      "lat": "35.1080709478234",
      "lng": "128.875814890578",
      "region": "부산",
      "district": "강서구"
    },
    {
      "id": 9,
      "name": "하삼동커피 울산대송점",
      "address": "울산 동구 학문로 87 (화정동) 1층",
      "contact": "070-8287-0323",
      "lat": "35.5037073005697",
      "lng": "129.419581427486",
      "region": "울산",
      "district": "동구"
    },
    {
      "id": 10,
      "name": "하삼동커피 울산선암대나리점",
      "address": "울산 남구 두왕로190번길 18-1 (선암동) 1층",
      "contact": "052-950-9999",
      "lat": "35.5189222316827",
      "lng": "129.313411617841",
      "region": "울산",
      "district": "남구"
    },
    {
      "id": 11,
      "name": "하삼동커피 시흥은계호수공원점",
      "address": "경기 시흥시 은계중앙로 250 (은행동, 은계호수타운2) 은계호수타운2 116, 117호",
      "contact": "031-315-3336",
      "lat": "37.446185845659",
      "lng": "126.803968654338",
      "region": "경기",
      "district": "시흥시"
    },
    {
      "id": 12,
      "name": "하삼동커피 울산태화국가정원",
      "address": "울산 중구 태화강국가정원길 55 (태화동) 1층 하삼동커피",
      "contact": "010-5617-1029",
      "lat": "35.5536616841263",
      "lng": "129.281881186663",
      "region": "울산",
      "district": "중구"
    },
    {
      "id": 13,
      "name": "하삼동커피 부산기장월전점",
      "address": "부산 기장군 기장읍 죽성로 378 (죽성리, 월전슈퍼) 1층 하삼동커피",
      "contact": "051-915-3080",
      "lat": "35.238578946431",
      "lng": "129.243050372071",
      "region": "부산",
      "district": "기장군"
    },
    {
      "id": 14,
      "name": "하삼동커피 통영중앙시장점",
      "address": "경남 통영시 통영해안로 341 (중앙동) 1층 하삼동커피",
      "contact": "055-648-0045",
      "lat": "34.8449481947636",
      "lng": "128.424804363551",
      "region": "경남",
      "district": "통영시"
    },
    {
      "id": 15,
      "name": "하삼동커피 인천청라국제도시점",
      "address": "인천 서구 미래로 11 (청라동, 청라썬앤빌 에코스타) 청라썬앤빌에코스타 상가 104호",
      "contact": "010-4833-4218",
      "lat": "37.551682647848",
      "lng": "126.618348550547",
      "region": "인천",
      "district": "서구"
    },
    {
      "id": 16,
      "name": "하삼동커피 김해가동마을점",
      "address": "경남 김해시 한림면 한림로816번길 66 (가동리) 2동 1층",
      "contact": "070-4849-0387",
      "lat": "35.3353783695421",
      "lng": "128.762771248045",
      "region": "경남",
      "district": "김해시"
    },
    {
      "id": 17,
      "name": "하삼동커피 포항세명기독병원점",
      "address": "경북 포항시 남구 포스코대로353번길 7 (대도동) 제1동 1층",
      "contact": "010-3518-1777",
      "lat": "36.0178904971546",
      "lng": "129.362500587799",
      "region": "경북",
      "district": "포항시"
    },
    {
      "id": 18,
      "name": "하삼동커피 부산해운대마린시티점",
      "address": "부산 해운대구 마린시티3로 23 (우동, 벽산이오렌지프라자) 1층 135호",
      "contact": "051-710-7704",
      "lat": "35.1566471472902",
      "lng": "129.146930632686",
      "region": "부산",
      "district": "해운대구"
    },
    {
      "id": 19,
      "name": "하삼동커피 울산성안청구점",
      "address": "울산 중구 함월22길 6 (성안동) 101호 하삼동커피",
      "contact": "070-7510-3288",
      "lat": "35.5785061284111",
      "lng": "129.318069916069",
      "region": "울산",
      "district": "중구"
    },
    {
      "id": 20,
      "name": "하삼동커피 서울 서대문역점",
      "address": "서울 서대문구 충정로2가 78 중앙요양병원 1층",
      "contact": "070-7543-3418",
      "lat": "37.5652024417661",
      "lng": "126.965463024173",
      "region": "서울",
      "district": "서대문구"
    },
    {
      "id": 21,
      "name": "하삼동커피 부산강서대저점",
      "address": "부산 강서구 대저로 57 (대저1동) B동 1층(대저1동)",
      "contact": "051-971-5280",
      "lat": "35.2152826880812",
      "lng": "128.958863541201",
      "region": "부산",
      "district": "강서구"
    },
    {
      "id": 22,
      "name": "하삼동커피 안산부곡종합시장점",
      "address": "경기 안산시 상록구 부곡동 685-10 프라움포레 A동 101호",
      "contact": "031-8042-2042",
      "lat": "37.3263130464487",
      "lng": "126.859309743513",
      "region": "경기",
      "district": "안산시"
    },
    {
      "id": 23,
      "name": "하삼동커피 일산후곡학원가점",
      "address": "경기 고양시 일산서구 일산로 547 (일산동, 일신1조합상가) 1층 101호",
      "contact": "070-8691-0009",
      "lat": "37.67767152858",
      "lng": "126.767101305363",
      "region": "경기",
      "district": "고양시"
    },
    {
      "id": 24,
      "name": "하삼동커피 안성공도점",
      "address": "경기 안성시 공도읍 공도4로 11 (만정리) 101호",
      "contact": "010-2941-7131",
      "lat": "37.0011706529321",
      "lng": "127.171676675783",
      "region": "경기",
      "district": "안성시"
    },
    {
      "id": 25,
      "name": "하삼동커피 양산물금동일점",
      "address": "경남 양산시 물금읍 가촌서로 93 (가촌리, 양산 물금 동일스위트) 302동 104호",
      "contact": "055-382-2328",
      "lat": "35.3230373652587",
      "lng": "128.992287131168",
      "region": "경남",
      "district": "양산시"
    },
    {
      "id": 26,
      "name": "하삼동커피 울산하늘채라크뷰점",
      "address": "울산 남구 산업로355번길 45 (선암동) 1층 하삼동커피",
      "contact": "010-9325-5367",
      "lat": "35.5173982795017",
      "lng": "129.336032839705",
      "region": "울산",
      "district": "남구"
    },
    {
      "id": 27,
      "name": "하삼동커피 대전관저마치광장점",
      "address": "대전 서구 관저중로64번길 63 (관저동) 블루상가 103호",
      "contact": "042-543-4310",
      "lat": "36.2980677320671",
      "lng": "127.33826578694",
      "region": "대전",
      "district": "서구"
    },
    {
      "id": 28,
      "name": "하삼동커피 대구팔거역점",
      "address": "대구 북구 팔거천동로 206 (동천동) 102호",
      "contact": "0505-880-0101",
      "lat": "35.9424205274595",
      "lng": "128.558411947033",
      "region": "대구",
      "district": "북구"
    },
    {
      "id": 29,
      "name": "하삼동커피 영덕터미널점",
      "address": "경북 영덕군 영덕읍 군청길 61 (덕곡리) 102호",
      "contact": "054-732-3334",
      "lat": "36.414131825573",
      "lng": "129.372515320168",
      "region": "경북",
      "district": "영덕군"
    },
    {
      "id": 30,
      "name": "하삼동커피 울산북구대동점",
      "address": "울산 북구 천곡길 161 (천곡동) 107동 1층 107호",
      "contact": "052-282-7442",
      "lat": "35.6386703005982",
      "lng": "129.327902276418",
      "region": "울산",
      "district": "북구"
    },
    {
      "id": 31,
      "name": "하삼동커피 창녕인교점",
      "address": "경남 창녕군 부곡면 온천로 1181 (수다리) 1층",
      "contact": "055-521-1069",
      "lat": "35.4263209413786",
      "lng": "128.64906908084",
      "region": "경남",
      "district": "창녕군"
    },
    {
      "id": 32,
      "name": "하삼동커피 부산명지에코델타푸르지오린점",
      "address": "부산 강서구 에코델타3로 43 (강동동, 에코델타시티 푸르지오 린) 근린생활시설 2-1동 101호",
      "contact": "010-2002-5365",
      "lat": "35.1428719245537",
      "lng": "128.920043691156",
      "region": "부산",
      "district": "강서구"
    },
    {
      "id": 33,
      "name": "하삼동커피 창원대상힐스테이트점",
      "address": "경남 창원시 성산구 대상중앙로 10 (중앙동) 128동 107호",
      "contact": "055-289-0644",
      "lat": "35.2237432287452",
      "lng": "128.67107753092",
      "region": "경남",
      "district": "창원시"
    },
    {
      "id": 34,
      "name": "하삼동커피 화성수원대점",
      "address": "경기 화성시 봉담읍 와우로 112 (와우리) 하삼동커피 수원대점",
      "contact": "031-222-5589",
      "lat": "37.2141541220793",
      "lng": "126.978099831143",
      "region": "경기",
      "district": "화성시"
    },
    {
      "id": 35,
      "name": "하삼동커피 서울방배르엘점",
      "address": "서울 서초구 방배중앙로 8 (방배동) 하삼동커피 방배르엘점",
      "contact": "010-4103-1759",
      "lat": "37.4809615776779",
      "lng": "126.993284859585",
      "region": "서울",
      "district": "서초구"
    },
    {
      "id": 36,
      "name": "하삼동커피 창원북면신촌점",
      "address": "경남 창원시 의창구 북면 신촌리 995-1 1층 하삼동커피",
      "contact": "070-7543-7503",
      "lat": "35.3454204772721",
      "lng": "128.605446964139",
      "region": "경남",
      "district": "창원시"
    },
    {
      "id": 37,
      "name": "하삼동커피 인천계양병방점",
      "address": "인천 계양구 계양산로215번길 14 (병방동) 1층, 2층",
      "contact": "032-721-9800",
      "lat": "37.5485050666661",
      "lng": "126.740857954632",
      "region": "인천",
      "district": "계양구"
    },
    {
      "id": 38,
      "name": "하삼동커피 울산서사시티프라디움점",
      "address": "울산 울주군 범서읍 다운서사로 240 (서사리, 서사시티프라디움) 103호 하삼동커피",
      "contact": "010-6287-7816",
      "lat": "35.5938806430492",
      "lng": "129.276918639",
      "region": "울산",
      "district": "울주군"
    },
    {
      "id": 39,
      "name": "하삼동커피 부산대학교북문점",
      "address": "부산 금정구 장전동 40 자유관 기숙사 1층 하삼동커피",
      "contact": "051-583-1524",
      "lat": "35.2334617491952",
      "lng": "129.080380563927",
      "region": "부산",
      "district": "금정구"
    },
    {
      "id": 40,
      "name": "하삼동커피 화성비봉상업지구점",
      "address": "경기 화성시 비봉면 간곡2길 8 (삼화리) 1동 108호",
      "contact": "0507-1475-5617",
      "lat": "37.2479576773982",
      "lng": "126.871905580161",
      "region": "경기",
      "district": "화성시"
    },
    {
      "id": 41,
      "name": "하삼동커피 시흥갯골생태공원점",
      "address": "경기 시흥시 섬말길 94 (장곡동) 시흥갯골생태공원 내 4동 1층 일부호",
      "contact": "031-361-0077",
      "lat": "37.3914742775993",
      "lng": "126.783952982442",
      "region": "경기",
      "district": "시흥시"
    },
    {
      "id": 42,
      "name": "하삼동커피 충남아산신창점",
      "address": "충남 아산시 신창면 남성길 152-12 (남성리) 1층 102호",
      "contact": "041-428-3268",
      "lat": "36.7908352440482",
      "lng": "126.956416508511",
      "region": "충남",
      "district": "아산시"
    },
    {
      "id": 43,
      "name": "하삼동커피 충북서충주푸르지오점",
      "address": "충북 충주시 주덕읍 화개3길 46 (화곡리) 105호",
      "contact": "0507-1332-2529",
      "lat": "37.0086126660638",
      "lng": "127.816809470873",
      "region": "충북",
      "district": "충주시"
    },
    {
      "id": 44,
      "name": "하삼동커피 충북우석대진천캠퍼스점",
      "address": "충북 진천군 진천읍 대학로 66 (교성리, 우석대학교 진천캠퍼스) 미래센터동 지하1층",
      "contact": "010-7168-5361",
      "lat": "36.8452703460677",
      "lng": "127.436922366221",
      "region": "충북",
      "district": "진천군"
    },
    {
      "id": 45,
      "name": "하삼동커피 서울아차산역점",
      "address": "서울 광진구 천호대로 671 (구의동, 파크타운) 1층 106호",
      "contact": "0507-1413-5782",
      "lat": "37.5513392358641",
      "lng": "127.090532462896",
      "region": "서울",
      "district": "광진구"
    },
    {
      "id": 46,
      "name": "하삼동커피 울산삼산공구월드점",
      "address": "울산 남구 정동로 15-1 (삼산동) 하삼동커피",
      "contact": "010-2008-0305",
      "lat": "35.5353440243003",
      "lng": "129.343637707704",
      "region": "울산",
      "district": "남구"
    },
    {
      "id": 47,
      "name": "하삼동커피 부산일광해수욕장점",
      "address": "부산 기장군 일광읍 일광로 80 (삼성리, 해연반점) 하삼동커피",
      "contact": "051-715-9200",
      "lat": "35.2633701467047",
      "lng": "129.232856620827",
      "region": "부산",
      "district": "기장군"
    },
    {
      "id": 48,
      "name": "하삼동커피 창원동전산단점",
      "address": "경남 창원시 의창구 북면 동전리 713-5 하삼동커피",
      "contact": "010-8434-9531",
      "lat": "35.3159953892141",
      "lng": "128.603411721189",
      "region": "경남",
      "district": "창원시"
    },
    {
      "id": 49,
      "name": "하삼동커피 부산반룡산단점",
      "address": "부산 기장군 장안읍 반룡리 906-3 하삼동커피",
      "contact": "010-4066-0826",
      "lat": "35.3297576762322",
      "lng": "129.255604743809",
      "region": "부산",
      "district": "기장군"
    },
    {
      "id": 50,
      "name": "하삼동커피 대구서구청점",
      "address": "대구 서구 평리동 1087-31 1층 하삼동커피",
      "contact": "010-8231-2847",
      "lat": "35.8729601218159",
      "lng": "128.557749306824",
      "region": "대구",
      "district": "서구"
    },
    {
      "id": 51,
      "name": "하삼동커피 부산해운대아이파크점",
      "address": "부산 해운대구 마린시티2로 38 (우동, 해운대아이파크) C1동 117호",
      "contact": "051-710-7007",
      "lat": "35.157037795554",
      "lng": "129.143328681551",
      "region": "부산",
      "district": "해운대구"
    },
    {
      "id": 52,
      "name": "하삼동커피 목포하당현대점",
      "address": "전남 목포시 비파로 31 (상동) 1층 하삼동커피",
      "contact": "010-3646-4687",
      "lat": "34.8015644559949",
      "lng": "126.427468185522",
      "region": "전남",
      "district": "목포시"
    },
    {
      "id": 53,
      "name": "하삼동커피 김해뜨란채사거리점",
      "address": "경남 김해시 함박로 55 (외동) 1층 하삼동커피",
      "contact": "055-724-3003",
      "lat": "35.2330334398714",
      "lng": "128.860245075699",
      "region": "경남",
      "district": "김해시"
    },
    {
      "id": 54,
      "name": "하삼동커피 양산물금역점",
      "address": "경남 양산시 물금읍 물금로 16 (물금리) 1층 하삼동커피",
      "contact": "055-785-4768",
      "lat": "35.3077629431629",
      "lng": "128.987767791734",
      "region": "경남",
      "district": "양산시"
    },
    {
      "id": 55,
      "name": "하삼동커피 대구안지랑역점",
      "address": "대구 남구 대명로 128 (대명동) 1층 하삼동커피",
      "contact": "053-654-3335",
      "lat": "35.8391472400317",
      "lng": "128.571576777049",
      "region": "대구",
      "district": "남구"
    },
    {
      "id": 56,
      "name": "하삼동커피 부산다대푸르지오점",
      "address": "부산 사하구 윤공단로 136-1 (다대동) 1층 하삼동커피",
      "contact": "051-714-2787",
      "lat": "35.0611503480718",
      "lng": "128.973309844279",
      "region": "부산",
      "district": "사하구"
    },
    {
      "id": 57,
      "name": "하삼동커피 대구교동점",
      "address": "대구 중구 동성로 58 (동성로2가) 1층 하삼동커피",
      "contact": "053-425-3536",
      "lat": "35.8719266175261",
      "lng": "128.595862794263",
      "region": "대구",
      "district": "중구"
    },
    {
      "id": 58,
      "name": "하삼동커피 경남밀양내이동점",
      "address": "경남 밀양시 백민로 60-1 (내이동) 1층 하삼동커피",
      "contact": "055-802-7880",
      "lat": "35.4980416237443",
      "lng": "128.747070830853",
      "region": "경남",
      "district": "밀양시"
    },
    {
      "id": 59,
      "name": "하삼동커피 경남거제대교점",
      "address": "경남 거제시 사등면 거제남서로 5344 (덕호리) 1층 하삼동커피",
      "contact": "055-950-8766",
      "lat": "34.8830133012054",
      "lng": "128.478369351371",
      "region": "경남",
      "district": "거제시"
    },
    {
      "id": 60,
      "name": "하삼동커피 서울도곡점",
      "address": "서울 강남구 도곡동 518-10 1층",
      "contact": "070-4154-1125",
      "lat": "37.4824241958937",
      "lng": "127.043039286912",
      "region": "서울",
      "district": "강남구"
    },
    {
      "id": 61,
      "name": "하삼동커피 남양주오남역점",
      "address": "경기 남양주시 오남읍 양지리 667 106호",
      "contact": "010-3297-9230",
      "lat": "37.7028182310995",
      "lng": "127.192909030222",
      "region": "경기",
      "district": "남양주시"
    },
    {
      "id": 62,
      "name": "하삼동커피 대구성서공단점",
      "address": "대구 달서구 성서공단로 69 (호림동) 1층 하삼동커피",
      "contact": "053-588-0010",
      "lat": "35.8352093038002",
      "lng": "128.490130036579",
      "region": "대구",
      "district": "달서구"
    },
    {
      "id": 63,
      "name": "하삼동커피 경주충효그린점",
      "address": "경북 경주시 충효녹지길 52 (충효동) 1층 하삼동커피",
      "contact": "054-745-8999",
      "lat": "35.8422133587614",
      "lng": "129.185356297767",
      "region": "경북",
      "district": "경주시"
    },
    {
      "id": 64,
      "name": "하삼동커피 경기화성비봉점",
      "address": "경기 화성시 비봉면 간곡6길 6-8 (삼화리) 101호",
      "contact": "0507-1430-3241",
      "lat": "37.2480668609718",
      "lng": "126.865307463026",
      "region": "경기",
      "district": "화성시"
    },
    {
      "id": 65,
      "name": "하삼동커피 서울성신여대입구역점",
      "address": "서울 성북구 동소문로 98 (동소문동5가, 메디컬센터빌딩) 1층",
      "contact": "0507-1478-0825",
      "lat": "37.5922520653915",
      "lng": "127.01617250792",
      "region": "서울",
      "district": "성북구"
    },
    {
      "id": 66,
      "name": "하삼동커피 송도아크베이점",
      "address": "인천 연수구 워터프런트로 150 (송도동, 더샵 송도 아크베이) 301동 1층 119",
      "contact": "032-831-7623",
      "lat": "37.3992288565526",
      "lng": "126.628727327175",
      "region": "인천",
      "district": "연수구"
    },
    {
      "id": 67,
      "name": "하삼동커피 경기수원오목천역점",
      "address": "경기 수원시 권선구 삼천병마로 1563 (오목천동) 1, 2층 (오목천동)",
      "contact": "031-297-8797",
      "lat": "37.2421199845751",
      "lng": "126.962770534786",
      "region": "경기",
      "district": "수원시"
    },
    {
      "id": 68,
      "name": "하삼동커피 서울신길역점",
      "address": "서울 영등포구 영등포로 347 (신길동, 베스트타워) 1층",
      "contact": "0507-2085-4929",
      "lat": "37.5154611152724",
      "lng": "126.917717577016",
      "region": "서울",
      "district": "영등포구"
    },
    {
      "id": 69,
      "name": "하삼동커피 평택용죽점",
      "address": "경기 평택시 용죽2로 32-25 (용이동) 디하엔 1층 101호",
      "contact": "010-8772-4510",
      "lat": "36.9924464081657",
      "lng": "127.124484254348",
      "region": "경기",
      "district": "평택시"
    },
    {
      "id": 70,
      "name": "하삼동커피 서울대입구역점",
      "address": "서울 관악구 관악로 148 (봉천동) 1층",
      "contact": "0507-1447-0959",
      "lat": "37.4784570897706",
      "lng": "126.952584285368",
      "region": "서울",
      "district": "관악구"
    },
    {
      "id": 71,
      "name": "하삼동커피 인천문학호산점",
      "address": "인천 미추홀구 소성로 317 (문학동) 1층 102호",
      "contact": "0507-1317-3984",
      "lat": "37.4377630629322",
      "lng": "126.682511769144",
      "region": "인천",
      "district": "미추홀구"
    },
    {
      "id": 72,
      "name": "하삼동커피 대구서남시장점",
      "address": "대구 달서구 당산로41길 38 (감삼동) 1층",
      "contact": "053-201-1133",
      "lat": "35.8545374808553",
      "lng": "128.545932533033",
      "region": "대구",
      "district": "달서구"
    },
    {
      "id": 73,
      "name": "하삼동커피 울산화정힐스테이트점",
      "address": "울산 동구 화진길 100 (화정동, 힐스테이트 이스턴베이) 1층 1동 101호",
      "contact": "070-4035-7798",
      "lat": "35.4937725225038",
      "lng": "129.422935393819",
      "region": "울산",
      "district": "동구"
    },
    {
      "id": 74,
      "name": "하삼동커피 대구구지중앙점",
      "address": "대구 달성군 구지면 과학마을로 42 (응암리, 오창빌딩) 103호",
      "contact": "070-7814-7884",
      "lat": "35.6555507132167",
      "lng": "128.417989188782",
      "region": "대구",
      "district": "달성군"
    },
    {
      "id": 75,
      "name": "하삼동커피 김해불암점",
      "address": "경남 김해시 식만로 379 (불암동) 1층",
      "contact": "055-723-4855",
      "lat": "35.2219083936591",
      "lng": "128.925894166854",
      "region": "경남",
      "district": "김해시"
    },
    {
      "id": 76,
      "name": "하삼동커피 부산당감백산점",
      "address": "부산 부산진구 백양순환로 51 (당감동, 백산아파트) 1층",
      "contact": "051-913-1253",
      "lat": "35.1694055079507",
      "lng": "129.033171845871",
      "region": "부산",
      "district": "부산진구"
    },
    {
      "id": 77,
      "name": "하삼동커피 부산신평펜타플렉스점",
      "address": "부산 사하구 신산로 120 (신평동) 105호",
      "contact": "051-711-4888",
      "lat": "35.0892780025994",
      "lng": "128.968570830265",
      "region": "부산",
      "district": "사하구"
    },
    {
      "id": 78,
      "name": "하삼동커피 칠곡동명금암점",
      "address": "경북 칠곡군 동명면 금암1길 23 (금암리) 1층",
      "contact": "053-921-1999",
      "lat": "35.9825663712689",
      "lng": "128.55483529763",
      "region": "경북",
      "district": "칠곡군"
    },
    {
      "id": 79,
      "name": "하삼동커피 울산온산공단점",
      "address": "울산 울주군 온산읍 화산리 1011-4 하삼동커피",
      "contact": "052-955-0521",
      "lat": "35.438570784096",
      "lng": "129.334394397627",
      "region": "울산",
      "district": "울주군"
    },
    {
      "id": 80,
      "name": "하삼동커피 경기오산원동점",
      "address": "경기 오산시 경기대로 155 (원동, 신한프라자A) 1층 107호",
      "contact": "070-5030-6129",
      "lat": "37.1386456909576",
      "lng": "127.07311091148",
      "region": "경기",
      "district": "오산시"
    },
    {
      "id": 81,
      "name": "하삼동커피 밀양시청점",
      "address": "경남 밀양시 시청로 25 (내이동) 1층",
      "contact": "055-802-7577",
      "lat": "35.504432367424",
      "lng": "128.744487149364",
      "region": "경남",
      "district": "밀양시"
    },
    {
      "id": 82,
      "name": "하삼동커피 진주성북봉곡점",
      "address": "경남 진주시 촉석로 127 (봉곡동) 1층,158호",
      "contact": "055-741-7060",
      "lat": "35.1937953951235",
      "lng": "128.076284579334",
      "region": "경남",
      "district": "진주시"
    },
    {
      "id": 83,
      "name": "하삼동커피 김해율하더스카이시티점",
      "address": "경상남도 김해시 장유로 500 301동 J114호 (신문동)",
      "contact": "055-723-3151",
      "lat": "35.18453510666414",
      "lng": "128.82279036357414",
      "region": "경상남도",
      "district": "김해시"
    },
    {
      "id": 84,
      "name": "하삼동커피 울산장생포고래박물관점",
      "address": "울산 남구 장생포고래로213번길 3 (장생포동) 1층",
      "contact": "052-227-2705",
      "lat": "35.5028559182593",
      "lng": "129.377325307687",
      "region": "울산",
      "district": "남구"
    },
    {
      "id": 85,
      "name": "하삼동커피 김해삼계점",
      "address": "경남 김해시 삼계중앙로 31 (삼계동) 103호 일부(대흥빌딩)",
      "contact": "055-327-0601",
      "lat": "35.2607371634983",
      "lng": "128.868309567667",
      "region": "경남",
      "district": "김해시"
    },
    {
      "id": 86,
      "name": "하삼동커피 동해시청점",
      "address": "강원특별자치도 동해시 중앙로 242 (천곡동, 샘실빌딩) 1층 102호",
      "contact": "070-4800-4881",
      "lat": "37.5223143858312",
      "lng": "129.114564650299",
      "region": "강원특별자치도",
      "district": "동해시"
    },
    {
      "id": 87,
      "name": "하삼동커피 서울마포역점",
      "address": "서울 마포구 삼개로 24 (도화동, 용현빌딩) 1층 105, 106호",
      "contact": "0507-2093-5604",
      "lat": "37.5380766743398",
      "lng": "126.947290085643",
      "region": "서울",
      "district": "마포구"
    },
    {
      "id": 88,
      "name": "하삼동커피 진주정촌예하리점",
      "address": "경남 진주시 정촌면 예하리  1397-5",
      "contact": "055-756-5333",
      "lat": "35.1145798646446",
      "lng": "128.104297637113",
      "region": "경남",
      "district": "진주시"
    },
    {
      "id": 89,
      "name": "하삼동커피 울산롯데시네마점",
      "address": "울산 남구 삼산로 288 (삼산동, 롯데백화점, 울산고속버스터미널) 3층",
      "contact": "052-960-5520",
      "lat": "35.5386226526119",
      "lng": "129.338866778005",
      "region": "울산",
      "district": "남구"
    },
    {
      "id": 90,
      "name": "하삼동커피 대구월성푸르지오점",
      "address": "대구 달서구 조암로6길 20 (월성동, 월성푸르지오) 상가1동 1층",
      "contact": "010-7345-0155",
      "lat": "35.8291284926895",
      "lng": "128.52602121332",
      "region": "대구",
      "district": "달서구"
    },
    {
      "id": 91,
      "name": "하삼동커피 서울압구정로데오점",
      "address": "서울 강남구 신사동  657-19",
      "contact": "02-545-4145",
      "lat": "37.526097676358",
      "lng": "127.037939508334",
      "region": "서울",
      "district": "강남구"
    },
    {
      "id": 92,
      "name": "하삼동커피 영덕강구시장길점",
      "address": "경북 영덕군 강구면 강구시장길 46 (오포리) 1층 102호",
      "contact": "054-733-9989",
      "lat": "36.360376307377",
      "lng": "129.377531279025",
      "region": "경북",
      "district": "영덕군"
    },
    {
      "id": 93,
      "name": "하삼동커피 창원에일린의뜰점",
      "address": "경남 창원시 성산구 대원로 87 (대원동) 1층",
      "contact": "055-237-8422",
      "lat": "35.2342773615178",
      "lng": "128.651842286271",
      "region": "경남",
      "district": "창원시"
    },
    {
      "id": 94,
      "name": "하삼동커피 충주호암힐데스점",
      "address": "충북 충주시 호암토성2로 1 (호암동, 호암 힐데스하임) B동 102호",
      "contact": "043-912-9060",
      "lat": "36.9547411279707",
      "lng": "127.933329482108",
      "region": "충북",
      "district": "충주시"
    },
    {
      "id": 95,
      "name": "하삼동커피 주식회사 하삼동 명지씨지브이직영점",
      "address": "부산 강서구 명지국제8로10번길 38 (명지동) 제1동 101호(명지동,플러스시네마)",
      "contact": "051-717-3332",
      "lat": "35.0943776683714",
      "lng": "128.903500417281",
      "region": "부산",
      "district": "강서구"
    },
    {
      "id": 96,
      "name": "하삼동커피 서울금호역점",
      "address": "서울 성동구 장터길 34 (금호동4가, 남지빌딩) 하삼동커피",
      "contact": "070-8211-1356",
      "lat": "37.5481743997868",
      "lng": "127.019612621523",
      "region": "서울",
      "district": "성동구"
    },
    {
      "id": 97,
      "name": "하삼동커피 안양만안구청점",
      "address": "경기 안양시 만안구 만안로 35 (안양동, 빌로채) 1층",
      "contact": "031-444-7229",
      "lat": "37.386335581797",
      "lng": "126.933874259452",
      "region": "경기",
      "district": "안양시"
    },
    {
      "id": 98,
      "name": "하삼동커피 통영죽림터미널점",
      "address": "경남 통영시 광도면 죽림4로 44 (죽림리) 하삼동커피",
      "contact": "070-4833-0025",
      "lat": "34.883639115228",
      "lng": "128.418090865963",
      "region": "경남",
      "district": "통영시"
    },
    {
      "id": 99,
      "name": "하삼동커피 통영한진로즈힐점",
      "address": "경남 통영시 무전1길 16 (무전동, 씨티빌딩) 1층 105호 하삼동커피",
      "contact": "055-645-6162",
      "lat": "34.8612745006073",
      "lng": "128.422239488539",
      "region": "경남",
      "district": "통영시"
    },
    {
      "id": 100,
      "name": "하삼동커피 대구경대병원점",
      "address": "대구 중구 달구벌대로 2211 (삼덕동3가) 하삼동커피",
      "contact": "070-8211-3391",
      "lat": "35.8629501393211",
      "lng": "128.605149013889",
      "region": "대구",
      "district": "중구"
    },
    {
      "id": 101,
      "name": "하삼동커피 울산번영센트리지점",
      "address": "울산 중구 복산1길 1 (복산동, 번영로센트리지) 4단지동 1층 106호",
      "contact": "010-8902-6376",
      "lat": "35.5602341850597",
      "lng": "129.327406105468",
      "region": "울산",
      "district": "중구"
    },
    {
      "id": 102,
      "name": "하삼동커피 울산강동산하점",
      "address": "울산광역시 북구 산하중앙2로 283 하삼동커피",
      "contact": "052-281-5492",
      "lat": "35.635654417460664",
      "lng": "129.4380020125203",
      "region": "울산광역시",
      "district": "북구"
    },
    {
      "id": 103,
      "name": "하삼동커피 레이카운티점",
      "address": "부산 연제구 아시아드대로 39 (거제동, 레이카운티) 2단지 상가동 1층 112호 하삼동커피",
      "contact": "070-7807-3641",
      "lat": "35.1899959215514",
      "lng": "129.066108752828",
      "region": "부산",
      "district": "연제구"
    },
    {
      "id": 104,
      "name": "하삼동커피 구미봉곡도량점",
      "address": "경북 구미시 봉곡로 176 (봉곡동) 1층 101호",
      "contact": "010-9479-3062",
      "lat": "36.1544781741001",
      "lng": "128.31104176893",
      "region": "경북",
      "district": "구미시"
    },
    {
      "id": 105,
      "name": "하삼동커피 김해주촌강변점",
      "address": "경남 김해시 주촌면 천곡리 9-2 하삼동커피",
      "contact": "055-311-8712",
      "lat": "35.2397988097449",
      "lng": "128.83081820901",
      "region": "경남",
      "district": "김해시"
    },
    {
      "id": 106,
      "name": "하삼동커피 대구알파시티점",
      "address": "대구 수성구 대흥동 844-2 하삼동커피",
      "contact": "070-8211-3391",
      "lat": "35.8366349954111",
      "lng": "128.682624567719",
      "region": "대구",
      "district": "수성구"
    },
    {
      "id": 107,
      "name": "하삼동커피 녹산중앙점",
      "address": "부산 강서구 녹산산단335로 24-8 (송정동) 1층 118호 하삼동커피",
      "contact": "051-714-3767",
      "lat": "35.0906958438217",
      "lng": "128.854942556515",
      "region": "부산",
      "district": "강서구"
    },
    {
      "id": 108,
      "name": "하삼동커피 오시게로점",
      "address": "부산 금정구 오시게로42번길 3 (부곡동) 1층 하삼동커피 오시게로",
      "contact": "010-3609-5107",
      "lat": "35.2211571107892",
      "lng": "129.087653059224",
      "region": "부산",
      "district": "금정구"
    },
    {
      "id": 109,
      "name": "하삼동커피 김해율하2지구점",
      "address": "경남 김해시 율하6로 60 (장유동) 1층 104호",
      "contact": "055-313-7336",
      "lat": "35.1723079610453",
      "lng": "128.824022845759",
      "region": "경남",
      "district": "김해시"
    },
    {
      "id": 110,
      "name": "하삼동커피 순천조례봉화점",
      "address": "전남 순천시 봉화로 273 (조례동) 1층",
      "contact": "0507-1382-8633",
      "lat": "34.9582208547406",
      "lng": "127.519815521799",
      "region": "전남",
      "district": "순천시"
    },
    {
      "id": 111,
      "name": "하삼동커피 울산양정힐스점",
      "address": "울산 북구 염포로 459 (양정동, 양정힐스테이트) 상가동 1층 하삼동커피 울산양정힐스점",
      "contact": "052-900-0099",
      "lat": "35.551982722704",
      "lng": "129.383124566421",
      "region": "울산",
      "district": "북구"
    },
    {
      "id": 112,
      "name": "하삼동커피 인천연수점",
      "address": "인천 연수구 먼우금로188번길 17 (연수동, 선우빌딩) 1층",
      "contact": "0507-0288-7987",
      "lat": "37.4136526063789",
      "lng": "126.677071783211",
      "region": "인천",
      "district": "연수구"
    },
    {
      "id": 113,
      "name": "하삼동커피 나사렛동춘점",
      "address": "인천 연수구 앵고개로 242 (동춘동, 제일빌딩) 지상1층 111호",
      "contact": "0507-2093-2523",
      "lat": "37.4086563679205",
      "lng": "126.67082587945",
      "region": "인천",
      "district": "연수구"
    },
    {
      "id": 114,
      "name": "하삼동커피 송도퍼스트파크점",
      "address": "인천 연수구 컨벤시아대로230번길 54 (송도동) 닥터플러스몰 A138호",
      "contact": "0507-0288-8754",
      "lat": "37.3890111897813",
      "lng": "126.634032775089",
      "region": "인천",
      "district": "연수구"
    },
    {
      "id": 115,
      "name": "하삼동커피 송도학원가점",
      "address": "인천 연수구 신송로 153 (송도동, 더 마란츠타워) 110호",
      "contact": "0507-0289-3760",
      "lat": "37.3971700445042",
      "lng": "126.649150139263",
      "region": "인천",
      "district": "연수구"
    },
    {
      "id": 116,
      "name": "하삼동커피 송도센트럴파크점",
      "address": "인천 연수구 인천타워대로 257 (송도동, 송도 아트포레 푸르지오 시티) B-103호",
      "contact": "032-859-1116",
      "lat": "37.3937618144703",
      "lng": "126.633308276601",
      "region": "인천",
      "district": "연수구"
    },
    {
      "id": 117,
      "name": "하삼동커피 송도타임스페이스점",
      "address": "인천 연수구 하모니로 158 (송도동, 송도타임스페이스) D동 1층 126호",
      "contact": "070-8837-2580",
      "lat": "37.3832947004154",
      "lng": "126.64225604799",
      "region": "인천",
      "district": "연수구"
    },
    {
      "id": 118,
      "name": "하삼동커피 송도랜드마크시티점",
      "address": "인천 연수구 랜드마크로 68 (송도동, 랜드마크시티센트럴더샵) 301동 13호",
      "contact": "032-833-8996",
      "lat": "37.4151172407027",
      "lng": "126.618222141856",
      "region": "인천",
      "district": "연수구"
    },
    {
      "id": 119,
      "name": "하삼동커피 영남대병원점",
      "address": "대구 남구 중앙대로29길 13 (대명동) 1층 하삼동커피",
      "contact": "053-657-0992",
      "lat": "35.8459623984881",
      "lng": "128.589466064702",
      "region": "대구",
      "district": "남구"
    },
    {
      "id": 120,
      "name": "하삼동커피 제천백운리솜점",
      "address": "충북 제천시 백운면 천등박달로 1342 (평동리) 하삼동커피",
      "contact": "0507-1490-0682",
      "lat": "37.1377991060511",
      "lng": "128.023794722969",
      "region": "충북",
      "district": "제천시"
    },
    {
      "id": 121,
      "name": "하삼동커피 시화로데오점",
      "address": "경기 시흥시 중심상가3길 9 (정왕동, 청진프라자) 107호",
      "contact": "0507-2093-7083",
      "lat": "37.345150064395",
      "lng": "126.737196855313",
      "region": "경기",
      "district": "시흥시"
    },
    {
      "id": 122,
      "name": "하삼동커피 시흥능곡역점",
      "address": "경기 시흥시 장현능곡로 184 (능곡동, 능곡프라자) 106호",
      "contact": "0507-0288-7392",
      "lat": "37.3694021885167",
      "lng": "126.810658162277",
      "region": "경기",
      "district": "시흥시"
    },
    {
      "id": 123,
      "name": "하삼동커피 시흥장현점",
      "address": "경기 시흥시 황고개로 526 (장곡동, 중앙프라자) 111호",
      "contact": "031-313-7158",
      "lat": "37.3776119855081",
      "lng": "126.789208190438",
      "region": "경기",
      "district": "시흥시"
    },
    {
      "id": 124,
      "name": "하삼동커피 시흥정왕점",
      "address": "경기 시흥시 정왕대로 56 (정왕동, 세종월드 빌딩) 1층 112호",
      "contact": "070-7543-1127",
      "lat": "37.3545169532043",
      "lng": "126.723018122507",
      "region": "경기",
      "district": "시흥시"
    },
    {
      "id": 125,
      "name": "하삼동커피 시흥월곶점",
      "address": "경기 시흥시 월곶중앙로 71 (월곶동, 센타프라자) 센타프라자 1층 113호",
      "contact": "0507-0289-3404",
      "lat": "37.3889633935965",
      "lng": "126.737300442745",
      "region": "경기",
      "district": "시흥시"
    },
    {
      "id": 126,
      "name": "하삼동커피 배곧SK점",
      "address": "경기 시흥시 배곧3로 27-7 (배곧동, 시흥배곧 에스케이뷰) 상가2동 104호",
      "contact": "031-8042-2356",
      "lat": "37.375351414565",
      "lng": "126.72305409271",
      "region": "경기",
      "district": "시흥시"
    },
    {
      "id": 127,
      "name": "하삼동커피 배곧호반써밋점",
      "address": "경기 시흥시 서울대학로278번길 19-13 (배곧동, 시흥배곧 C1 호반 써밋플레이스) 107동 A-103호",
      "contact": "031-432-7787",
      "lat": "37.3705044199436",
      "lng": "126.727970634048",
      "region": "경기",
      "district": "시흥시"
    },
    {
      "id": 128,
      "name": "하삼동커피 배곧한라비발디점",
      "address": "경기 시흥시 배곧1로 27-15 (배곧동, 한라비발디캠퍼스) 상가3동 1층 102호",
      "contact": "031-434-0123",
      "lat": "37.3653496024812",
      "lng": "126.712516180176",
      "region": "경기",
      "district": "시흥시"
    },
    {
      "id": 129,
      "name": "하삼동커피 인천서창점",
      "address": "인천 남동구 서창남순환로 223 (서창동, 아페리온) A동 126호 하삼동커피 인천서창점",
      "contact": "0507-0289-4692",
      "lat": "37.4248208650094",
      "lng": "126.748921233075",
      "region": "인천",
      "district": "남동구"
    },
    {
      "id": 130,
      "name": "하삼동커피 인천논현역점",
      "address": "인천 남동구 논고개로 121 (논현동, 에스닷몰) 1층 106호 하삼동커피 인천논현역점",
      "contact": "0507-2093-4481",
      "lat": "37.4019303986998",
      "lng": "126.723770954923",
      "region": "인천",
      "district": "남동구"
    },
    {
      "id": 131,
      "name": "하삼동커피 인천호구포역점",
      "address": "인천 남동구 호구포로 217 (논현동, H Tower) 1층 102호 하삼동커피 인천호구포역점",
      "contact": "0507-877-3278",
      "lat": "37.4024391401766",
      "lng": "126.709495417448",
      "region": "인천",
      "district": "남동구"
    },
    {
      "id": 132,
      "name": "하삼동커피 인천남동공단점",
      "address": "인천 남동구 남동서로236번길 30 (논현동, 논현2차푸르지오시티) 1층 116호 하삼동커피 인천남동공단점",
      "contact": "0507-2087-1547",
      "lat": "37.4095689846042",
      "lng": "126.695111543923",
      "region": "인천",
      "district": "남동구"
    },
    {
      "id": 133,
      "name": "하삼동커피 인천주안점",
      "address": "인천 미추홀구 경인로 372 (주안동, 포레나 미추홀) 201동 1층 1005호 하삼동커피 인천주안점",
      "contact": "0507-2093-9355",
      "lat": "37.4580182017435",
      "lng": "126.681163207516",
      "region": "인천",
      "district": "미추홀구"
    },
    {
      "id": 134,
      "name": "하삼동커피 인천부평점",
      "address": "인천 부평구 부평대로 17-1 (부평동) 1층 하삼동커피 인천부평점",
      "contact": "032-290-7811",
      "lat": "37.4929955232219",
      "lng": "126.722690851836",
      "region": "인천",
      "district": "부평구"
    },
    {
      "id": 135,
      "name": "하삼동커피 인천산곡점",
      "address": "인천 부평구 마장로272번길 54 (산곡동, 예향스포츠센타) A동 1층 하삼동커피 인천산곡점",
      "contact": "0507-0289-4083",
      "lat": "37.5021233154766",
      "lng": "126.706176924585",
      "region": "인천",
      "district": "부평구"
    },
    {
      "id": 136,
      "name": "하삼동커피 산곡중앙점",
      "address": "인천 부평구 세월천로 77 (산곡동) 1층 하삼동커피 산곡중앙점",
      "contact": "032-262-1426",
      "lat": "37.5132447869678",
      "lng": "126.700775460739",
      "region": "인천",
      "district": "부평구"
    },
    {
      "id": 137,
      "name": "하삼동커피 인천삼산점",
      "address": "인천 부평구 후정로 4 (삼산동) 1층 하삼동커피 인천삼산점",
      "contact": "032-515-7978",
      "lat": "37.5202720508211",
      "lng": "126.733068343248",
      "region": "인천",
      "district": "부평구"
    },
    {
      "id": 138,
      "name": "하삼동커피 갈산유원테크노점",
      "address": "인천 부평구 주부토로 236 (갈산동, 인천테크노밸리 U1센터) C동 1층 하삼동커피 갈산유원테크노점",
      "contact": "0507-0288-8105",
      "lat": "37.5158580433375",
      "lng": "126.726800852864",
      "region": "인천",
      "district": "부평구"
    },
    {
      "id": 139,
      "name": "하삼동커피 부평그랑힐스점",
      "address": "인천 부평구 산청로 97 (청천동, e편한세상부평그랑힐스) 상가동 1층 하삼동커피 부평그랑힐스점",
      "contact": "070-7613-1130",
      "lat": "37.5190073416627",
      "lng": "126.700963642402",
      "region": "인천",
      "district": "부평구"
    },
    {
      "id": 140,
      "name": "하삼동커피 인천북항점",
      "address": "인천 서구 북항로32번안길 41 (원창동, 건원프라자) 1층 하삼동커피 인천북항점",
      "contact": "032-574-4919",
      "lat": "37.5095282663096",
      "lng": "126.646698314886",
      "region": "인천",
      "district": "서구"
    },
    {
      "id": 141,
      "name": "하삼동커피 청라시티타워점",
      "address": "인천 서구 청라한내로72번길 23 (청라동, 쓰리엠파크) 1층 하삼동커피 청라시티타워점",
      "contact": "0507-0289-4385",
      "lat": "37.532035621874",
      "lng": "126.630234090519",
      "region": "인천",
      "district": "서구"
    },
    {
      "id": 142,
      "name": "하삼동커피 인천검단점",
      "address": "인천 서구 이음5로 70 (원당동, 새샘프라자) 1층 하삼동커피 인천검단점",
      "contact": "0507-877-3775",
      "lat": "37.5948102333953",
      "lng": "126.715466631964",
      "region": "인천",
      "district": "서구"
    },
    {
      "id": 143,
      "name": "하삼동커피 인천루원시티점",
      "address": "인천 서구 봉오재3로110번길 7 (가정동, 가정봄프라자) 1층 하삼동커피 인천루원시티점",
      "contact": "0507-0289-4742",
      "lat": "37.5267388647695",
      "lng": "126.672028639431",
      "region": "인천",
      "district": "서구"
    },
    {
      "id": 144,
      "name": "하삼동커피 청라지식산업센터점",
      "address": "인천 서구 중봉대로 490 (청라동) 1층 141호 하삼동커피 청라지식산업센터점",
      "contact": "032-234-8080",
      "lat": "37.5227614575062",
      "lng": "126.650465263705",
      "region": "인천",
      "district": "서구"
    },
    {
      "id": 145,
      "name": "하삼동커피 연안부두점",
      "address": "인천 중구 연안부두로33번길 36 (항동7가) 1층 7호 하삼동커피 연안부두점",
      "contact": "0507-1408-7986",
      "lat": "37.4535705820321",
      "lng": "126.605762406773",
      "region": "인천",
      "district": "중구"
    },
    {
      "id": 146,
      "name": "하삼동커피 인천구월아시아드",
      "address": "인천 남동구 선수촌공원로 36 (구월동, 더블루시티) 1층 110호 하삼동커피 인천구월아시아드점",
      "contact": "032-471-7481",
      "lat": "37.4421653122498",
      "lng": "126.710549332736",
      "region": "인천",
      "district": "남동구"
    },
    {
      "id": 147,
      "name": "하삼동커피 인천구월점",
      "address": "인천 남동구 문화로 59 (구월동) 1층 하삼동커피 인천구월점",
      "contact": "0507-1400-8866",
      "lat": "37.4443291632988",
      "lng": "126.698645259572",
      "region": "인천",
      "district": "남동구"
    },
    {
      "id": 148,
      "name": "하삼동커피 인천간석올리브점",
      "address": "인천 남동구 석산로 143 (간석동, 오성빌딩) 1층 하삼동커피 인천간석올리브점",
      "contact": "010-3943-5575",
      "lat": "37.4605377520125",
      "lng": "126.707849570033",
      "region": "인천",
      "district": "남동구"
    },
    {
      "id": 149,
      "name": "하삼동커피 부천중동점",
      "address": "경기 부천시 원미구 중동로 244 (중동, 상록센트럴타워) 105호",
      "contact": "0507-0284-4110",
      "lat": "37.5015609170006",
      "lng": "126.76905594491",
      "region": "경기",
      "district": "부천시"
    },
    {
      "id": 150,
      "name": "하삼동커피 익산부송점",
      "address": "전북특별자치도 익산시 부송1로 110 (부송동, 오페라하우스) 하삼동커피",
      "contact": "063-918-3600",
      "lat": "35.9580957638966",
      "lng": "126.99437310356",
      "region": "전북특별자치도",
      "district": "익산시"
    },
    {
      "id": 151,
      "name": "하삼동커피 시흥배곧고점",
      "address": "경기 시흥시 배곧4로 87 (배곧동, 베스트프라자) 102호",
      "contact": "031-433-8791",
      "lat": "37.374597699316",
      "lng": "126.73340139468",
      "region": "경기",
      "district": "시흥시"
    },
    {
      "id": 152,
      "name": "하삼동커피 춘천온의풍물시장점",
      "address": "강원특별자치도 춘천시 춘천로17번길 31 (온의동) 106호 하삼동커피",
      "contact": "033-252-5484",
      "lat": "37.8671827577502",
      "lng": "127.718625086682",
      "region": "강원특별자치도",
      "district": "춘천시"
    },
    {
      "id": 153,
      "name": "하삼동커피 동해이도코아루스카이점",
      "address": "강원특별자치도 동해시 동해대로 4833 (이도동, 동해 이도 코아루 더스카이) 120동 101호 하삼동커피",
      "contact": "033-838-7942",
      "lat": "37.4772387297517",
      "lng": "129.111600764039",
      "region": "강원특별자치도",
      "district": "동해시"
    },
    {
      "id": 154,
      "name": "하삼동커피 일산백마학원가점",
      "address": "경기 고양시 일산동구 일산로 197 (마두동, 센터21) 1068~1071호 하삼동커피",
      "contact": "070-8211-0007",
      "lat": "37.6539721011725",
      "lng": "126.789899340669",
      "region": "경기",
      "district": "고양시"
    },
    {
      "id": 155,
      "name": "하삼동커피 천안두정역점",
      "address": "충남 천안시 서북구 두정동 1498 101호 하삼동커피 천안두정역점",
      "contact": "041-564-6789",
      "lat": "36.8331567256569",
      "lng": "127.143625296273",
      "region": "충남",
      "district": "천안시"
    },
    {
      "id": 156,
      "name": "하삼동커피 안산한신더휴점",
      "address": "경기 안산시 단원구 선부동 992-2 상가동 109호 하삼동커피 안산한신더휴점",
      "contact": "031-410-6190",
      "lat": "37.3382674211726",
      "lng": "126.804154799765",
      "region": "경기",
      "district": "안산시"
    },
    {
      "id": 157,
      "name": "하삼동커피 초지로사거리점",
      "address": "경기 안산시 단원구 광덕1로 61 (초지동, 신명프라자) 107호 하삼동커피 초지로사거리점",
      "contact": "0507-2093-8691",
      "lat": "37.3088021600392",
      "lng": "126.816353679712",
      "region": "경기",
      "district": "안산시"
    },
    {
      "id": 158,
      "name": "하삼동커피 화성향남점",
      "address": "경기 화성시 향남읍 행정중앙2로 33 (행정리, 성지프라자) 103호 하삼동커피 화성향남점",
      "contact": "0507-2093-7150",
      "lat": "37.1300138138195",
      "lng": "126.919155206571",
      "region": "경기",
      "district": "화성시"
    },
    {
      "id": 159,
      "name": "하삼동커피 충북금왕점",
      "address": "충북 음성군 금왕읍 무극로 247 1층 하삼동커피",
      "contact": "0507-2093-8544",
      "lat": "36.9920077646481",
      "lng": "127.589046519014",
      "region": "충북",
      "district": "음성군"
    },
    {
      "id": 160,
      "name": "하삼동커피 태안점",
      "address": "충남 태안군 태안읍 동문1길 38 1층",
      "contact": "0507-1465-0478",
      "lat": "36.7493312107765",
      "lng": "126.303095636849",
      "region": "충남",
      "district": "태안군"
    },
    {
      "id": 161,
      "name": "하삼동커피 안산성포점",
      "address": "경기 안산시 상록구 예술광장1로 126 1층 108호",
      "contact": "070-7543-1543",
      "lat": "37.3269285724473",
      "lng": "126.84416200912",
      "region": "경기",
      "district": "안산시"
    },
    {
      "id": 162,
      "name": "하삼동커피 평촌역점",
      "address": "경기 안양시 동안구 관평로170번길 43 훼미리타운 1층 130호",
      "contact": "031-383-0832",
      "lat": "37.3933193690503",
      "lng": "126.963172221695",
      "region": "경기",
      "district": "안양시"
    },
    {
      "id": 163,
      "name": "하삼동커피 잠실점",
      "address": "서울 송파구 석촌호수로 134 109호",
      "contact": "02-420-9134",
      "lat": "37.5070970089198",
      "lng": "127.091927935138",
      "region": "서울",
      "district": "송파구"
    },
    {
      "id": 164,
      "name": "하삼동커피 안산원곡점",
      "address": "경기 안산시 단원구 원곡로 41 1층 하삼동커피 안산원곡점",
      "contact": "031-491-7707",
      "lat": "37.3309518356501",
      "lng": "126.793019996836",
      "region": "경기",
      "district": "안산시"
    },
    {
      "id": 165,
      "name": "하삼동커피 안산한대앞역점",
      "address": "경기 안산시 상록구 중보로 47 101호",
      "contact": "0507-2093-9563",
      "lat": "37.3075085759833",
      "lng": "126.851856970184",
      "region": "경기",
      "district": "안산시"
    },
    {
      "id": 166,
      "name": "하삼동커피 화성새솔점",
      "address": "경기 화성시 노들길 6-16 하삼동커피",
      "contact": "0507-877-3342",
      "lat": "37.2805228135565",
      "lng": "126.819305014432",
      "region": "경기",
      "district": "화성시"
    },
    {
      "id": 167,
      "name": "하삼동커피 안산선부점",
      "address": "경기 안산시 상록구 본삼로 44 상가2동 109호, 110호",
      "contact": "0507-2093-5300",
      "lat": "37.30070090488",
      "lng": "126.864892318037",
      "region": "경기",
      "district": "안산시"
    },
    {
      "id": 168,
      "name": "하삼동커피 안산그랑시티자이2차점",
      "address": "경기 안산시 상록구 해양5로 11 그랑시티2차상가 128호 하삼동커피",
      "contact": "031-501-0456",
      "lat": "37.2804150846526",
      "lng": "126.83307519864",
      "region": "경기",
      "district": "안산시"
    },
    {
      "id": 169,
      "name": "하삼동커피 안산그랑시티자이점",
      "address": "경기 안산시 상록구 해양1로 199 P동1층 162호 하삼동커피",
      "contact": "031-415-0123",
      "lat": "37.282003350733",
      "lng": "126.828353595632",
      "region": "경기",
      "district": "안산시"
    },
    {
      "id": 170,
      "name": "하삼동커피 안산중앙점",
      "address": "경기 안산시 단원구 예술대학로 141 101호",
      "contact": "031-402-3033",
      "lat": "37.3295458118773",
      "lng": "126.838263534523",
      "region": "경기",
      "district": "안산시"
    },
    {
      "id": 171,
      "name": "하삼동커피 안산월피점",
      "address": "경기 안산시 상록구 월피로 22 현대2차아파트상가 A동 1층 12호",
      "contact": "0507-0289-3150",
      "lat": "37.330958623454",
      "lng": "126.8488917667",
      "region": "경기",
      "district": "안산시"
    },
    {
      "id": 172,
      "name": "하삼동커피 안산초지점",
      "address": "경기 안산시 단원구 연수원로 4 태인드림씨티 오피스텔 B101호",
      "contact": "0507-0289-4918",
      "lat": "37.3143759477525",
      "lng": "126.798361127947",
      "region": "경기",
      "district": "안산시"
    },
    {
      "id": 173,
      "name": "하삼동커피 안산센트럴포레점",
      "address": "경기 안산시 단원구 원선1로 15 e편한세상센트럴포레 상가1동 126호",
      "contact": "0507-0289-4889",
      "lat": "37.3250286508238",
      "lng": "126.80165439807",
      "region": "경기",
      "district": "안산시"
    },
    {
      "id": 174,
      "name": "하삼동커피 제천장락점",
      "address": "충북 제천시 장락로 155",
      "contact": "043-643-3033",
      "lat": "37.1557148150779",
      "lng": "128.226337916008",
      "region": "충북",
      "district": "제천시"
    },
    {
      "id": 175,
      "name": "하삼동커피 수택중앙점",
      "address": "경기 구리시 체육관로80번길 19 107호 하삼동커피",
      "contact": "0507-0289-4273",
      "lat": "37.5919147864669",
      "lng": "127.139024366508",
      "region": "경기",
      "district": "구리시"
    },
    {
      "id": 176,
      "name": "하삼동커피 미사강변푸르지오점",
      "address": "경기 하남시 미사강변대로 165-1",
      "contact": "031-793-9391",
      "lat": "37.5647869002875",
      "lng": "127.183114295059",
      "region": "경기",
      "district": "하남시"
    },
    {
      "id": 177,
      "name": "하삼동커피 의정부민락점",
      "address": "경기 의정부시 배꽃길 105 1층",
      "contact": "031-8035-9123",
      "lat": "37.7472315346552",
      "lng": "127.119245672289",
      "region": "경기",
      "district": "의정부시"
    },
    {
      "id": 178,
      "name": "하삼동커피 안산중앙로데오점",
      "address": "경기 안산시 단원구 예술대학로 17 1층 하삼동커피",
      "contact": "031-500-8889",
      "lat": "37.3186915641078",
      "lng": "126.836518384424",
      "region": "경기",
      "district": "안산시"
    },
    {
      "id": 179,
      "name": "하삼동커피 평택비전점",
      "address": "경기 평택시 평남로 941 1층",
      "contact": "0507-2093-9178",
      "lat": "37.0046158858589",
      "lng": "127.104180260646",
      "region": "경기",
      "district": "평택시"
    },
    {
      "id": 180,
      "name": "하삼동커피 동백역점",
      "address": "경기 용인시 기흥구 동백3로11번길 8 111호 하삼동커피 동백역점 1층",
      "contact": "0507-877-3433",
      "lat": "37.269632288231",
      "lng": "127.153587726209",
      "region": "경기",
      "district": "용인시"
    },
    {
      "id": 181,
      "name": "하삼동커피 용인외대모현점",
      "address": "경기 용인시 처인구 모현읍 백옥대로 2386 1층",
      "contact": "0507-1356-1804",
      "lat": "37.3364513572145",
      "lng": "127.249743116282",
      "region": "경기",
      "district": "용인시"
    },
    {
      "id": 182,
      "name": "하삼동커피 경안점",
      "address": "경기 광주시 광주대로55번길 6 1층",
      "contact": "031-766-8649",
      "lat": "37.4120804009913",
      "lng": "127.259509142764",
      "region": "경기",
      "district": "광주시"
    },
    {
      "id": 183,
      "name": "하삼동커피 대전법원점",
      "address": "대전 서구 둔산중로 66 1층 115호 하삼동커피 대전법원점",
      "contact": "0507-0289-4599",
      "lat": "36.3526384723335",
      "lng": "127.387256579221",
      "region": "대전",
      "district": "서구"
    },
    {
      "id": 184,
      "name": "하삼동커피 익산원광대점",
      "address": "전북 익산시 동서로5길 97 1층",
      "contact": "0507-1329-1435",
      "lat": "35.960842750309",
      "lng": "126.958300484381",
      "region": "전북",
      "district": "익산시"
    },
    {
      "id": 185,
      "name": "하삼동커피 아산탕정점",
      "address": "충남 아산시 탕정면 한들물빛도시로 70 D동 118호",
      "contact": "0507-872-3812",
      "lat": "36.7851754497874",
      "lng": "127.084673266115",
      "region": "충남",
      "district": "아산시"
    },
    {
      "id": 186,
      "name": "하삼동커피 청주강서점",
      "address": "충북 청주시 흥덕구 서현동로 17 1층 하삼동 커피",
      "contact": "0507-0288-9006",
      "lat": "36.6237254152522",
      "lng": "127.42955842977",
      "region": "충북",
      "district": "청주시"
    },
    {
      "id": 187,
      "name": "하삼동커피 충주기업도시점",
      "address": "충북 충주시 중앙탑면 원앙9길 15 A-2동 125호 하삼동커피",
      "contact": "0507-877-3705",
      "lat": "37.0157412993212",
      "lng": "127.825918770774",
      "region": "충북",
      "district": "충주시"
    },
    {
      "id": 188,
      "name": "하삼동커피 전주혁신점",
      "address": "전북 전주시 덕진구 기지로 72 1층 109호",
      "contact": "0507-1407-4336",
      "lat": "35.838088089086",
      "lng": "127.059962055226",
      "region": "전북",
      "district": "전주시"
    },
    {
      "id": 189,
      "name": "하삼동커피 모현점",
      "address": "전북 익산시 선화로3길 31-5 1층",
      "contact": "063-916-9191",
      "lat": "35.9516238180789",
      "lng": "126.939715177312",
      "region": "전북",
      "district": "익산시"
    },
    {
      "id": 190,
      "name": "하삼동커피 군산수송점",
      "address": "전북 군산시 수송로 212 1층",
      "contact": "0507-877-3320",
      "lat": "35.963770587667",
      "lng": "126.718874635769",
      "region": "전북",
      "district": "군산시"
    },
    {
      "id": 191,
      "name": "하삼동커피 구남점",
      "address": "부산 북구 백양대로 1014 삼정그린코아 1층 105호",
      "contact": "051-338-7999",
      "lat": "35.1961369417659",
      "lng": "128.994854925517",
      "region": "부산",
      "district": "북구"
    },
    {
      "id": 192,
      "name": "하삼동커피 양정스위첸점",
      "address": "부산 부산진구 양연로 36 1층",
      "contact": "051-868-5244",
      "lat": "35.1723960004205",
      "lng": "129.079723130345",
      "region": "부산",
      "district": "부산진구"
    },
    {
      "id": 193,
      "name": "하삼동커피 부산가야점",
      "address": "부산 부산진구 엄광로 137 1층",
      "contact": "051-895-3030",
      "lat": "35.1475282296109",
      "lng": "129.029867739525",
      "region": "부산",
      "district": "부산진구"
    },
    {
      "id": 194,
      "name": "하삼동커피 서면문화로점",
      "address": "부산 부산진구 새싹로 29번길 17 1~2층",
      "contact": "051-803-2367",
      "lat": "35.1600615422367",
      "lng": "129.05601949202",
      "region": "부산",
      "district": "부산진구"
    },
    {
      "id": 195,
      "name": "하삼동커피 진구청점",
      "address": "부산 부산진구 시민공원로 11 1층",
      "contact": "051-953-3737",
      "lat": "35.1634984252679",
      "lng": "129.050697797136",
      "region": "부산",
      "district": "부산진구"
    },
    {
      "id": 196,
      "name": "하삼동커피 서면아이파크점",
      "address": "부산 부산진구 동성로 50 1층",
      "contact": "051-818-3555",
      "lat": "35.1551400379108",
      "lng": "129.068740212481",
      "region": "부산",
      "district": "부산진구"
    },
    {
      "id": 197,
      "name": "하삼동커피 양정현대점",
      "address": "부산 부산진구 동평로 350 1층",
      "contact": "051-851-9841",
      "lat": "35.1744937148905",
      "lng": "129.063241490209",
      "region": "부산",
      "district": "부산진구"
    },
    {
      "id": 198,
      "name": "하삼동커피 양정점",
      "address": "부산 부산진구 거제대로 26 1층",
      "contact": "051-867-0610",
      "lat": "35.1715683917271",
      "lng": "129.068601210916",
      "region": "부산",
      "district": "부산진구"
    },
    {
      "id": 199,
      "name": "하삼동커피 서면NC점",
      "address": "부산 부산진구 동천로 91-1 1층",
      "contact": "051-911-0770",
      "lat": "35.1569600445101",
      "lng": "129.062133985979",
      "region": "부산",
      "district": "부산진구"
    },
    {
      "id": 200,
      "name": "하삼동커피 서면동일파크스위트점",
      "address": "부산 부산진구 동평로 162 서면동일파크스위트 3차 상가 1동 103호",
      "contact": "051-943-7532",
      "lat": "35.165417735262",
      "lng": "129.045944837845",
      "region": "부산",
      "district": "부산진구"
    },
    {
      "id": 201,
      "name": "하삼동커피 서면부전점",
      "address": "부산 부산진구 중앙대로 783번길 8 1층",
      "contact": "051-715-0711",
      "lat": "35.1623576443501",
      "lng": "129.062361351657",
      "region": "부산",
      "district": "부산진구"
    },
    {
      "id": 202,
      "name": "하삼동커피 초읍어린이대공원점",
      "address": "부산 부산진구 새싹로 286 1층",
      "contact": "051-710-1866",
      "lat": "35.1816739245694",
      "lng": "129.047297470806",
      "region": "부산",
      "district": "부산진구"
    },
    {
      "id": 203,
      "name": "하삼동커피 초읍점",
      "address": "부산 부산진구 성지로 91 1층",
      "contact": "051-818-7515",
      "lat": "35.1785571691662",
      "lng": "129.053066227442",
      "region": "부산",
      "district": "부산진구"
    },
    {
      "id": 204,
      "name": "하삼동커피 개금점",
      "address": "부산 부산진구 가야대로 456 1층",
      "contact": "051-897-0517",
      "lat": "35.152901445407",
      "lng": "129.021899841718",
      "region": "부산",
      "district": "부산진구"
    },
    {
      "id": 205,
      "name": "하삼동커피 부암점",
      "address": "부산 부산진구 백양산로 55 1층",
      "contact": "051-807-7047",
      "lat": "35.173808738406",
      "lng": "129.03079023804",
      "region": "부산",
      "district": "부산진구"
    },
    {
      "id": 206,
      "name": "하삼동커피 가야벽산점",
      "address": "부산 부산진구 엄광로 62 1층",
      "contact": "051-895-3121",
      "lat": "35.1478813761029",
      "lng": "129.022931272808",
      "region": "부산",
      "district": "부산진구"
    },
    {
      "id": 207,
      "name": "하삼동커피 한신센타뷰점",
      "address": "부산 부산진구 가야대로 597 1층",
      "contact": "051-893-5868",
      "lat": "35.1551481825055",
      "lng": "129.036999074696",
      "region": "부산",
      "district": "부산진구"
    },
    {
      "id": 208,
      "name": "하삼동커피 낙민점",
      "address": "부산 동래구 온천천로 339번길 51 1층",
      "contact": "051-939-1010",
      "lat": "35.196597853658",
      "lng": "129.090761438022",
      "region": "부산",
      "district": "동래구"
    },
    {
      "id": 209,
      "name": "하삼동커피 동래래미안점",
      "address": "부산 동래구 충렬대로 107번길 104 1층",
      "contact": "051-555-7542",
      "lat": "35.2113508810855",
      "lng": "129.073490317896",
      "region": "부산",
      "district": "동래구"
    },
    {
      "id": 210,
      "name": "하삼동커피 명장역점",
      "address": "부산 동래구 반송로 273번길 2 1층",
      "contact": "051-711-3312",
      "lat": "35.2059409006853",
      "lng": "129.101215043535",
      "region": "부산",
      "district": "동래구"
    },
    {
      "id": 211,
      "name": "하삼동커피 동래시장점",
      "address": "부산 동래구 충렬대로 239 1~2층",
      "contact": "051-557-4701",
      "lat": "35.2016440909638",
      "lng": "129.08563369197",
      "region": "부산",
      "district": "동래구"
    },
    {
      "id": 212,
      "name": "하삼동커피 안락SK점",
      "address": "부산 동래구 충렬대로 459번길 21 1층",
      "contact": "051-715-2289",
      "lat": "35.1959878418531",
      "lng": "129.109440580258",
      "region": "부산",
      "district": "동래구"
    },
    {
      "id": 213,
      "name": "하삼동커피 미남반도보라점",
      "address": "부산 동래구 아시아드대로 234 1층",
      "contact": "051-501-3535",
      "lat": "35.2039470982169",
      "lng": "129.069040555868",
      "region": "부산",
      "district": "동래구"
    },
    {
      "id": 214,
      "name": "하삼동커피 허심청점",
      "address": "부산 동래구 온천장로 81-1 1층",
      "contact": "051-554-0415",
      "lat": "35.2186330863568",
      "lng": "129.082265610144",
      "region": "부산",
      "district": "동래구"
    },
    {
      "id": 215,
      "name": "하삼동커피 사직롯데캐슬점",
      "address": "부산 동래구 아시아드대로 146번길 1 1층",
      "contact": "051-505-2266",
      "lat": "35.1979289530595",
      "lng": "129.066738517174",
      "region": "부산",
      "district": "동래구"
    },
    {
      "id": 216,
      "name": "하삼동커피 미남점",
      "address": "부산 동래구 여고로 113번길 78 1층",
      "contact": "051-506-8253",
      "lat": "35.2019348398411",
      "lng": "129.074067807465",
      "region": "부산",
      "district": "동래구"
    },
    {
      "id": 217,
      "name": "하삼동커피 명륜천일스카이원점",
      "address": "부산 동래구 명륜로 151 1층",
      "contact": "051-557-2266",
      "lat": "35.2073040131714",
      "lng": "129.08167812576",
      "region": "부산",
      "district": "동래구"
    },
    {
      "id": 218,
      "name": "하삼동커피 e편한세상명장점",
      "address": "부산 동래구 명장로 64번길 6 1층",
      "contact": "051-996-0177",
      "lat": "35.2044909668355",
      "lng": "129.10773929204",
      "region": "부산",
      "district": "동래구"
    },
    {
      "id": 219,
      "name": "하삼동커피 안락점",
      "address": "부산 동래구 충렬대로 359번길 15 1층",
      "contact": "051-525-3788",
      "lat": "35.1987461306926",
      "lng": "129.098165709501",
      "region": "부산",
      "district": "동래구"
    },
    {
      "id": 220,
      "name": "하삼동커피 금정초등학교점",
      "address": "부산 금정구 금강로 206-16 1층",
      "contact": "051-581-3457",
      "lat": "35.2265108074847",
      "lng": "129.083309598828",
      "region": "부산",
      "district": "금정구"
    },
    {
      "id": 221,
      "name": "하삼동커피 장전점",
      "address": "부산 금정구 금정로 151-1 1층",
      "contact": "051-703-5800",
      "lat": "35.2382313353176",
      "lng": "129.087679003844",
      "region": "부산",
      "district": "금정구"
    },
    {
      "id": 222,
      "name": "하삼동커피 부산금사점",
      "address": "부산 금정구 금사로 80 1층",
      "contact": "051-521-2266",
      "lat": "35.2198552453364",
      "lng": "129.111573968951",
      "region": "부산",
      "district": "금정구"
    },
    {
      "id": 223,
      "name": "하삼동커피 부산대점",
      "address": "부산 금정구 금정로 68번길 28 1층",
      "contact": "051-518-6252",
      "lat": "35.2303438495831",
      "lng": "129.087888911485",
      "region": "부산",
      "district": "금정구"
    },
    {
      "id": 224,
      "name": "하삼동커피 범어사점",
      "address": "부산 금정구 금강로 711 1층",
      "contact": "051-583-0515",
      "lat": "35.2709767747416",
      "lng": "129.088899010598",
      "region": "부산",
      "district": "금정구"
    },
    {
      "id": 225,
      "name": "하삼동커피 구서SK점",
      "address": "부산 금정구 수림로72번길 116 1층",
      "contact": "051-516-0515",
      "lat": "35.2446028484754",
      "lng": "129.086986664836",
      "region": "부산",
      "district": "금정구"
    },
    {
      "id": 226,
      "name": "하삼동커피 부산남산점",
      "address": "부산 금정구 금강로 643 1층",
      "contact": "051-583-1379",
      "lat": "35.2648714135486",
      "lng": "129.08844689345",
      "region": "부산",
      "district": "금정구"
    },
    {
      "id": 227,
      "name": "하삼동커피 구서롯데캐슬점",
      "address": "부산 금정구 금강로 503 1층",
      "contact": "051-581-1013",
      "lat": "35.2526906391923",
      "lng": "129.086494892033",
      "region": "부산",
      "district": "금정구"
    },
    {
      "id": 228,
      "name": "하삼동커피 장전퀸즈점",
      "address": "부산 금정구 부곡온천천로 190 1층",
      "contact": "051-583-9690",
      "lat": "35.2423296835377",
      "lng": "129.090547632939",
      "region": "부산",
      "district": "금정구"
    },
    {
      "id": 229,
      "name": "하삼동커피 두실점",
      "address": "부산 금정구 중앙대로 1945번길 23-29 1층",
      "contact": "051-582-1311",
      "lat": "35.2565649760576",
      "lng": "129.090015457748",
      "region": "부산",
      "district": "금정구"
    },
    {
      "id": 230,
      "name": "하삼동커피 서동시장점",
      "address": "부산 금정구 서동로 147 1층",
      "contact": "070-8847-6453",
      "lat": "35.2150718742119",
      "lng": "129.102688043509",
      "region": "부산",
      "district": "금정구"
    },
    {
      "id": 231,
      "name": "하삼동커피 수원정자점",
      "address": "경기도 수원시 장안구 정자동 878-6 선일프라자 1층",
      "contact": "031-8019-9635",
      "lat": "37.2948042621845",
      "lng": "126.993954222808",
      "region": "경기도",
      "district": "수원시"
    },
    {
      "id": 232,
      "name": "하삼동커피 시흥은행점",
      "address": "경기 시흥시 대은로 80 하이런빌딩 102호",
      "contact": "031-500-8822",
      "lat": "37.4442428181712",
      "lng": "126.797401099736",
      "region": "경기",
      "district": "시흥시"
    },
    {
      "id": 233,
      "name": "하삼동커피 탄현점",
      "address": "경기 고양시 일산서구 일현로 53 1층",
      "contact": "031-926-3484",
      "lat": "37.6919508591464",
      "lng": "126.763002742052",
      "region": "경기",
      "district": "고양시"
    },
    {
      "id": 234,
      "name": "하삼동커피 금릉역점",
      "address": "경기도 파주시 금빛로 12 (금촌동,삼성프라자) 1층 103호",
      "contact": "031-948-0511",
      "lat": "37.7511324699224",
      "lng": "126.767221193146",
      "region": "경기도",
      "district": "파주시"
    },
    {
      "id": 235,
      "name": "하삼동커피 고대안암역점",
      "address": "서울시 성북구 고려대로 89 안암역 지하 1층 (지하철 역사내)",
      "contact": "X",
      "lat": "37.5864696091911",
      "lng": "127.0291828742",
      "region": "서울시",
      "district": "성북구"
    },
    {
      "id": 236,
      "name": "하삼동커피 신림난곡점",
      "address": "서울시 관악구 법원단지길 28 우석빌딩 1층",
      "contact": "02-855-7069",
      "lat": "37.4741658821631",
      "lng": "126.919248807252",
      "region": "서울시",
      "district": "관악구"
    },
    {
      "id": 237,
      "name": "하삼동커피 마포구청점",
      "address": "서울시 마포구 월드컵로 204, 111호(성산동, 이안상암) 1층",
      "contact": "02-304-3332",
      "lat": "37.5653992058145",
      "lng": "126.9021317644",
      "region": "서울시",
      "district": "마포구"
    },
    {
      "id": 238,
      "name": "하삼동커피 춘천후평점",
      "address": "강원도 춘천시 춘천로 296번길 4 1층",
      "contact": "070-8657-4641",
      "lat": "37.8809876026982",
      "lng": "127.745860802769",
      "region": "강원도",
      "district": "춘천시"
    },
    {
      "id": 239,
      "name": "하삼동커피 동해쇄운점",
      "address": "강원특별자치도 동해시 청운1길 52 1층 103호",
      "contact": "033-838-7901",
      "lat": "37.4859529290389",
      "lng": "129.108942922435",
      "region": "강원특별자치도",
      "district": "동해시"
    },
    {
      "id": 240,
      "name": "하삼동커피 광교법조타운점",
      "address": "경기 수원시 영통구 광교중앙로266번길 20 (하동) 1층 106호",
      "contact": "031-548-1244",
      "lat": "37.292828174544",
      "lng": "127.068651255965",
      "region": "경기",
      "district": "수원시"
    },
    {
      "id": 241,
      "name": "하삼동커피 병무청역점",
      "address": "서울 영등포구 여의대방로 43길5 1층",
      "contact": "02-833-3037",
      "lat": "37.5061364625858",
      "lng": "126.921860896682",
      "region": "서울",
      "district": "영등포구"
    },
    {
      "id": 242,
      "name": "하삼동커피 동탄호수공원점",
      "address": "경기도 화성시 동탄대로 5길 9 1050호",
      "contact": "070-4833-2530",
      "lat": "37.1676369141634",
      "lng": "127.105798518213",
      "region": "경기도",
      "district": "화성시"
    },
    {
      "id": 243,
      "name": "하삼동커피 신풍역점",
      "address": "서울 영등포구 신풍로 8길 3 1층",
      "contact": "070-8657-2353",
      "lat": "37.4996969924488",
      "lng": "126.910576449066",
      "region": "서울",
      "district": "영등포구"
    },
    {
      "id": 244,
      "name": "하삼동커피 망포힐스점",
      "address": "경기도 수원시 영통구 망포로 136 1층 109호",
      "contact": "031-206-7292",
      "lat": "37.24100322776",
      "lng": "127.048661356688",
      "region": "경기도",
      "district": "수원시"
    },
    {
      "id": 245,
      "name": "하삼동커피 수원성균관대점",
      "address": "경기도 수원시 장안구 서부로 2126번길 17 1층 A동 상가 3호",
      "contact": "031-297-0708",
      "lat": "37.2980374691195",
      "lng": "126.972855322199",
      "region": "경기도",
      "district": "수원시"
    },
    {
      "id": 246,
      "name": "하삼동커피 수원호매실점",
      "address": "경기도 수원시 권선구 금곡로 213 딜라이트 1차 101호",
      "contact": "070-8803-3338",
      "lat": "37.2748512929492",
      "lng": "126.953643839836",
      "region": "경기도",
      "district": "수원시"
    },
    {
      "id": 247,
      "name": "하삼동커피 동탄카림점",
      "address": "경기도 화성시 동탄대로 시범길 134(청계동, 동탄역시범반도유보라아이비파크4.0) 판매시설 1143호 1층",
      "contact": "031-376-3456",
      "lat": "37.1990328379764",
      "lng": "127.113063831502",
      "region": "경기도",
      "district": "화성시"
    },
    {
      "id": 248,
      "name": "하삼동커피 동탄삼성반도체점",
      "address": "경기도 화성시 삼성1로 160 1층 105호",
      "contact": "031-613-1001",
      "lat": "37.2182078853635",
      "lng": "127.077875045432",
      "region": "경기도",
      "district": "화성시"
    },
    {
      "id": 249,
      "name": "하삼동커피 시흥센트럴푸르지오점",
      "address": "경기 시흥시 수인로 3312번길 16 105동 앞 상가 A102,103",
      "contact": "031-312-8222",
      "lat": "37.4401230269917",
      "lng": "126.788655329604",
      "region": "경기",
      "district": "시흥시"
    },
    {
      "id": 250,
      "name": "하삼동커피 시흥은계점",
      "address": "경기 시흥시 은계번영길 1 113호",
      "contact": "031-313-1356",
      "lat": "37.436560703562",
      "lng": "126.801608573148",
      "region": "경기",
      "district": "시흥시"
    },
    {
      "id": 251,
      "name": "하삼동커피 군포송정점",
      "address": "경기도 군포시 송부로 36 105호",
      "contact": "031-362-5771",
      "lat": "37.3156089046746",
      "lng": "126.918460494423",
      "region": "경기도",
      "district": "군포시"
    },
    {
      "id": 252,
      "name": "하삼동커피 금촌점",
      "address": "경기 파주시 아동로 2-1 1층",
      "contact": "0507-1316-4043",
      "lat": "37.7637882160792",
      "lng": "126.775242036608",
      "region": "경기",
      "district": "파주시"
    },
    {
      "id": 253,
      "name": "하삼동커피 부천세무서점",
      "address": "경기 부천시 원미구 신흥로 264 1층",
      "contact": "032-713-8856",
      "lat": "37.5071068705351",
      "lng": "126.775509091907",
      "region": "경기",
      "district": "부천시"
    },
    {
      "id": 254,
      "name": "하삼동커피 부천상동점",
      "address": "경기 부천시 원미구 상동로 105 1층",
      "contact": "032-321-0515",
      "lat": "37.5066933166706",
      "lng": "126.752812737564",
      "region": "경기",
      "district": "부천시"
    },
    {
      "id": 255,
      "name": "하삼동커피 부천옥길점",
      "address": "경기 부천시 소사구 양지로 208 지음프라자 105호",
      "contact": "032-347-7737",
      "lat": "37.4672804603163",
      "lng": "126.824033265296",
      "region": "경기",
      "district": "부천시"
    },
    {
      "id": 256,
      "name": "하삼동커피 부천소사역점",
      "address": "경기도 부천시 경인옛로 25 103동 제지 1층 B122호(소사본동, 한신더휴 메트로)",
      "contact": "032-278-8222",
      "lat": "37.4818347927871",
      "lng": "126.794907702402",
      "region": "경기도",
      "district": "부천시"
    },
    {
      "id": 257,
      "name": "하삼동커피 김포구래점",
      "address": "경기도 김포시 김포한강8로 396 103호",
      "contact": "031-987-1610",
      "lat": "37.6432763174169",
      "lng": "126.625110701016",
      "region": "경기도",
      "district": "김포시"
    },
    {
      "id": 258,
      "name": "하삼동커피 김포사우점",
      "address": "경기 김포시 사우중로 45 김포코아센터 1층 110호",
      "contact": "070-7543-5995",
      "lat": "37.6192302071042",
      "lng": "126.718503460762",
      "region": "경기",
      "district": "김포시"
    },
    {
      "id": 259,
      "name": "하삼동커피 원흥점",
      "address": "경기도 고양시 도래울로 104 kb 골든타워 1층 110호",
      "contact": "031-968-9907",
      "lat": "37.6344225376522",
      "lng": "126.871991595755",
      "region": "경기도",
      "district": "고양시"
    },
    {
      "id": 260,
      "name": "하삼동커피 고양화정점",
      "address": "경기 고양시 덕양구 백양로 51 네이버타운 1층 101호",
      "contact": "031-971-8611",
      "lat": "37.6303059255628",
      "lng": "126.833248267951",
      "region": "경기",
      "district": "고양시"
    },
    {
      "id": 261,
      "name": "하삼동커피 고양향동점",
      "address": "경기도 고양시 덕양구 향기로 115, 봄프라자 114호",
      "contact": "02-3158-1233",
      "lat": "37.6000533458217",
      "lng": "126.893652211007",
      "region": "경기도",
      "district": "고양시"
    },
    {
      "id": 262,
      "name": "하삼동커피 행신점",
      "address": "경기 고양시 덕양구 무원로 32 (행신동) 1층 103호 (행신동)",
      "contact": "031-970-9908",
      "lat": "37.6156762122242",
      "lng": "126.832521618346",
      "region": "경기",
      "district": "고양시"
    },
    {
      "id": 263,
      "name": "하삼동커피 강남대치점",
      "address": "서울 강남구 삼성로212 은마상가 1층 164호",
      "contact": "02-563-7069",
      "lat": "37.4996157705058",
      "lng": "127.065915414443",
      "region": "서울",
      "district": "강남구"
    },
    {
      "id": 264,
      "name": "하삼동커피 시흥사거리점",
      "address": "서울 금천구 시흥대로 225 제이타워 111호",
      "contact": "02-2135-1000",
      "lat": "37.4537894156684",
      "lng": "126.900461934958",
      "region": "서울",
      "district": "금천구"
    },
    {
      "id": 265,
      "name": "하삼동커피 광명철산점",
      "address": "경기도 광명시 철산로23, 대광빌딩 1층",
      "contact": "02-2611-1928",
      "lat": "37.4766268143234",
      "lng": "126.868494822659",
      "region": "경기도",
      "district": "광명시"
    },
    {
      "id": 266,
      "name": "하삼동커피 까치산점",
      "address": "서울특별시 강서구 강서로 18길 24 1층",
      "contact": "02-6080-0977",
      "lat": "37.5338522147353",
      "lng": "126.84700901848",
      "region": "서울특별시",
      "district": "강서구"
    },
    {
      "id": 267,
      "name": "하삼동커피 구로구청점",
      "address": "서울 구로구 가마산로 271 1층",
      "contact": "0507-0289-5136",
      "lat": "37.4963996027511",
      "lng": "126.890291049446",
      "region": "서울",
      "district": "구로구"
    },
    {
      "id": 268,
      "name": "하삼동커피 구로개봉점",
      "address": "서울시 구로구 개봉로 72 1층",
      "contact": "070-7755-5557",
      "lat": "37.4920105958203",
      "lng": "126.856325030026",
      "region": "서울시",
      "district": "구로구"
    },
    {
      "id": 269,
      "name": "하삼동커피 가재울점",
      "address": "서울 서대문구 거북골로 100 래미안루센티아아파트 상가 12호",
      "contact": "02-374-8885",
      "lat": "37.5757256799627",
      "lng": "126.918353630124",
      "region": "서울",
      "district": "서대문구"
    },
    {
      "id": 270,
      "name": "하삼동커피 서울미아점",
      "address": "서울시 강북구 도봉로 40 1층",
      "contact": "02-980-4630",
      "lat": "37.6125920819171",
      "lng": "127.030433727904",
      "region": "서울시",
      "district": "강북구"
    },
    {
      "id": 271,
      "name": "하삼동커피 가술산단점",
      "address": "부산 해운대구 APEC로 17 (우동, 센텀리더스마크) 1층",
      "contact": "02-1234-1234",
      "lat": "35.1659324519479",
      "lng": "129.132411521392",
      "region": "부산",
      "district": "해운대구"
    },
    {
      "id": 272,
      "name": "하삼동커피 대구동성로점",
      "address": "대구 중구 동성로1길 29-10 1층",
      "contact": "053-716-6678",
      "lat": "35.8669175147019",
      "lng": "128.595361563837",
      "region": "대구",
      "district": "중구"
    },
    {
      "id": 273,
      "name": "하삼동커피 원평점",
      "address": "경북 구미시 구미중앙로17길 21 (원평동) 1층",
      "contact": "054-456-2022",
      "lat": "36.1295422123643",
      "lng": "128.334723386108",
      "region": "경북",
      "district": "구미시"
    },
    {
      "id": 274,
      "name": "하삼동커피 평리뉴타운점",
      "address": "대구 서구 서대구로29길 30 (평리동, 서대구역화성파크드림) 1층 4호",
      "contact": "070-4694-4114",
      "lat": "35.87051784661",
      "lng": "128.546661241202",
      "region": "대구",
      "district": "서구"
    },
    {
      "id": 275,
      "name": "하삼동커피 칠성점",
      "address": "대구 북구 호암로 28-3 (칠성동2가) 101호",
      "contact": "053-354-3535",
      "lat": "35.8821021905544",
      "lng": "128.59378876211",
      "region": "대구",
      "district": "북구"
    },
    {
      "id": 276,
      "name": "하삼동커피 울진후포점",
      "address": "경북 울진군 후포면 삼율6길 7 1층",
      "contact": "054-787-0903",
      "lat": "36.6790619146054",
      "lng": "129.440617369465",
      "region": "경북",
      "district": "울진군"
    },
    {
      "id": 277,
      "name": "하삼동커피 영천망정점",
      "address": "경북 영천시 망정1길 174 111호",
      "contact": "054-333-1225",
      "lat": "35.9814122809116",
      "lng": "128.951701888907",
      "region": "경북",
      "district": "영천시"
    },
    {
      "id": 278,
      "name": "하삼동커피 포항죽도점",
      "address": "경북 포항시 북구 중흥로 251 1층",
      "contact": "054-273-3335",
      "lat": "36.0256204666226",
      "lng": "129.359646786476",
      "region": "경북",
      "district": "포항시"
    },
    {
      "id": 279,
      "name": "하삼동커피 포항초곡점",
      "address": "경북 포항시 북구 흥해읍 초곡지구로58번길 20 (초곡리) 1층 103호",
      "contact": "054-261-3928",
      "lat": "36.0966131516495",
      "lng": "129.33765099758",
      "region": "경북",
      "district": "포항시"
    },
    {
      "id": 280,
      "name": "하삼동커피 포항오천점",
      "address": "경북 포항시 남구 오천읍 정몽주로 481-16 1층",
      "contact": "054-292-1178",
      "lat": "35.9628394858009",
      "lng": "129.412952663306",
      "region": "경북",
      "district": "포항시"
    },
    {
      "id": 281,
      "name": "하삼동커피 지곡점",
      "address": "경북 포항시 남구 효자동길6번길 7 (효자동) 1층",
      "contact": "0504-2015-2713",
      "lat": "36.0083681703418",
      "lng": "129.330726687073",
      "region": "경북",
      "district": "포항시"
    },
    {
      "id": 282,
      "name": "하삼동커피 포항양덕점",
      "address": "경북 포항시 북구 양덕로 48 1층",
      "contact": "054-254-0304",
      "lat": "36.0828944451281",
      "lng": "129.402153831308",
      "region": "경북",
      "district": "포항시"
    },
    {
      "id": 283,
      "name": "하삼동커피 포항효자점",
      "address": "경북 포항시 남구 효성로 33 1층",
      "contact": "054-277-0303",
      "lat": "36.0064156175212",
      "lng": "129.337390434008",
      "region": "경북",
      "district": "포항시"
    },
    {
      "id": 284,
      "name": "하삼동커피 북삼오태점",
      "address": "경북 칠곡군 북삼읍 금오대로 288 (인평리) 1층",
      "contact": "054-972-0088",
      "lat": "36.0705470001187",
      "lng": "128.348590333413",
      "region": "경북",
      "district": "칠곡군"
    },
    {
      "id": 285,
      "name": "하삼동커피 신평점",
      "address": "경북 구미시 구미대로 399 (신평동, 신평상가) 1층 105호",
      "contact": "070-4007-1813",
      "lat": "36.1226482766705",
      "lng": "128.362537539437",
      "region": "경북",
      "district": "구미시"
    },
    {
      "id": 286,
      "name": "하삼동커피 황상점",
      "address": "경북 구미시 인동중앙로 19 (황상동) 1층",
      "contact": "054-472-2280",
      "lat": "36.1071705410522",
      "lng": "128.421001580924",
      "region": "경북",
      "district": "구미시"
    },
    {
      "id": 287,
      "name": "하삼동커피 옥계점",
      "address": "경북 구미시 옥계북로 40 (옥계동) 1층",
      "contact": "070-7856-9930",
      "lat": "36.138044747084",
      "lng": "128.421802150976",
      "region": "경북",
      "district": "구미시"
    },
    {
      "id": 288,
      "name": "하삼동커피 상모점",
      "address": "경북 구미시 상사서로 35 (상모동) 1층",
      "contact": "070-8776-7575",
      "lat": "36.0857259966624",
      "lng": "128.355337046473",
      "region": "경북",
      "district": "구미시"
    },
    {
      "id": 289,
      "name": "하삼동커피 확장단지점",
      "address": "경북 구미시 산동읍 신당1로2길 14 (신당리) 1층",
      "contact": "070-7856-336",
      "lat": "36.1553251578434",
      "lng": "128.432314444649",
      "region": "경북",
      "district": "구미시"
    },
    {
      "id": 290,
      "name": "하삼동커피 대구동인동점",
      "address": "대구 중구 국채보상로139길 4 1층",
      "contact": "053-255-5757",
      "lat": "35.8691956915109",
      "lng": "128.606550408689",
      "region": "대구",
      "district": "중구"
    },
    {
      "id": 291,
      "name": "하삼동커피 대구검단점",
      "address": "대구 북구 검단로 135 1층 115호",
      "contact": "053-383-5757",
      "lat": "35.9087309428126",
      "lng": "128.621547555621",
      "region": "대구",
      "district": "북구"
    },
    {
      "id": 292,
      "name": "하삼동커피 칠곡읍내점",
      "address": "대구 북구 구암로 103 (읍내동) 1층",
      "contact": "053-716-7947",
      "lat": "35.9324505547313",
      "lng": "128.552052281722",
      "region": "대구",
      "district": "북구"
    },
    {
      "id": 293,
      "name": "하삼동커피 동변점",
      "address": "대구 북구 동변로 100 (동변동) 1층",
      "contact": "053-952-1300",
      "lat": "35.9213196452048",
      "lng": "128.602257533134",
      "region": "대구",
      "district": "북구"
    },
    {
      "id": 294,
      "name": "하삼동커피 하양점",
      "address": "경북 경산시 하양읍 서사도리4로 2 (양지리) 101호",
      "contact": "053-854-1123",
      "lat": "35.9187294400796",
      "lng": "128.808760824419",
      "region": "경북",
      "district": "경산시"
    },
    {
      "id": 295,
      "name": "하삼동커피 경산사동점",
      "address": "경북 경산시 백양로33길 10 1층",
      "contact": "053-710-2837",
      "lat": "35.8121523077062",
      "lng": "128.759608712377",
      "region": "경북",
      "district": "경산시"
    },
    {
      "id": 296,
      "name": "하삼동커피 펜타힐즈점",
      "address": "경북 경산시 펜타힐즈2로 37 (중산동) 103호",
      "contact": "070-8777-7799",
      "lat": "35.8274631538473",
      "lng": "128.718679931924",
      "region": "경북",
      "district": "경산시"
    },
    {
      "id": 297,
      "name": "하삼동커피 신천점",
      "address": "대구 동구 신암로16길 16 (신천동, 가람타운) 1층 3호",
      "contact": "053-942-4343",
      "lat": "35.87608562271",
      "lng": "128.609942905551",
      "region": "대구",
      "district": "동구"
    },
    {
      "id": 298,
      "name": "하삼동커피 대구지산범물점",
      "address": "대구광역시 수성구 지범로31길 5 (지산동)",
      "contact": null,
      "lat": "35.8226089900792",
      "lng": "128.638833175262",
      "region": "대구광역시",
      "district": "수성구"
    },
    {
      "id": 299,
      "name": "하삼동커피 대구범어점",
      "address": "대구광역시 수성구 동대구로 346,지하 1층 3-4호 (범어동, 범어서한포레스트)",
      "contact": null,
      "lat": "35.8612187886377",
      "lng": "128.627209069812",
      "region": "대구광역시",
      "district": "수성구"
    },
    {
      "id": 300,
      "name": "하삼동커피 시지매호점",
      "address": "대구 수성구 천을로 170 (매호동, 시지태왕2차아파트) 1층",
      "contact": "053-710-5722",
      "lat": "35.841786008181",
      "lng": "128.708798171736",
      "region": "대구",
      "district": "수성구"
    },
    {
      "id": 301,
      "name": "하삼동커피 수성점",
      "address": "대구 수성구 수성로76길 4 (수성동2가) 1층",
      "contact": "053-267-8078",
      "lat": "35.8572751203961",
      "lng": "128.614185738594",
      "region": "대구",
      "district": "수성구"
    },
    {
      "id": 302,
      "name": "하삼동커피 담티역점",
      "address": "대구 수성구 달구벌대로 2670 (만촌동, 한겨레빌딩) 1층",
      "contact": "070-7322-7311",
      "lat": "35.8546940785106",
      "lng": "128.653349624526",
      "region": "대구",
      "district": "수성구"
    },
    {
      "id": 303,
      "name": "하삼동커피 사월점",
      "address": "대구 수성구 달구벌대로669길 80 (사월동, 시지대성유니드아파트) 106호",
      "contact": "053-794-0314",
      "lat": "35.8389593980904",
      "lng": "128.720286515775",
      "region": "대구",
      "district": "수성구"
    },
    {
      "id": 304,
      "name": "하삼동커피 대구두산점",
      "address": "대구 수성구 청수로26길 36 1층",
      "contact": "053-765-3337",
      "lat": "35.8381120930043",
      "lng": "128.622076983328",
      "region": "대구",
      "district": "수성구"
    },
    {
      "id": 305,
      "name": "하삼동커피 산격점",
      "address": "대구 북구 동북로 163 (산격동, 산격대우아파트) 103호",
      "contact": "053-383-9255",
      "lat": "35.8989133854091",
      "lng": "128.61251901581",
      "region": "대구",
      "district": "북구"
    },
    {
      "id": 306,
      "name": "하삼동커피 연경중앙점",
      "address": "대구 북구 연경중앙로3길 21 1층 109호",
      "contact": "0507-2093-8624",
      "lat": "35.9431744968442",
      "lng": "128.616299945255",
      "region": "대구",
      "district": "북구"
    },
    {
      "id": 307,
      "name": "하삼동커피 칠곡학정점",
      "address": "대구 북구 학남로3길 38 (학정동) 1층",
      "contact": "053-373-3377",
      "lat": "35.9519605021642",
      "lng": "128.567820333054",
      "region": "대구",
      "district": "북구"
    },
    {
      "id": 308,
      "name": "하삼동커피 침산점",
      "address": "대구 북구 침산남로 175 (침산동) 1층",
      "contact": "053-201-6614",
      "lat": "35.8876951983598",
      "lng": "128.594855428678",
      "region": "대구",
      "district": "북구"
    },
    {
      "id": 309,
      "name": "하삼동커피 반야월점",
      "address": "대구 동구 경안로 749 (동호동) 1층",
      "contact": "053-965-3313",
      "lat": "35.8690335617416",
      "lng": "128.713052771456",
      "region": "대구",
      "district": "동구"
    },
    {
      "id": 310,
      "name": "하삼동커피 동대구점",
      "address": "대구 동구 동부로26길 5 (신천동, 부띠끄시티 테라스) 109호",
      "contact": "053-752-9255",
      "lat": "35.8754840430922",
      "lng": "128.628189500117",
      "region": "대구",
      "district": "동구"
    },
    {
      "id": 311,
      "name": "하삼동커피 평리점",
      "address": "대구 서구 서대구로 77 (평리동, 평리청구타운) 104호",
      "contact": "053-262-3327",
      "lat": "35.864200453662",
      "lng": "128.555674671406",
      "region": "대구",
      "district": "서구"
    },
    {
      "id": 312,
      "name": "하삼동커피 대구내당점",
      "address": "대구 서구 달구벌대로361길 108호",
      "contact": "070-7778-2230",
      "lat": "35.8619291324211",
      "lng": "128.56112516856",
      "region": "대구",
      "district": "서구"
    },
    {
      "id": 313,
      "name": "하삼동커피 청라언덕역점",
      "address": "대구 중구 남산로17길 10 (남산동) 102호",
      "contact": "053-716-8363",
      "lat": "35.8636273539502",
      "lng": "128.581644718813",
      "region": "대구",
      "district": "중구"
    },
    {
      "id": 314,
      "name": "하삼동커피 남산점",
      "address": "대구 중구 중앙대로 303 (남산동, 라파엘 빌딩) 1층",
      "contact": "053-257-7507",
      "lat": "35.8604446509535",
      "lng": "128.591805174776",
      "region": "대구",
      "district": "중구"
    },
    {
      "id": 315,
      "name": "하삼동커피 현풍테크노점",
      "address": "대구 달성군 현풍읍 테크노중앙대로 243 (중리, 타임스퀘어) 104호",
      "contact": "053-292-0002",
      "lat": "35.6921390334867",
      "lng": "128.457390532274",
      "region": "대구",
      "district": "달성군"
    },
    {
      "id": 316,
      "name": "하삼동커피 대구다사역힐스테이트점",
      "address": "대구 달성군 다사읍 매곡로12길 22 (매곡리, 힐스테이트 다사역) 112호",
      "contact": "053-716-5772",
      "lat": "35.8653540219288",
      "lng": "128.455207520655",
      "region": "대구",
      "district": "달성군"
    },
    {
      "id": 317,
      "name": "하삼동커피 테스노폴리스점",
      "address": "대구 달성군 유가읍 테크노상업로 120 (봉리, 엠스퀘어플러스) 1층 144호",
      "contact": "070-8777-5535",
      "lat": "35.6930633080128",
      "lng": "128.462900757148",
      "region": "대구",
      "district": "달성군"
    },
    {
      "id": 318,
      "name": "하삼동커피 다사점",
      "address": "대구 달성군 다사읍 대실역북로1길 6 (매곡리, 죽곡휴먼시아1단지) 1층 101호",
      "contact": "053-587-1300",
      "lat": "35.8595006843124",
      "lng": "128.466081147027",
      "region": "대구",
      "district": "달성군"
    },
    {
      "id": 319,
      "name": "하삼동커피 대구죽전점",
      "address": "대구 달서구 달구벌대로 1525 1층 101호 하삼동커피 죽전점",
      "contact": null,
      "lat": "35.8501541302489",
      "lng": "128.533901237774",
      "region": "대구",
      "district": "달서구"
    },
    {
      "id": 320,
      "name": "하삼동커피 대구용산점",
      "address": "대구 달서구 용산로 192",
      "contact": "053-567-4343",
      "lat": "35.8545953110128",
      "lng": "128.530861575651",
      "region": "대구",
      "district": "달서구"
    },
    {
      "id": 321,
      "name": "하삼동커피 호산점",
      "address": "대구 달서구 성서공단로11길 64-1 (호산동) 1층 106호",
      "contact": "0507-2093-9281",
      "lat": "35.8410460762444",
      "lng": "128.488352858818",
      "region": "대구",
      "district": "달서구"
    },
    {
      "id": 322,
      "name": "하삼동커피 이곡점",
      "address": "대구 달서구 선원로 195 (이곡동) 1층",
      "contact": "053-592-3535",
      "lat": "35.8591794581505",
      "lng": "128.513933288051",
      "region": "대구",
      "district": "달서구"
    },
    {
      "id": 323,
      "name": "하삼동커피 대구도원점",
      "address": "대구광역시 달서구 도원로 20",
      "contact": "053-642-3355",
      "lat": "35.8079889008884",
      "lng": "128.535510739936",
      "region": "대구광역시",
      "district": "달서구"
    },
    {
      "id": 324,
      "name": "하삼동커피 대구월성점",
      "address": "대구 달서구 조암남로 48",
      "contact": null,
      "lat": "35.8220708188029",
      "lng": "128.527367453305",
      "region": "대구",
      "district": "달서구"
    },
    {
      "id": 325,
      "name": "하삼동커피 진천역점",
      "address": "대구 달서구 월배로 80 (진천동, 진천역대성스카이렉스아파트) 1층",
      "contact": "053-270-3335",
      "lat": "35.8135993354302",
      "lng": "128.523885273978",
      "region": "대구",
      "district": "달서구"
    },
    {
      "id": 326,
      "name": "하삼동커피 상인역3번출구점",
      "address": "대구 달서구 월배로 220 1층",
      "contact": "070-4413-0803",
      "lat": "35.8185769596389",
      "lng": "128.537527993379",
      "region": "대구",
      "district": "달서구"
    },
    {
      "id": 327,
      "name": "하삼동커피 대구상인점",
      "address": "대구 달서구 상인서로 65 208동 103호",
      "contact": "053-643-5598",
      "lat": "35.8155625542004",
      "lng": "128.543007926083",
      "region": "대구",
      "district": "달서구"
    },
    {
      "id": 328,
      "name": "하삼동커피 대구대곡점",
      "address": "대구 달서구 한실로6길 98 1층",
      "contact": "053 633 5535",
      "lat": "35.799007470696",
      "lng": "128.529248843721",
      "region": "대구",
      "district": "달서구"
    },
    {
      "id": 329,
      "name": "하삼동커피 대구월배점",
      "address": "부산 금정구 서동로 147 1층",
      "contact": "051-",
      "lat": "35.2150718742119",
      "lng": "129.102688043509",
      "region": "부산",
      "district": "금정구"
    },
    {
      "id": 330,
      "name": "하삼동커피 신월점",
      "address": "경남 창원시 성산구 신월로 54 1층",
      "contact": "055-266-1588",
      "lat": "35.2274039830966",
      "lng": "128.692923068401",
      "region": "경남",
      "district": "창원시"
    },
    {
      "id": 331,
      "name": "하삼동커피 창원남양점",
      "address": "경남 창원시 성산구 가음로13번길 33, 1층",
      "contact": "055-719-2598",
      "lat": "35.2130851573475",
      "lng": "128.700971634857",
      "region": "경남",
      "district": "창원시"
    },
    {
      "id": 332,
      "name": "하삼동커피 구포점",
      "address": "부산 북구 낙동대로1762번가길 23 1층 1호",
      "contact": "070-8823-4050",
      "lat": "35.2079327310976",
      "lng": "129.001899222924",
      "region": "부산",
      "district": "북구"
    },
    {
      "id": 333,
      "name": "하삼동커피 진해남원로타리점",
      "address": "경남 창원시 진해구 중원로 20 1층",
      "contact": "055-544-4408",
      "lat": "35.1458301268241",
      "lng": "128.659324588086",
      "region": "경남",
      "district": "창원시"
    },
    {
      "id": 334,
      "name": "하삼동커피 창원남산터미널점",
      "address": "경남 창원시 성산구 정동로162번길 61 1층 105호",
      "contact": "055-264-1151",
      "lat": "35.2018996953508",
      "lng": "128.69709260741",
      "region": "경남",
      "district": "창원시"
    },
    {
      "id": 335,
      "name": "하삼동커피 창원소계점",
      "address": "경남 창원시 의창구 소계로 91-2 1층",
      "contact": "055-255-1155",
      "lat": "35.2573088400069",
      "lng": "128.598783522062",
      "region": "경남",
      "district": "창원시"
    },
    {
      "id": 336,
      "name": "하삼동커피 창원롯데센텀골드점",
      "address": "경남 창원시 마산회원구 양덕로 48 상가2동 202호",
      "contact": "070-7670-8008",
      "lat": "35.2246437503717",
      "lng": "128.590873091606",
      "region": "경남",
      "district": "창원시"
    },
    {
      "id": 337,
      "name": "하삼동커피 창원SK테크노파크점",
      "address": "경남 창원시 성산구 완암로 50 넥스동 지하1층 B113호 일부호",
      "contact": "055-286-0122",
      "lat": "35.2056242980085",
      "lng": "128.663752770307",
      "region": "경남",
      "district": "창원시"
    },
    {
      "id": 338,
      "name": "하삼동커피 가술산단점",
      "address": "경남 창원시 의창구 대산면 가술산단로 28 1동 101호",
      "contact": "055-298-0430",
      "lat": "35.3314223934794",
      "lng": "128.70584699528",
      "region": "경남",
      "district": "창원시"
    },
    {
      "id": 339,
      "name": "하삼동커피 합성동터미널점",
      "address": "경남 창원시 마산회원구 양덕북4길 17 1층 103호",
      "contact": "055-713-1619",
      "lat": "35.2371400652029",
      "lng": "128.582969004947",
      "region": "경남",
      "district": "창원시"
    },
    {
      "id": 340,
      "name": "하삼동커피 메트로센텀점",
      "address": "경남 창원시 마산회원구 용마로 130 1층 105호",
      "contact": "070-4833-0725",
      "lat": "35.2235828924158",
      "lng": "128.586088347381",
      "region": "경남",
      "district": "창원시"
    },
    {
      "id": 341,
      "name": "하삼동커피 창원롯데캐슬점",
      "address": "경남 창원시 마산합포구 노산서18길 80 롯데캐슬프리미어 1층 19호 교방점",
      "contact": "055-603-4800",
      "lat": "35.2153821262515",
      "lng": "128.564962694826",
      "region": "경남",
      "district": "창원시"
    },
    {
      "id": 342,
      "name": "하삼동커피 창원동읍점",
      "address": "경남 창원시 의창구 동읍 동읍로 6-1 1층 2호",
      "contact": "055-607-4484",
      "lat": "35.2779405522314",
      "lng": "128.684821017952",
      "region": "경남",
      "district": "창원시"
    },
    {
      "id": 343,
      "name": "하삼동커피 스마트업점",
      "address": "경남 창원시 의창구 차룡로48번길 44 스마트업타워 1층",
      "contact": "055-299-9877",
      "lat": "35.2411544782794",
      "lng": "128.631390569763",
      "region": "경남",
      "district": "창원시"
    },
    {
      "id": 344,
      "name": "하삼동커피 창원성주점",
      "address": "경남 창원시 성산구 삼정자로43번길 8 1층 102호",
      "contact": "055-716-1222",
      "lat": "35.1987709387954",
      "lng": "128.711023808892",
      "region": "경남",
      "district": "창원시"
    },
    {
      "id": 345,
      "name": "하삼동커피 사파동성점",
      "address": "경남 창원시 성산구 창이대로 733 사파동성아파트 상가 1층",
      "contact": "055-264-0122",
      "lat": "35.2194766939923",
      "lng": "128.70218850738",
      "region": "경남",
      "district": "창원시"
    },
    {
      "id": 346,
      "name": "하삼동커피 상남2호점",
      "address": "경남 창원시 성산구 마디미로64번길 1 1층",
      "contact": "055-264-4900",
      "lat": "35.2193096070602",
      "lng": "128.681642576979",
      "region": "경남",
      "district": "창원시"
    },
    {
      "id": 347,
      "name": "하삼동커피 창원도계점",
      "address": "경남 창원시 의창구 하남천서길5번길 2 1층 103호 하삼동커피 창원도계점",
      "contact": "055-277-0070",
      "lat": "35.2597369725558",
      "lng": "128.638233279631",
      "region": "경남",
      "district": "창원시"
    },
    {
      "id": 348,
      "name": "하삼동커피 창원중앙점",
      "address": "경남 창원시 성산구 용지로133번길 3 한서빌딩 1층 하삼동커피",
      "contact": "055-275-7778",
      "lat": "35.2273145686238",
      "lng": "128.679399046537",
      "region": "경남",
      "district": "창원시"
    },
    {
      "id": 349,
      "name": "하삼동커피 창원반림점",
      "address": "경남 창원시 성산구 원이대로473번길 21 반림상가 1층 104호",
      "contact": "055-275-5050",
      "lat": "35.2355818067391",
      "lng": "128.67015910066",
      "region": "경남",
      "district": "창원시"
    },
    {
      "id": 350,
      "name": "하삼동커피 창원감계점",
      "address": "경남 창원시 의창구 북면 감계로110번길 53 1층",
      "contact": "055-295-6665",
      "lat": "35.3012049564192",
      "lng": "128.593197244085",
      "region": "경남",
      "district": "창원시"
    },
    {
      "id": 351,
      "name": "하삼동커피 의창구 대산점",
      "address": "경상남도 창원시 의창구 대산면 진산대로 410 1층",
      "contact": "055-255-3998",
      "lat": "35.3361042249782",
      "lng": "128.709303709431",
      "region": "경상남도",
      "district": "창원시"
    },
    {
      "id": 352,
      "name": "하삼동커피 소답점",
      "address": "경남 창원시 의창구 의창대로247번길 35 1층",
      "contact": "055-251-8333",
      "lat": "35.2648484053763",
      "lng": "128.625099285372",
      "region": "경남",
      "district": "창원시"
    },
    {
      "id": 353,
      "name": "하삼동커피 창원대방점",
      "address": "경남 창원시 성산구 대정로 138 1층",
      "contact": "055-275-3577",
      "lat": "35.211748989648",
      "lng": "128.707629787663",
      "region": "경남",
      "district": "창원시"
    },
    {
      "id": 354,
      "name": "하삼동커피 창원중앙역점",
      "address": "경남 창원시 의창구 용동로 85 한마음빌딩 1층",
      "contact": "055-715-2666",
      "lat": "35.2384617507574",
      "lng": "128.700767998314",
      "region": "경남",
      "district": "창원시"
    },
    {
      "id": 355,
      "name": "하삼동커피 창원명서점",
      "address": "경남 창원시 의창구 도계로 135 두산위브주상가 1층 104호",
      "contact": "055-602-6000",
      "lat": "35.2531379615303",
      "lng": "128.643057908581",
      "region": "경남",
      "district": "창원시"
    },
    {
      "id": 356,
      "name": "하삼동커피 삼성병원점",
      "address": "경남 창원시 마산회원구 팔용로 149 1층 하삼동커피",
      "contact": "055-298-3335",
      "lat": "35.2424335255295",
      "lng": "128.590529882874",
      "region": "경남",
      "district": "창원시"
    },
    {
      "id": 357,
      "name": "하삼동커피 가음정라포레점",
      "address": "경남 창원시 성산구 창원대로 888 1층",
      "contact": "055-266-6766",
      "lat": "35.2087938761328",
      "lng": "128.684884477157",
      "region": "경남",
      "district": "창원시"
    },
    {
      "id": 358,
      "name": "하삼동커피 창원상남점",
      "address": "경남 창원시 성산구 마디미로3번길 2 대웅빌딩 1층 102호",
      "contact": "055-544-1588",
      "lat": "35.2235172411815",
      "lng": "128.685709300728",
      "region": "경남",
      "district": "창원시"
    },
    {
      "id": 359,
      "name": "하삼동커피 마산합성점",
      "address": "경남 창원시 마산회원구 양덕로 146 1층",
      "contact": "055-252-9077",
      "lat": "35.2315704628514",
      "lng": "128.58384263569",
      "region": "경남",
      "district": "창원시"
    },
    {
      "id": 360,
      "name": "하삼동커피 창원토월점",
      "address": "경남 창원시 성산구 동산로 122 스카이웰빙파크 1층",
      "contact": "055-713-7155",
      "lat": "35.2189963854301",
      "lng": "128.690953952905",
      "region": "경남",
      "district": "창원시"
    },
    {
      "id": 361,
      "name": "하삼동커피 창원신촌점",
      "address": "경남 창원시 성산구 신촌로 84 A-나동 1층 105호",
      "contact": "055-602-9210",
      "lat": "35.2022251621062",
      "lng": "128.628157272017",
      "region": "경남",
      "district": "창원시"
    },
    {
      "id": 362,
      "name": "하삼동커피 가음정점",
      "address": "경남 창원시 성산구 대정로 36 1층 4호",
      "contact": "055-719-0005",
      "lat": "35.2075341448965",
      "lng": "128.698921726922",
      "region": "경남",
      "district": "창원시"
    },
    {
      "id": 363,
      "name": "하삼동커피 창원팔용점",
      "address": "경남 창원시 의창구 팔용로 438 팔용종합상가 1층 115호",
      "contact": "055-719-0008",
      "lat": "35.2553368324358",
      "lng": "128.613503118306",
      "region": "경남",
      "district": "창원시"
    },
    {
      "id": 364,
      "name": "하삼동커피 유니시티점",
      "address": "경남 창원시 의창구 중동로 60 1층 111호",
      "contact": "070-4647-3339",
      "lat": "35.2547941444632",
      "lng": "128.629035687822",
      "region": "경남",
      "district": "창원시"
    },
    {
      "id": 365,
      "name": "하삼동커피 어시장점",
      "address": "경남 창원시 진해구 용원동로 261 하삼동커피 어시장점 1층",
      "contact": "055-547-5600",
      "lat": "35.0962914102419",
      "lng": "128.81990516402",
      "region": "경남",
      "district": "창원시"
    },
    {
      "id": 366,
      "name": "하삼동커피 진해화천점",
      "address": "경남 창원시 진해구 중원로86번길 28 1층",
      "contact": "055-547-9725",
      "lat": "35.1515250981477",
      "lng": "128.663077675762",
      "region": "경남",
      "district": "창원시"
    },
    {
      "id": 367,
      "name": "하삼동커피 진해점",
      "address": "경남 창원시 진해구 냉천로 49 석동사거리 1층",
      "contact": "055-551-7301",
      "lat": "35.151678968455",
      "lng": "128.702806589293",
      "region": "경남",
      "district": "창원시"
    },
    {
      "id": 368,
      "name": "하삼동커피 진해장천점",
      "address": "경남 창원시 진해구 충장로657번길 20 1층 104호",
      "contact": "055-546-7331",
      "lat": "35.1305737505539",
      "lng": "128.705735589765",
      "region": "경남",
      "district": "창원시"
    },
    {
      "id": 369,
      "name": "하삼동커피 용원점",
      "address": "경남 창원시 진해구 용원서로31번길 11 1층",
      "contact": "055-552-8830",
      "lat": "35.1005197682408",
      "lng": "128.811721135483",
      "region": "경남",
      "district": "창원시"
    },
    {
      "id": 370,
      "name": "하삼동커피 진해여좌점",
      "address": "경남 창원시 진해구 여좌남로24번길 1 1층",
      "contact": "055-546-2123",
      "lat": "35.1550263031539",
      "lng": "128.658462601407",
      "region": "경남",
      "district": "창원시"
    },
    {
      "id": 371,
      "name": "하삼동커피 진해석동점",
      "address": "경남 창원시 진해구 진해대로 762 1층",
      "contact": "055-552-5430",
      "lat": "35.1581646243334",
      "lng": "128.698757554273",
      "region": "경남",
      "district": "창원시"
    },
    {
      "id": 372,
      "name": "하삼동커피 자은점",
      "address": "경남 창원시 진해구 풍호로49번길 5-12 1층 102호",
      "contact": "055-545-1515",
      "lat": "35.1404419319503",
      "lng": "128.705453033025",
      "region": "경남",
      "district": "창원시"
    },
    {
      "id": 373,
      "name": "하삼동커피 진해남문점",
      "address": "경남 창원시 진해구 남영로 41 남문프라자 1층 107호",
      "contact": "055-541-2244",
      "lat": "35.1061042680606",
      "lng": "128.750349468153",
      "region": "경남",
      "district": "창원시"
    },
    {
      "id": 374,
      "name": "하삼동커피 경주중앙점",
      "address": "경주시 금성로 308 1층",
      "contact": "054 775 1178",
      "lat": "35.8450692329185",
      "lng": "129.207249902872",
      "region": "경주시",
      "district": "금성로"
    },
    {
      "id": 375,
      "name": "하삼동커피 경주금장점",
      "address": "경북 경주시 용담로174 성호마루한뷰상가 107호 하삼동커피금장점",
      "contact": "054-771-4307",
      "lat": "35.8673561678294",
      "lng": "129.203787728843",
      "region": "경북",
      "district": "경주시"
    },
    {
      "id": 376,
      "name": "하삼동커피 경주안강점",
      "address": "경주시안강읍 비화원로 67 1층",
      "contact": "054 763 1178",
      "lat": "35.9907058670585",
      "lng": "129.225033042019",
      "region": "경주시안강읍",
      "district": "비화원로"
    },
    {
      "id": 377,
      "name": "하삼동커피 경주협성휴포레점",
      "address": "경상북도 경주시 용황로 74 엠타워 1층 106호",
      "contact": "054)776-5054",
      "lat": "35.8830402972283",
      "lng": "129.226284422084",
      "region": "경상북도",
      "district": "경주시"
    },
    {
      "id": 378,
      "name": "하삼동커피 울산율동점",
      "address": "울산광역시 북구 율동로26(양정동) 3단지 상가 104호 하삼동커피 울산율동점",
      "contact": "052-700-2200",
      "lat": "35.5591990644322",
      "lng": "129.380254866181",
      "region": "울산광역시",
      "district": "북구"
    },
    {
      "id": 379,
      "name": "하삼동커피 울산송정반도유보라점",
      "address": "울산광역시 북구 화산로 104 상가 132동 216호",
      "contact": "052-286-6654",
      "lat": "35.6015109719403",
      "lng": "129.366428501519",
      "region": "울산광역시",
      "district": "북구"
    },
    {
      "id": 380,
      "name": "하삼동커피 울산연암점",
      "address": "울산광역시 북구 연암동 159-9 2층 일부",
      "contact": "052-700-9393",
      "lat": "35.5778352354313",
      "lng": "129.377478654242",
      "region": "울산광역시",
      "district": "북구"
    },
    {
      "id": 381,
      "name": "하삼동커피 울산명촌효성해링턴점",
      "address": "울산광역시 북구 명촌18길 5(명촌동, 강변효성해링턴 플레이스) 1층 상가 113호",
      "contact": "052-700-8700",
      "lat": "35.557261042615",
      "lng": "129.353115669534",
      "region": "울산광역시",
      "district": "북구"
    },
    {
      "id": 382,
      "name": "하삼동커피 울산천곡점",
      "address": "울산광역시 북구 아진로 106-2 1층",
      "contact": "052-286-6600",
      "lat": "35.6309582799731",
      "lng": "129.337526765152",
      "region": "울산광역시",
      "district": "북구"
    },
    {
      "id": 383,
      "name": "하삼동커피 울산화봉점",
      "address": "울산광역시 북구 화봉로66 1층 하나로마트 입구",
      "contact": "052-700-6644",
      "lat": "35.5878793966437",
      "lng": "129.366269441552",
      "region": "울산광역시",
      "district": "북구"
    },
    {
      "id": 384,
      "name": "하삼동커피 울산달천점",
      "address": "울산 북구 가재길 82 리더스빌딩 102호",
      "contact": "052-707-7373",
      "lat": "35.633466670153",
      "lng": "129.332664259601",
      "region": "울산",
      "district": "북구"
    },
    {
      "id": 385,
      "name": "하삼동커피 울산염포점",
      "address": "울산광역시 북구 염포로 669 1층 104호",
      "contact": "052 700 4456",
      "lat": "35.5329399997956",
      "lng": "129.391149443352",
      "region": "울산광역시",
      "district": "북구"
    },
    {
      "id": 386,
      "name": "하삼동커피 명촌점",
      "address": "울산광역시 북구 명촌10길 23 하삼동커피 명촌점",
      "contact": "052-289-1122",
      "lat": "35.5522488707981",
      "lng": "129.357443644652",
      "region": "울산광역시",
      "district": "북구"
    },
    {
      "id": 387,
      "name": "하삼동커피 울산매곡월드메르디앙점",
      "address": "울산광역시 북구 매산로65 월드메르디앙시티1단지상가 129동104호",
      "contact": "052)971-1007",
      "lat": "35.6399362775489",
      "lng": "129.361379447794",
      "region": "울산광역시",
      "district": "북구"
    },
    {
      "id": 388,
      "name": "하삼동커피 울산중산매곡점",
      "address": "울산광역시 북구 중산로 48-1 113동 1층 104호(중산동, 미라주 1단지 상가동)",
      "contact": "052-285-1253",
      "lat": "35.6526485311784",
      "lng": "129.353294258362",
      "region": "울산광역시",
      "district": "북구"
    },
    {
      "id": 389,
      "name": "하삼동커피 울산매곡점",
      "address": "울산 북구 신천로 83 H프라자 1층",
      "contact": "052-282-3030",
      "lat": "35.645074404687",
      "lng": "129.351693171385",
      "region": "울산",
      "district": "북구"
    },