{
  "meta": {
    "brand_id": "45ae7b9a88fc4de5b28430869f2b40a3",
    "brand_name": "홍콩반점",
    "totalCount": 270,
    "extractedAt": "2026-03-17T08:44:39.950Z",
    "sourceUrl": "https://www.theborn.co.kr/store/domestic-store/"
  },
  "stores": [
    {
      "name": "홍콩반점 부산장산역점",
      "address": "부산광역시 해운대구 좌동로 88 (좌동, 울트라타워) 1층",
      "contact": "051-701-8952",
      "lat": "35.1719523",
      "lng": "129.1749510",
      "region": "부산광역시",
      "district": "해운대구",
      "id": 1
    },
    {
      "name": "홍콩반점 중랑역점",
      "address": "서울특별시 중랑구 망우로32길 7 2층",
      "contact": null,
      "lat": "37.5935587",
      "lng": "127.0765800",
      "region": "서울특별시",
      "district": "중랑구",
      "id": 2
    },
    {
      "name": "홍콩반점 일산장항점",
      "address": "경기도 고양시 일산동구 장항동 566-48 1층",
      "contact": "031-902-0410",
      "lat": "37.6422622",
      "lng": "126.7696279",
      "region": "경기도",
      "district": "고양시",
      "id": 3
    },
    {
      "name": "홍콩반점 종각역점",
      "address": "서울특별시 종로구 종로10길 21 (관철동) 2, 3층",
      "contact": "02-730-0003",
      "lat": "37.5689965",
      "lng": "126.9845378",
      "region": "서울특별시",
      "district": "종로구",
      "id": 4
    },
    {
      "name": "홍콩반점 수지상현점",
      "address": "경기도 용인시 수지구 만현로 113 (상현동, 미래프라자) 1층",
      "contact": "070-5100-2500",
      "lat": "37.3064775",
      "lng": "127.0853649",
      "region": "경기도",
      "district": "용인시",
      "id": 5
    },
    {
      "name": "홍콩반점 양주옥정점",
      "address": "경기도 양주시 옥정동로5길 25 (옥정동) 1층",
      "contact": "070-7803-0410",
      "lat": "37.8114851",
      "lng": "127.0888618",
      "region": "경기도",
      "district": "양주시",
      "id": 6
    },
    {
      "name": "홍콩반점 일산벨라시타점",
      "address": "경기도 고양시 일산동구 강송로 33 (백석동, 일산 요진 와이시티) 지하1층 푸드코트 내",
      "contact": null,
      "lat": "37.6429788",
      "lng": "126.7932555",
      "region": "경기도",
      "district": "고양시",
      "id": 7
    },
    {
      "name": "홍콩반점 AK광명점",
      "address": "경기도 광명시 양지로 17 (일직동) AK플라자 지하 2F 푸드코트",
      "contact": null,
      "lat": "37.4186807",
      "lng": "126.8828897",
      "region": "경기도",
      "district": "광명시",
      "id": 8
    },
    {
      "name": "홍콩반점 신월사거리점",
      "address": "서울특별시 양천구 신월동 49-8 1층",
      "contact": "070-8780-0410",
      "lat": "37.5362932",
      "lng": "126.8276232",
      "region": "서울특별시",
      "district": "양천구",
      "id": 9
    },
    {
      "name": "홍콩반점 청량리역점",
      "address": "서울특별시 동대문구 전농동 620-70 1층",
      "contact": "02-960-7642",
      "lat": "37.5792407",
      "lng": "127.0431911",
      "region": "서울특별시",
      "district": "동대문구",
      "id": 10
    },
    {
      "name": "홍콩반점 인천도화점",
      "address": "인천광역시 미추홀구 숙골로87번길 2 (도화동, 센타프라자) 1층",
      "contact": "070-8211-0918",
      "lat": "37.4704728",
      "lng": "126.6634978",
      "region": "인천광역시",
      "district": "미추홀구",
      "id": 11
    },
    {
      "name": "홍콩반점 영등포역점",
      "address": "서울특별시 영등포구 영중로3길 3, 2층",
      "contact": "070-4647-4101",
      "lat": "37.5168239",
      "lng": "126.9060074",
      "region": "서울특별시",
      "district": "영등포구",
      "id": 12
    },
    {
      "name": "홍콩반점 인천계양구청점",
      "address": "인천광역시 계양구 오조산로 91 (용종동, 새롬2차프라자) 1층",
      "contact": "032-716-5410",
      "lat": "37.5390476",
      "lng": "126.7386220",
      "region": "인천광역시",
      "district": "계양구",
      "id": 13
    },
    {
      "name": "홍콩반점 강원대점",
      "address": "강원특별자치도 춘천시 서부대성로 229-1 2층",
      "contact": "033-255-0410",
      "lat": "37.8732404",
      "lng": "127.7437442",
      "region": "강원특별자치도",
      "district": "춘천시",
      "id": 14
    },
    {
      "name": "홍콩반점 대구동성로점",
      "address": "대구광역시 중구 동성로3가 35-11 1층",
      "contact": "053-252-6119",
      "lat": "35.8673797",
      "lng": "128.5933704",
      "region": "대구광역시",
      "district": "중구",
      "id": 15
    },
    {
      "name": "홍콩반점 전북남원점",
      "address": "전북특별자치도 남원시 용성로 94 (죽항동) 1층",
      "contact": "063-625-0410",
      "lat": "35.4089465",
      "lng": "127.3867067",
      "region": "전북특별자치도",
      "district": "남원시",
      "id": 16
    },
    {
      "name": "홍콩반점 춘천거두리점",
      "address": "강원특별자치도 춘천시 동내면 춘천순환로94번길 13 (거두리) 101호",
      "contact": "010-5247-1948",
      "lat": "37.8552370",
      "lng": "127.7548593",
      "region": "강원특별자치도",
      "district": "춘천시",
      "id": 17
    },
    {
      "name": "홍콩반점 모다천안아산점",
      "address": "충청남도 천안시 서북구 공원로 196 (불당동, 펜타포트) 모다몰 천안아산점 지하2층",
      "contact": "0507-1375-2494",
      "lat": "36.7984279",
      "lng": "127.1014298",
      "region": "충청남도",
      "district": "천안시",
      "id": 18
    },
    {
      "name": "홍콩반점 논산시청점",
      "address": "충청남도 논산시 시민로210번길 20 (내동) 1층",
      "contact": "041-435-7000",
      "lat": "36.1858616",
      "lng": "127.0971969",
      "region": "충청남도",
      "district": "논산시",
      "id": 19
    },
    {
      "name": "홍콩반점 대관령횡계점",
      "address": "강원특별자치도 평창군 대관령면 횡계리 348-8 1층",
      "contact": "033-336-0911",
      "lat": "37.6702338",
      "lng": "128.7099033",
      "region": "강원특별자치도",
      "district": "평창군",
      "id": 20
    },
    {
      "name": "홍콩반점 진해장천점",
      "address": "경상남도 창원시 진해구 장천동 409-5 1층",
      "contact": null,
      "lat": "35.1307132",
      "lng": "128.7078971",
      "region": "경상남도",
      "district": "창원시",
      "id": 21
    },
    {
      "name": "홍콩반점 과천렛츠런파크점",
      "address": "경기도 과천시 경마공원대로 107 (주암동) 럭키빌 1층",
      "contact": "1566-3333",
      "lat": "37.4459287",
      "lng": "127.0116959",
      "region": "경기도",
      "district": "과천시",
      "id": 22
    },
    {
      "name": "홍콩반점 인천검단사거리점",
      "address": "인천광역시 서구 마전동 909-7 103호, 104호",
      "contact": "032-561-5186",
      "lat": "37.6027263",
      "lng": "126.6567040",
      "region": "인천광역시",
      "district": "서구",
      "id": 23
    },
    {
      "name": "홍콩반점 메리그라운드향동점",
      "address": "경기도 고양시 덕양구 향동로 217 (향동동) 비 1층, 알비 121(2)(향동동)",
      "contact": "02-6080-0410",
      "lat": "37.6090578",
      "lng": "126.8923953",
      "region": "경기도",
      "district": "고양시",
      "id": 24
    },
    {
      "name": "홍콩반점 만안구청점",
      "address": "경기도 안양시 만안구 안양로 143 (안양동) 1층",
      "contact": null,
      "lat": "37.3870315",
      "lng": "126.9308692",
      "region": "경기도",
      "district": "안양시",
      "id": 25
    },
    {
      "name": "홍콩반점 김포고촌점",
      "address": "경기도 김포시 고촌읍 신곡리 1065-2 1층",
      "contact": "070-7629-0410",
      "lat": "37.6032884",
      "lng": "126.7687974",
      "region": "경기도",
      "district": "김포시",
      "id": 26
    },
    {
      "name": "홍콩반점 수원영통점",
      "address": "경기도 수원시 영통구 영통동 998-6 1층",
      "contact": "031-203-0410",
      "lat": "37.2520797",
      "lng": "127.0744530",
      "region": "경기도",
      "district": "수원시",
      "id": 27
    },
    {
      "name": "홍콩반점 인천삼산점",
      "address": "인천광역시 부평구 체육관로 40 (삼산동, 신영프라자) 2층",
      "contact": "032-715-4656",
      "lat": "37.5082494",
      "lng": "126.7361446",
      "region": "인천광역시",
      "district": "부평구",
      "id": 28
    },
    {
      "name": "홍콩반점 잠실새내점",
      "address": "서울특별시 송파구 올림픽로8길 10 (잠실동) 2층",
      "contact": "02-2202-0410",
      "lat": "37.5103254",
      "lng": "127.0716625",
      "region": "서울특별시",
      "district": "송파구",
      "id": 29
    },
    {
      "name": "홍콩반점 김포운양점",
      "address": "경기도 김포시 김포한강11로 310 (운양동, 승문리앤포레) 1층",
      "contact": "031-983-5186",
      "lat": "37.6553279",
      "lng": "126.6831804",
      "region": "경기도",
      "district": "김포시",
      "id": 30
    },
    {
      "name": "홍콩반점 옥천양수점",
      "address": "충청북도 옥천군 옥천읍 양수로 39 1층",
      "contact": "043-731-5999",
      "lat": "36.2998737",
      "lng": "127.5611691",
      "region": "충청북도",
      "district": "옥천군",
      "id": 31
    },
    {
      "name": "홍콩반점 부천역남부점",
      "address": "경기도 부천시 심곡본동 545 1층",
      "contact": "032-612-7888",
      "lat": "37.4835378",
      "lng": "126.7809760",
      "region": "경기도",
      "district": "부천시",
      "id": 32
    },
    {
      "name": "홍콩반점 서산해미점",
      "address": "충청남도 서산시 해미면 읍내리 300-5 1층",
      "contact": null,
      "lat": "36.7126696",
      "lng": "126.5444426",
      "region": "충청남도",
      "district": "서산시",
      "id": 33
    },
    {
      "name": "홍콩반점 양양점",
      "address": "강원특별자치도 양양군 양양읍 남문6길 4 (남문리) 1층",
      "contact": null,
      "lat": "38.0756717",
      "lng": "128.6221071",
      "region": "강원특별자치도",
      "district": "양양군",
      "id": 34
    },
    {
      "name": "홍콩반점 고성토성점",
      "address": "강원특별자치도 고성군 토성면 학사촌길 68 (봉포리) 2층",
      "contact": null,
      "lat": "38.2535978",
      "lng": "128.5625980",
      "region": "강원특별자치도",
      "district": "고성군",
      "id": 35
    },
    {
      "name": "홍콩반점 여수학동점",
      "address": "전라남도 여수시 시청동5길 10 (학동) 1층",
      "contact": "061-686-0099",
      "lat": "34.7588527",
      "lng": "127.6663862",
      "region": "전라남도",
      "district": "여수시",
      "id": 36
    },
    {
      "name": "홍콩반점 과천중앙점",
      "address": "경기도 과천시 중앙로 137 (중앙동, 가보자빌딩) 2층",
      "contact": "02-2039-5678",
      "lat": "37.4288143",
      "lng": "126.9917012",
      "region": "경기도",
      "district": "과천시",
      "id": 37
    },
    {
      "name": "홍콩반점 가산디지털단지역점",
      "address": "서울특별시 금천구 가산동 50-3 대륭포스트타워6차 207호",
      "contact": "070-8855-7767",
      "lat": "37.4814039",
      "lng": "126.8839266",
      "region": "서울특별시",
      "district": "금천구",
      "id": 38
    },
    {
      "name": "홍콩반점 행신역점",
      "address": "경기도 고양시 덕양구 충장로 7 (행신동) 104호",
      "contact": "031-971-0410",
      "lat": "37.6136174",
      "lng": "126.8337175",
      "region": "경기도",
      "district": "고양시",
      "id": 39
    },
    {
      "name": "홍콩반점 대흥역점",
      "address": "서울특별시 마포구 대흥동 803 동양엔파트 상가 지 1층",
      "contact": "070-4102-4401",
      "lat": "37.5477097",
      "lng": "126.9406046",
      "region": "서울특별시",
      "district": "마포구",
      "id": 40
    },
    {
      "name": "홍콩반점 안동옥동점",
      "address": "경상북도 안동시 옥동 937-1 1층",
      "contact": "054-805-8822",
      "lat": "36.5607634",
      "lng": "128.6930728",
      "region": "경상북도",
      "district": "안동시",
      "id": 41
    },
    {
      "name": "홍콩반점 청주율량점",
      "address": "충청북도 청주시 청원구 주성동 355 1층",
      "contact": "043-211-0410",
      "lat": "36.6716934",
      "lng": "127.4969693",
      "region": "충청북도",
      "district": "청주시",
      "id": 42
    },
    {
      "name": "홍콩반점 서산CGV점",
      "address": "충청남도 서산시 동문동 1029-1 2층",
      "contact": "041-665-6271",
      "lat": "36.7785892",
      "lng": "126.4564747",
      "region": "충청남도",
      "district": "서산시",
      "id": 43
    },
    {
      "name": "홍콩반점 포항초곡점",
      "address": "경상북도 포항시 북구 흥해읍 초곡지구로52번길 28-10 2호",
      "contact": "054-262-8336",
      "lat": "36.0975812",
      "lng": "129.3367972",
      "region": "경상북도",
      "district": "포항시",
      "id": 44
    },
    {
      "name": "홍콩반점 부산토곡점",
      "address": "부산광역시 연제구 과정로 142 1층",
      "contact": "051-754-5362",
      "lat": "35.1841235",
      "lng": "129.1073592",
      "region": "부산광역시",
      "district": "연제구",
      "id": 45
    },
    {
      "name": "홍콩반점 목동남부시장점",
      "address": "서울특별시 강서구 등촌로5길 47 1층 홍콩반점0410 목동남부시장점",
      "contact": "0507-1418-4042",
      "lat": "37.5329694",
      "lng": "126.8608330",
      "region": "서울특별시",
      "district": "강서구",
      "id": 46
    },
    {
      "name": "홍콩반점 제천중앙점",
      "address": "충청북도 제천시 풍양로13길 7 2층",
      "contact": "043-756-8558",
      "lat": "37.1379470",
      "lng": "128.2110007",
      "region": "충청북도",
      "district": "제천시",
      "id": 47
    },
    {
      "name": "홍콩반점 개롱역점",
      "address": "서울특별시 송파구 오금로 396 개롱역3번출구 앞 1층",
      "contact": "070-4060-4411",
      "lat": "37.4979559",
      "lng": "127.1342152",
      "region": "서울특별시",
      "district": "송파구",
      "id": 48
    },
    {
      "name": "홍콩반점 수유역점",
      "address": "서울특별시 강북구 오패산로77길 3 2층",
      "contact": "02-900-4534",
      "lat": "37.6371579",
      "lng": "127.0263661",
      "region": "서울특별시",
      "district": "강북구",
      "id": 49
    },
    {
      "name": "홍콩반점 순천연향점",
      "address": "전라남도 순천시 연향상가8길 23 1층",
      "contact": "061-725-0410",
      "lat": "34.9522397",
      "lng": "127.5176476",
      "region": "전라남도",
      "district": "순천시",
      "id": 50
    },
    {
      "name": "홍콩반점 의정부발곡점",
      "address": "경기도 의정부시 회룡로192번길 33 1층",
      "contact": "031-878-1809",
      "lat": "37.7252541",
      "lng": "127.0557898",
      "region": "경기도",
      "district": "의정부시",
      "id": 51
    },
    {
      "name": "홍콩반점 칠곡운암점",
      "address": "대구광역시 북구 팔거천동로 80-1 (구암동) 1층",
      "contact": "053-327-2258",
      "lat": "35.9314227",
      "lng": "128.5550644",
      "region": "대구광역시",
      "district": "북구",
      "id": 52
    },
    {
      "name": "홍콩반점 문래동점",
      "address": "서울특별시 영등포구 문래동3가 77-31 2층",
      "contact": "02-2676-1681",
      "lat": "37.5180383",
      "lng": "126.8892379",
      "region": "서울특별시",
      "district": "영등포구",
      "id": 53
    },
    {
      "name": "홍콩반점 둔촌동역점",
      "address": "서울특별시 강동구 풍성로61길 38 (둔촌동) 1층",
      "contact": "02-470-0410",
      "lat": "37.5302741",
      "lng": "127.1381703",
      "region": "서울특별시",
      "district": "강동구",
      "id": 54
    },
    {
      "name": "홍콩반점 파주운정산내점",
      "address": "경기도 파주시 목동동 933-2 스타타워 B 01호",
      "contact": "031-944-0410",
      "lat": "37.7286382",
      "lng": "126.7356593",
      "region": "경기도",
      "district": "파주시",
      "id": 55
    },
    {
      "name": "홍콩반점 속초교동점",
      "address": "강원특별자치도 속초시 동해대로 4320 (교동) 1층",
      "contact": "033-638-0410",
      "lat": "38.2011520",
      "lng": "128.5700679",
      "region": "강원특별자치도",
      "district": "속초시",
      "id": 56
    },
    {
      "name": "홍콩반점 목포하당점",
      "address": "전라남도 목포시 부흥로 27 (상동) 1층",
      "contact": "061-282-0649",
      "lat": "34.8012613",
      "lng": "126.4248779",
      "region": "전라남도",
      "district": "목포시",
      "id": 57
    },
    {
      "name": "홍콩반점 LGD파주점",
      "address": "경기도 파주시 월롱면 엘지로 245 (덕은리, 파주LCD산업단지) A2동 1층",
      "contact": "031-933-0658",
      "lat": "37.8158920",
      "lng": "126.7568090",
      "region": "경기도",
      "district": "파주시",
      "id": 58
    },
    {
      "name": "홍콩반점 강동구청점",
      "address": "서울특별시 강동구 성내로5길 24 (성내동) 1층",
      "contact": "02-6408-0410",
      "lat": "37.5304146",
      "lng": "127.1211957",
      "region": "서울특별시",
      "district": "강동구",
      "id": 59
    },
    {
      "name": "홍콩반점 강서홈플러스점",
      "address": "서울특별시 강서구 화곡로 398 (등촌동, 홈플러스강서점앤본사사옥) 1층",
      "contact": null,
      "lat": "37.5584700",
      "lng": "126.8548190",
      "region": "서울특별시",
      "district": "강서구",
      "id": 60
    },
    {
      "name": "홍콩반점 대전탄방점",
      "address": "대전광역시 서구 탄방동 701 1층",
      "contact": "042-710-0428",
      "lat": "36.3464410",
      "lng": "127.3863750",
      "region": "대전광역시",
      "district": "서구",
      "id": 61
    },
    {
      "name": "홍콩반점 일원점",
      "address": "서울특별시 강남구 일원동 687-5 1층",
      "contact": "02-6953-0410",
      "lat": "37.4895642",
      "lng": "127.0827435",
      "region": "서울특별시",
      "district": "강남구",
      "id": 62
    },
    {
      "name": "홍콩반점 창원감계점",
      "address": "경상남도 창원시 의창구 북면 감계로110번길 45 (감계리) 1층",
      "contact": "070-8877-0507",
      "lat": "35.3006243",
      "lng": "128.5931975",
      "region": "경상남도",
      "district": "창원시",
      "id": 63
    },
    {
      "name": "홍콩반점 검단아라점",
      "address": "인천광역시 서구 원당동 1043-11 108,109호",
      "contact": "032-561-0033",
      "lat": "37.5929476",
      "lng": "126.7110872",
      "region": "인천광역시",
      "district": "서구",
      "id": 64
    },
    {
      "name": "홍콩반점 봉천현대시장점",
      "address": "서울특별시 관악구 양녕로 42 (봉천동) 1층",
      "contact": "070-4335-2323",
      "lat": "37.4857934",
      "lng": "126.9470875",
      "region": "서울특별시",
      "district": "관악구",
      "id": 65
    },
    {
      "name": "홍콩반점 사천사남점",
      "address": "경상남도 사천시 사남면 조동길 14 (월성리) D동 1층",
      "contact": "070-5143-3027",
      "lat": "35.0633207",
      "lng": "128.0703114",
      "region": "경상남도",
      "district": "사천시",
      "id": 66
    },
    {
      "name": "홍콩반점 일산백마점",
      "address": "경기도 고양시 일산동구 일산로 227 (마두동) 1층",
      "contact": "031-932-0410",
      "lat": "37.6563560",
      "lng": "126.7885513",
      "region": "경기도",
      "district": "고양시",
      "id": 67
    },
    {
      "name": "홍콩반점 인천완정역점",
      "address": "인천광역시 서구 완정로10번길 2 1층",
      "contact": "032-568-2389",
      "lat": "37.5946357",
      "lng": "126.6728531",
      "region": "인천광역시",
      "district": "서구",
      "id": 68
    },
    {
      "name": "홍콩반점 평내호평역점",
      "address": "경기도 남양주시 늘을2로 26 (호평동, 메인시네마타워) 1층",
      "contact": "031-595-0410",
      "lat": "37.6550783",
      "lng": "127.2441115",
      "region": "경기도",
      "district": "남양주시",
      "id": 69
    },
    {
      "name": "홍콩반점 포항법원점",
      "address": "경상북도 포항시 북구 장량중앙로46번길 3-17, 1층",
      "contact": "054-255-0410",
      "lat": "36.0886488",
      "lng": "129.3870435",
      "region": "경상북도",
      "district": "포항시",
      "id": 70
    },
    {
      "name": "홍콩반점 홍제점",
      "address": "서울특별시 서대문구 세검정로 52-10 (홍제동) 1층",
      "contact": "031-953-0410",
      "lat": "37.5924642",
      "lng": "126.9471538",
      "region": "서울특별시",
      "district": "서대문구",
      "id": 71
    },
    {
      "name": "홍콩반점 인천강화점",
      "address": "인천광역시 강화군 강화읍 남문로 14",
      "contact": "032-933-0808",
      "lat": "37.7394550",
      "lng": "126.4887691",
      "region": "인천광역시",
      "district": "강화군",
      "id": 72
    },
    {
      "name": "홍콩반점 인천신현점",
      "address": "인천광역시 서구 가정로 387 상가 가동, 3층",
      "contact": "032-713-8873",
      "lat": "37.5200747",
      "lng": "126.6711079",
      "region": "인천광역시",
      "district": "서구",
      "id": 73
    },
    {
      "name": "홍콩반점 파주문산점",
      "address": "경기도 파주시 문산읍 당동리 890-2",
      "contact": "031-953-0410",
      "lat": "37.8666940",
      "lng": "126.7835840",
      "region": "경기도",
      "district": "파주시",
      "id": 74
    },
    {
      "name": "홍콩반점 대구침산점",
      "address": "대구광역시 북구 침산로 168 (침산동), 1층 107호",
      "contact": "070-4827-4330",
      "lat": "35.8911827",
      "lng": "128.5906196",
      "region": "대구광역시",
      "district": "북구",
      "id": 75
    },
    {
      "name": "홍콩반점 한남점",
      "address": "서울특별시 용산구 한남대로21길 20, 지하1층",
      "contact": "02-796-0410",
      "lat": "37.5339396",
      "lng": "127.0061589",
      "region": "서울특별시",
      "district": "용산구",
      "id": 76
    },
    {
      "name": "홍콩반점 송도더테라스점",
      "address": "인천광역시 연수구 센트럴로 415 (송도동, 힐스테이트 송도 더테라스) 2층 248호",
      "contact": "032-834-8006",
      "lat": "37.4105318",
      "lng": "126.6269233",
      "region": "인천광역시",
      "district": "연수구",
      "id": 77
    },
    {
      "name": "홍콩반점 광주하남점",
      "address": "광주광역시 광산구 풍영철길로 15, 2층",
      "contact": "062-951-6670",
      "lat": "35.1628953",
      "lng": "126.8116598",
      "region": "광주광역시",
      "district": "광산구",
      "id": 78
    },
    {
      "name": "홍콩반점 독립문점",
      "address": "서울특별시 서대문구 독립문로 15 1층",
      "contact": "070-7786-1253",
      "lat": "37.5703734",
      "lng": "126.9602630",
      "region": "서울특별시",
      "district": "서대문구",
      "id": 79
    },
    {
      "name": "홍콩반점 인천검암점",
      "address": "인천광역시 서구 검암동 600-4, 1층",
      "contact": "032-299-0410",
      "lat": "37.5647409",
      "lng": "126.6731075",
      "region": "인천광역시",
      "district": "서구",
      "id": 80
    },
    {
      "name": "홍콩반점 삼송역점",
      "address": "경기도 고양시 덕양구 동송로 70, 판매시설동 1층",
      "contact": "02-381-8845",
      "lat": "37.6523021",
      "lng": "126.8969307",
      "region": "경기도",
      "district": "고양시",
      "id": 81
    },
    {
      "name": "홍콩반점 포항해병대1사단점",
      "address": "경상북도 포항시 남구 오천읍 용덕리 103, 1층",
      "contact": "054-299-2625",
      "lat": "35.9751780",
      "lng": "129.4183027",
      "region": "경상북도",
      "district": "포항시",
      "id": 82
    },
    {
      "name": "홍콩반점 구파발역점",
      "address": "서울특별시 은평구 진관3로 22 (진관동) 102호",
      "contact": "02-388-0410",
      "lat": "37.6389440",
      "lng": "126.9191768",
      "region": "서울특별시",
      "district": "은평구",
      "id": 83
    },
    {
      "name": "홍콩반점 송파구청점",
      "address": "서울특별시 송파구 오금로11길 11-8 현대드림밸리 2층 203, 204호",
      "contact": "02-420-0410",
      "lat": "37.5149901",
      "lng": "127.1087696",
      "region": "서울특별시",
      "district": "송파구",
      "id": 84
    },
    {
      "name": "홍콩반점 상암DMC점",
      "address": "서울특별시 마포구 월드컵북로54길 17 218호",
      "contact": "02-6404-0410",
      "lat": "37.5813386",
      "lng": "126.8885633",
      "region": "서울특별시",
      "district": "마포구",
      "id": 85
    },
    {
      "name": "홍콩반점 김해인제대점",
      "address": "경상남도 김해시 인제로188번길 6 1층",
      "contact": "055-327-0411",
      "lat": "35.2450737",
      "lng": "128.9045800",
      "region": "경상남도",
      "district": "김해시",
      "id": 86
    },
    {
      "name": "홍콩반점 부산만덕점",
      "address": "부산광역시 북구 덕천로 247 1층",
      "contact": "051-337-0410",
      "lat": "35.2108450",
      "lng": "129.0311966",
      "region": "부산광역시",
      "district": "북구",
      "id": 87
    },
    {
      "name": "홍콩반점 시흥능곡점",
      "address": "경기도 시흥시 능곡번영길 34 (능곡동) 110호 ~ 111호",
      "contact": "031-318-0776",
      "lat": "37.3698502",
      "lng": "126.8064053",
      "region": "경기도",
      "district": "시흥시",
      "id": 88
    },
    {
      "name": "홍콩반점 김포풍무점",
      "address": "경기도 김포시 풍무로 79",
      "contact": "031-987-0410",
      "lat": "37.6027370",
      "lng": "126.7213757",
      "region": "경기도",
      "district": "김포시",
      "id": 89
    },
    {
      "name": "홍콩반점 인천만수점",
      "address": "인천광역시 남동구 백범로 206 1층",
      "contact": "032-710-9982",
      "lat": "37.4599551",
      "lng": "126.7263243",
      "region": "인천광역시",
      "district": "남동구",
      "id": 90
    },
    {
      "name": "홍콩반점 의왕내손점",
      "address": "경기도 의왕시 내손중앙로4 (내손동) 113~114호",
      "contact": "031-424-0410",
      "lat": "37.3890791",
      "lng": "126.9768623",
      "region": "경기도",
      "district": "의왕시",
      "id": 91
    },
    {
      "name": "홍콩반점 충주성서점",
      "address": "충청북도 충주시 성서7길 29-1 (성서동) 1층",
      "contact": "043-852-0410",
      "lat": "36.9718852",
      "lng": "127.9313602",
      "region": "충청북도",
      "district": "충주시",
      "id": 92
    },
    {
      "name": "홍콩반점 아차산역점",
      "address": "서울특별시 광진구 자양로43길 48 (중곡동, 태광빌딩) 1층",
      "contact": "02-455-3852",
      "lat": "37.5317125",
      "lng": "127.0855468",
      "region": "서울특별시",
      "district": "광진구",
      "id": 93
    },
    {
      "name": "홍콩반점 망원시장점",
      "address": "서울특별시 마포구 월드컵로13길 9 2층",
      "contact": "02-355-1989",
      "lat": "37.5555865",
      "lng": "126.9097440",
      "region": "서울특별시",
      "district": "마포구",
      "id": 94
    },
    {
      "name": "홍콩반점 신풍점",
      "address": "서울특별시 영등포구 신길로 119",
      "contact": "02-833-1681",
      "lat": "37.5032034",
      "lng": "126.9096224",
      "region": "서울특별시",
      "district": "영등포구",
      "id": 95
    },
    {
      "name": "홍콩반점 여수문수점",
      "address": "전라남도 여수시 문수로 100(문수동) 1층",
      "contact": "070-8691-0410",
      "lat": "34.7548907",
      "lng": "127.7056933",
      "region": "전라남도",
      "district": "여수시",
      "id": 96
    },
    {
      "name": "홍콩반점 김해삼계점",
      "address": "경상남도 김해시 삼계중앙로 51 (삼계동) 1층",
      "contact": null,
      "lat": "35.2609358",
      "lng": "128.8708405",
      "region": "경상남도",
      "district": "김해시",
      "id": 97
    },
    {
      "name": "홍콩반점 다산진건점",
      "address": "경기도 남양주시 다산중앙로 145번길 11 지앤지메트로타원2차 2층",
      "contact": "031-514-0707",
      "lat": "37.6254897",
      "lng": "127.1511311",
      "region": "경기도",
      "district": "남양주시",
      "id": 98
    },
    {
      "name": "홍콩반점 파주야당점",
      "address": "경기도 파주시 야당동 1072 208호 2층",
      "contact": "031-943-0410",
      "lat": "37.7148793",
      "lng": "126.7600953",
      "region": "경기도",
      "district": "파주시",
      "id": 99
    },
    {
      "name": "홍콩반점 구로항동점",
      "address": "서울특별시 구로구 서해안로 2108 (항동) 1층",
      "contact": "02-2611-4180",
      "lat": "37.4806109",
      "lng": "126.8240092",
      "region": "서울특별시",
      "district": "구로구",
      "id": 100
    },
    {
      "name": "홍콩반점 광주일곡점",
      "address": "광주광역시 북구 설죽로 518-7 1층",
      "contact": "062-571-6670",
      "lat": "35.2055571",
      "lng": "126.8986680",
      "region": "광주광역시",
      "district": "북구",
      "id": 101
    },
    {
      "name": "홍콩반점 성수역점",
      "address": "서울특별시 성동구 아차산로 96, 1층",
      "contact": "02-6956-3366",
      "lat": "37.5445542",
      "lng": "127.0544205",
      "region": "서울특별시",
      "district": "성동구",
      "id": 102
    },
    {
      "name": "홍콩반점 부천도당점",
      "address": "경기도 부천시 정주로 16 (도당동), 1층",
      "contact": "032-673-0410",
      "lat": "37.5065891",
      "lng": "126.7792175",
      "region": "경기도",
      "district": "부천시",
      "id": 103
    },
    {
      "name": "홍콩반점 성남태평점",
      "address": "경기도 성남시 수정구 태평동 73",
      "contact": "031-698-2017",
      "lat": "37.4509232",
      "lng": "127.1403096",
      "region": "경기도",
      "district": "성남시",
      "id": 104
    },
    {
      "name": "홍콩반점 송도SK뷰센트럴점",
      "address": "인천광역시 연수구 하모니로188번길 17 (송도동, 송도SK뷰센트럴) 1층",
      "contact": "032-859-0410",
      "lat": "37.3812995",
      "lng": "126.6409835",
      "region": "인천광역시",
      "district": "연수구",
      "id": 105
    },
    {
      "name": "홍콩반점 인천계산중앙점",
      "address": "인천광역시 계양구 주부토로 475 1층",
      "contact": "032-556-0410",
      "lat": "37.5365358",
      "lng": "126.7278249",
      "region": "인천광역시",
      "district": "계양구",
      "id": 106
    },
    {
      "name": "홍콩반점 범계역점",
      "address": "경기도 안양시 동안구 평촌대로223번길 49 2층",
      "contact": "031-382-7410",
      "lat": "37.3903589",
      "lng": "126.9530776",
      "region": "경기도",
      "district": "안양시",
      "id": 107
    },
    {
      "name": "홍콩반점 진주초전점",
      "address": "경상남도 진주시 초전동 1703-2",
      "contact": "055-763-9301",
      "lat": "35.2124165",
      "lng": "128.1115692",
      "region": "경상남도",
      "district": "진주시",
      "id": 108
    },
    {
      "name": "홍콩반점 김포걸포점",
      "address": "경기도 김포시 걸포2로 83 (걸포동, 한강메트로자이 1단지 C1블록 2층)",
      "contact": "031-998-2389",
      "lat": "37.6327591",
      "lng": "126.7010733",
      "region": "경기도",
      "district": "김포시",
      "id": 109
    },
    {
      "name": "홍콩반점 명일동점",
      "address": "서울특별시 강동구 명일동 337-30 , 1층",
      "contact": "02-6401-0410",
      "lat": "37.5477847",
      "lng": "127.1449839",
      "region": "서울특별시",
      "district": "강동구",
      "id": 110
    },
    {
      "name": "홍콩반점 응암점",
      "address": "서울특별시 은평구 응암로29길 4, 1층(응암동)",
      "contact": "02-6083-0410",
      "lat": "37.5962594",
      "lng": "126.9187838",
      "region": "서울특별시",
      "district": "은평구",
      "id": 111
    },
    {
      "name": "홍콩반점 충북영동점",
      "address": "충청북도 영동군 영동읍 중앙로3길 6-1,2층",
      "contact": "043-745-0410",
      "lat": "36.1744616",
      "lng": "127.7772446",
      "region": "충청북도",
      "district": "영동군",
      "id": 112
    },
    {
      "name": "홍콩반점 인천서구청점",
      "address": "인천광역시 서구 탁옥로 46 (심곡동) 1층",
      "contact": "032-566-0411",
      "lat": "37.5437464",
      "lng": "126.6746638",
      "region": "인천광역시",
      "district": "서구",
      "id": 113
    },
    {
      "name": "홍콩반점 상일동역점",
      "address": "서울특별시 강동구 상일로17길 29-5 (고덕동) 지층",
      "contact": "02-427-0410",
      "lat": "37.5585974",
      "lng": "127.1692678",
      "region": "서울특별시",
      "district": "강동구",
      "id": 114
    },
    {
      "name": "홍콩반점 경산하양점",
      "address": "경상북도 경산시 하양읍 대경로 669-9 1층",
      "contact": "053-853-0410",
      "lat": "35.9087434",
      "lng": "128.8139621",
      "region": "경상북도",
      "district": "경산시",
      "id": 115
    },
    {
      "name": "홍콩반점 관악난곡점",
      "address": "서울특별시 관악구 난우길 20, 2층",
      "contact": "02-864-0410",
      "lat": "37.4747948",
      "lng": "126.9186475",
      "region": "서울특별시",
      "district": "관악구",
      "id": 116
    },
    {
      "name": "홍콩반점 선릉역점",
      "address": "서울특별시 강남구 선릉로 76길 22, 2층",
      "contact": "02-538-0411",
      "lat": "37.5016752",
      "lng": "127.0522812",
      "region": "서울특별시",
      "district": "강남구",
      "id": 117
    },
    {
      "name": "홍콩반점 원주기업도시점",
      "address": "강원특별자치도 원주시 지정면 신지정로 322-1 센텀뷰상가 2층 208호",
      "contact": "033-747-3219",
      "lat": "37.3824014",
      "lng": "127.8731714",
      "region": "강원특별자치도",
      "district": "원주시",
      "id": 118
    },
    {
      "name": "홍콩반점 시흥은계점",
      "address": "경기도 시흥시 은계번영길 25, 2층",
      "contact": "031-506-5533",
      "lat": "37.4367808",
      "lng": "126.8039669",
      "region": "경기도",
      "district": "시흥시",
      "id": 119
    },
    {
      "name": "홍콩반점 창동역점",
      "address": "서울특별시 도봉구 마들로11길 73",
      "contact": "02-998-0410",
      "lat": "37.6532610",
      "lng": "127.0490817",
      "region": "서울특별시",
      "district": "도봉구",
      "id": 120
    },
    {
      "name": "홍콩반점 평택삼성점",
      "address": "경기도 평택시 고덕면 여염리 4427-3 1층",
      "contact": "031-668-0410",
      "lat": "37.0418622",
      "lng": "127.0525720",
      "region": "경기도",
      "district": "평택시",
      "id": 121
    },
    {
      "name": "홍콩반점 양천구청점점",
      "address": "서울특별시 양천구 목동서로 377, A동 1층",
      "contact": "02-6094-3791",
      "lat": "37.5161604",
      "lng": "126.8621608",
      "region": "서울특별시",
      "district": "양천구",
      "id": 122
    },
    {
      "name": "홍콩반점 안산선부점",
      "address": "경기도 안산시 단원구 선부광장북로 36 상가동 210호(선부동, 벽산블루밍아파트)",
      "contact": "031-481-9778",
      "lat": "37.3377273",
      "lng": "126.8111212",
      "region": "경기도",
      "district": "안산시",
      "id": 123
    },
    {
      "name": "홍콩반점 부산동대신점",
      "address": "부산광역시 서구 구덕로 337, 1층",
      "contact": "051-247-0410",
      "lat": "35.1138263",
      "lng": "129.0156301",
      "region": "부산광역시",
      "district": "서구",
      "id": 124
    },
    {
      "name": "홍콩반점 고척동양대점",
      "address": "서울특별시 구로구 경인로47길 23, 2층",
      "contact": "02-2614-0410",
      "lat": "37.5003906",
      "lng": "126.8664026",
      "region": "서울특별시",
      "district": "구로구",
      "id": 125
    },
    {
      "name": "홍콩반점 부산동래롯데점",
      "address": "부산광역시 동래구 중앙대로1381번길 25",
      "contact": "051-557-0410",
      "lat": "35.2107522",
      "lng": "129.0765669",
      "region": "부산광역시",
      "district": "동래구",
      "id": 126
    },
    {
      "name": "홍콩반점 진주평거점",
      "address": "경상남도 진주시 진양호로 299-1 1층",
      "contact": "055-746-0410",
      "lat": "35.1801753",
      "lng": "128.0650881",
      "region": "경상남도",
      "district": "진주시",
      "id": 127
    },
    {
      "name": "홍콩반점 부천원종점",
      "address": "경기도 부천시 원종로52번길 15-3, 2층",
      "contact": "032-672-0410",
      "lat": "37.5234788",
      "lng": "126.8059235",
      "region": "경기도",
      "district": "부천시",
      "id": 128
    },
    {
      "name": "홍콩반점 약수역점",
      "address": "서울특별시 중구 다산로 128, 지하 1층",
      "contact": "02-2234-0410",
      "lat": "37.5550218",
      "lng": "127.0110866",
      "region": "서울특별시",
      "district": "중구",
      "id": 129
    },
    {
      "name": "홍콩반점 창원어반브릭스점",
      "address": "경상남도 창원시 의창구 중동 317, 유니시티 어반브릭스 3층",
      "contact": "055-253-0410",
      "lat": "35.2576717",
      "lng": "128.6259530",
      "region": "경상남도",
      "district": "창원시",
      "id": 130
    },
    {
      "name": "홍콩반점 원주단구점",
      "address": "강원특별자치도 원주시 남원로 528-13(단구동 1515-11)",
      "contact": "033-765-0410",
      "lat": "37.3304695",
      "lng": "127.9481208",
      "region": "강원특별자치도",
      "district": "원주시",
      "id": 131
    },
    {
      "name": "홍콩반점 방화사거리점",
      "address": "서울특별시 강서구 금낭화로 95",
      "contact": "02-2663-9275",
      "lat": "37.5739682",
      "lng": "126.8113359",
      "region": "서울특별시",
      "district": "강서구",
      "id": 132
    },
    {
      "name": "홍콩반점 수원장안구청점",
      "address": "경기도 수원시 장안구 송원로81, 205호(조원동)",
      "contact": "031-246-0410",
      "lat": "37.3021322",
      "lng": "127.0092298",
      "region": "경기도",
      "district": "수원시",
      "id": 133
    },
    {
      "name": "홍콩반점 삼양동사거리점",
      "address": "서울특별시 강북구 삼양로 24길 19 101동 101호",
      "contact": "02-981-1010",
      "lat": "37.6172672",
      "lng": "127.0223046",
      "region": "서울특별시",
      "district": "강북구",
      "id": 134
    },
    {
      "name": "홍콩반점 답십리역점",
      "address": "서울특별시 동대문구 답십리동494-1 / 206-207호",
      "contact": "02-2212-5932",
      "lat": "37.5669118",
      "lng": "127.0533027",
      "region": "서울특별시",
      "district": "동대문구",
      "id": 135
    },
    {
      "name": "홍콩반점 염창역점",
      "address": "서울특별시 강서구 염창동 282-20, 2층",
      "contact": "02-3663-5704",
      "lat": "37.5472742",
      "lng": "126.8753731",
      "region": "서울특별시",
      "district": "강서구",
      "id": 136
    },
    {
      "name": "홍콩반점 대전건양대병원점",
      "address": "대전광역시 서구 관저동로 170,1층 117호",
      "contact": "042-545-1193",
      "lat": "36.3073063",
      "lng": "127.3411595",
      "region": "대전광역시",
      "district": "서구",
      "id": 137
    },
    {
      "name": "홍콩반점 목동 파리공원점",
      "address": "서울특별시 양천구 목동907-23 현대파크빌 1층",
      "contact": "02-2654-3999",
      "lat": "37.5358655",
      "lng": "126.8802760",
      "region": "서울특별시",
      "district": "양천구",
      "id": 138
    },
    {
      "name": "홍콩반점 화성남양뉴타운점",
      "address": "경기도 화성시 남양읍 역골동로 122, 1층",
      "contact": "031-356-3822",
      "lat": "37.2107542",
      "lng": "126.8310646",
      "region": "경기도",
      "district": "화성시",
      "id": 139
    },
    {
      "name": "홍콩반점 광명하안점",
      "address": "경기도 광명시 하안로 293-6, 2층",
      "contact": "02-898-0410",
      "lat": "37.4618319",
      "lng": "126.8796756",
      "region": "경기도",
      "district": "광명시",
      "id": 140
    },
    {
      "name": "홍콩반점 동탄역북부점",
      "address": "경기도 화성시 동탄대로 537, 2층 230호(오산동)",
      "contact": "031-935-5787",
      "lat": "37.2022262",
      "lng": "127.0979590",
      "region": "경기도",
      "district": "화성시",
      "id": 141
    },
    {
      "name": "홍콩반점 부천옥길점",
      "address": "경기도 부천시 옥길로 110-11, 1층 101,102,103호",
      "contact": "032-341-3241",
      "lat": "37.4664497",
      "lng": "126.8231553",
      "region": "경기도",
      "district": "부천시",
      "id": 142
    },
    {
      "name": "홍콩반점 일산후곡점",
      "address": "경기도 고양시 일산로 557 2층, 201~202호",
      "contact": "031-919-0410",
      "lat": "37.6781681",
      "lng": "126.7660494",
      "region": "경기도",
      "district": "고양시",
      "id": 143
    },
    {
      "name": "홍콩반점 부산구서역점",
      "address": "부산광역시 금정구 중앙대로 1841번길 53",
      "contact": "051-581-0410",
      "lat": "35.2492521",
      "lng": "129.0892465",
      "region": "부산광역시",
      "district": "금정구",
      "id": 144
    },
    {
      "name": "홍콩반점 김천구미역점",
      "address": "경상북도 김천시 율곡동 798, 126호",
      "contact": "054-910-4774",
      "lat": "36.1155022",
      "lng": "128.1792036",
      "region": "경상북도",
      "district": "김천시",
      "id": 145
    },
    {
      "name": "홍콩반점 김해율하점",
      "address": "경상남도 김해시 율하동 1336-2번지 경보센텀빌딩 201호",
      "contact": "055-322-8456",
      "lat": "35.1716379",
      "lng": "128.8137351",
      "region": "경상남도",
      "district": "김해시",
      "id": 146
    },
    {
      "name": "홍콩반점 부산장림점",
      "address": "부산광역시 사하구 장림번영로 103번길 5",
      "contact": "051-266-0410",
      "lat": "35.0807958",
      "lng": "128.9763160",
      "region": "부산광역시",
      "district": "사하구",
      "id": 147
    },
    {
      "name": "홍콩반점 인천용현점",
      "address": "인천광역시 미추홀구 낙섬서로 36, 1층",
      "contact": "032-887-1977",
      "lat": "37.4525828",
      "lng": "126.6355840",
      "region": "인천광역시",
      "district": "미추홀구",
      "id": 148
    },
    {
      "name": "홍콩반점 원주혁신하나로점",
      "address": "강원특별자치도 원주시 봄마중길 2-5, 1층 101호(반곡동)",
      "contact": "033-742-0410",
      "lat": "37.3254272",
      "lng": "127.9813593",
      "region": "강원특별자치도",
      "district": "원주시",
      "id": 149
    },
    {
      "name": "홍콩반점 수원망포역점",
      "address": "경기도 수원시 영통구 덕영대로 1543 2층",
      "contact": "031-205-6918",
      "lat": "37.2463027",
      "lng": "127.0597053",
      "region": "경기도",
      "district": "수원시",
      "id": 150
    },
    {
      "name": "홍콩반점 발산역점",
      "address": "서울특별시 강서구 공항대로 269-15 2층",
      "contact": "02-6398-0410",
      "lat": "37.5596114",
      "lng": "126.8372423",
      "region": "서울특별시",
      "district": "강서구",
      "id": 151
    },
    {
      "name": "홍콩반점 거제아주점",
      "address": "경상남도 거제시 아주1로2길57",
      "contact": "055-682-0410",
      "lat": "34.8669926",
      "lng": "128.6858833",
      "region": "경상남도",
      "district": "거제시",
      "id": 152
    },
    {
      "name": "홍콩반점 진주경상대점",
      "address": "경상남도 진주시 진주대로 516번길 6-3",
      "contact": "055-763-3373",
      "lat": "35.1522659",
      "lng": "128.1058707",
      "region": "경상남도",
      "district": "진주시",
      "id": 153
    },
    {
      "name": "홍콩반점 사가정역점",
      "address": "서울특별시 중랑구 면목로 337, 2층(면목동)",
      "contact": "02-6013-1805",
      "lat": "37.5820615",
      "lng": "127.0885322",
      "region": "서울특별시",
      "district": "중랑구",
      "id": 154
    },
    {
      "name": "홍콩반점 마포서부법원점",
      "address": "서울특별시 마포구 마포대로 14길 11 1층 102호",
      "contact": "02-701-1214",
      "lat": "37.5486670",
      "lng": "126.9560019",
      "region": "서울특별시",
      "district": "마포구",
      "id": 155
    },
    {
      "name": "홍콩반점 신정네거리역점",
      "address": "서울특별시 양천구 중앙로 254, 2층",
      "contact": "02-2655-0410",
      "lat": "37.5191659",
      "lng": "126.8536210",
      "region": "서울특별시",
      "district": "양천구",
      "id": 156
    },
    {
      "name": "홍콩반점 영종도운서역점",
      "address": "인천광역시 중구 영종대로196번길 19 지엘플렉스 1층 102~103호",
      "contact": "032-214-0410",
      "lat": "37.4906008",
      "lng": "126.4995215",
      "region": "인천광역시",
      "district": "중구",
      "id": 157
    },
    {
      "name": "홍콩반점 등촌시장점",
      "address": "서울특별시 양천구 목동중앙북로7길10, 2층",
      "contact": "02-2644-7703",
      "lat": "37.5483755",
      "lng": "126.8673611",
      "region": "서울특별시",
      "district": "양천구",
      "id": 158
    },
    {
      "name": "홍콩반점 동대구역점",
      "address": "대구광역시 동구 동부로30길 3",
      "contact": "053-752-7300",
      "lat": "35.8768350",
      "lng": "128.6292588",
      "region": "대구광역시",
      "district": "동구",
      "id": 159
    },
    {
      "name": "홍콩반점 의정민락메가점",
      "address": "경기도 의정부시 오목로205번길 39, 2층",
      "contact": "031-874-0410",
      "lat": "37.7454981",
      "lng": "127.0964879",
      "region": "경기도",
      "district": "의정부시",
      "id": 160
    },
    {
      "name": "홍콩반점 마곡나루역점",
      "address": "서울특별시 강서구 마곡중앙로 161-11",
      "contact": "02-3662 9275",
      "lat": "37.5679674",
      "lng": "126.8267460",
      "region": "서울특별시",
      "district": "강서구",
      "id": 161
    },
    {
      "name": "홍콩반점 인천석바위시장점",
      "address": "인천광역시 남구 경원대로 848",
      "contact": "032-422-0411",
      "lat": "37.4578836",
      "lng": "126.6902724",
      "region": "인천광역시",
      "district": "남구",
      "id": 162
    },
    {
      "name": "홍콩반점 우장산역점",
      "address": "서울특별시 강서구 내발산동 722-20",
      "contact": "02-2604-0410",
      "lat": "37.5481223",
      "lng": "126.8354069",
      "region": "서울특별시",
      "district": "강서구",
      "id": 163
    },
    {
      "name": "홍콩반점 대구월성점",
      "address": "대구광역시 달서구 월성동 1838",
      "contact": "053-633-0410",
      "lat": "35.8242290",
      "lng": "128.5257453",
      "region": "대구광역시",
      "district": "달서구",
      "id": 164
    },
    {
      "name": "홍콩반점 용산문배점",
      "address": "서울특별시 용산구 백범로90길 38 201호~202호",
      "contact": "02-719-3864",
      "lat": "37.5366886",
      "lng": "126.9695541",
      "region": "서울특별시",
      "district": "용산구",
      "id": 165
    },
    {
      "name": "홍콩반점 대구신서혁신점",
      "address": "대구광역시 동구 이노밸리로 322, 대구혁신도시 비젼스퀘어2",
      "contact": "053-954-0410",
      "lat": "35.8773536",
      "lng": "128.7321362",
      "region": "대구광역시",
      "district": "동구",
      "id": 166
    },
    {
      "name": "홍콩반점 남양주별내점",
      "address": "경기도 남양주시 별내중앙로57번길 22, 1층",
      "contact": "031-573-0410",
      "lat": "37.6467619",
      "lng": "127.1226498",
      "region": "경기도",
      "district": "남양주시",
      "id": 167
    },
    {
      "name": "홍콩반점 낙성대역점",
      "address": "서울특별시 관악구 남부순환로 1922",
      "contact": "02-877-0412",
      "lat": "37.4770296",
      "lng": "126.9626545",
      "region": "서울특별시",
      "district": "관악구",
      "id": 168
    },
    {
      "name": "홍콩반점 부산영도대교점",
      "address": "부산광역시 영도구 태종로105번길 6",
      "contact": "051-415-0410",
      "lat": "35.0915110",
      "lng": "129.0426421",
      "region": "부산광역시",
      "district": "영도구",
      "id": 169
    },
    {
      "name": "홍콩반점 노원역남부점",
      "address": "서울특별시 노원구 노해로 502, KT 노원지사 2층",
      "contact": "02-3391-0410",
      "lat": "37.6545660",
      "lng": "127.0636241",
      "region": "서울특별시",
      "district": "노원구",
      "id": 170
    },
    {
      "name": "홍콩반점 구로시장점",
      "address": "서울특별시 구로구 구로동로26길 125",
      "contact": "02-863-0779",
      "lat": "37.4898912",
      "lng": "126.8910595",
      "region": "서울특별시",
      "district": "구로구",
      "id": 171
    },
    {
      "name": "홍콩반점 김포구래점",
      "address": "경기도 김포시 김포한강9로 80, 다온프라자 122호",
      "contact": "031-983-0411",
      "lat": "37.6441233",
      "lng": "126.6260533",
      "region": "경기도",
      "district": "김포시",
      "id": 172
    },
    {
      "name": "홍콩반점 대구달성테크노점",
      "address": "대구광역시 달성군 유가면 봉리 610-2",
      "contact": "053-611-0410",
      "lat": "35.6928152",
      "lng": "128.4605024",
      "region": "대구광역시",
      "district": "달성군",
      "id": 173
    },
    {
      "name": "홍콩반점 동묘역점",
      "address": "서울특별시 종로구 종로 344, 대우디오빌 2층 ( 동묘역점 4번출구 우측 대우디오빌 2층)",
      "contact": "02-2233-0858",
      "lat": "37.5727249",
      "lng": "127.0161059",
      "region": "서울특별시",
      "district": "종로구",
      "id": 174
    },
    {
      "name": "홍콩반점 모란시장점",
      "address": "경기도 성남시 중원구 둔촌대로 101, 월드팰리스 2층 201호 - 모란시장 사거리 하이마트 옆에 위치",
      "contact": "031-722-0410",
      "lat": "37.4297478",
      "lng": "127.1305008",
      "region": "경기도",
      "district": "성남시",
      "id": 175
    },
    {
      "name": "홍콩반점 창원메트로시티점",
      "address": "경상남도 창원시 마산회원구 삼호로 80, 1층",
      "contact": "055-255-0410",
      "lat": "35.2254724",
      "lng": "128.5857338",
      "region": "경상남도",
      "district": "창원시",
      "id": 176
    },
    {
      "name": "홍콩반점 김포장기쌍용점",
      "address": "경기도 김포시 김포한강2로 23번길 50 더베니스2 1층",
      "contact": "031-985-6410",
      "lat": "37.6410305",
      "lng": "126.6796424",
      "region": "경기도",
      "district": "김포시",
      "id": 177
    },
    {
      "name": "홍콩반점 김포사우점",
      "address": "경기도 김포시 돌문로 48",
      "contact": "031-982-8770",
      "lat": "37.6194480",
      "lng": "126.7179849",
      "region": "경기도",
      "district": "김포시",
      "id": 178
    },
    {
      "name": "홍콩반점 금천시흥사거리점",
      "address": "서울특별시 금천구 시흥대로62길 18, 1층",
      "contact": "02-808-0410",
      "lat": "37.4553582",
      "lng": "126.9016099",
      "region": "서울특별시",
      "district": "금천구",
      "id": 179
    },
    {
      "name": "홍콩반점 금정역점",
      "address": "경기도 군포시 군포로 747-1",
      "contact": "031-392-0410",
      "lat": "37.3719783",
      "lng": "126.9427566",
      "region": "경기도",
      "district": "군포시",
      "id": 180
    },
    {
      "name": "홍콩반점 구의역점",
      "address": "서울특별시 광진구 아차산로51길 11",
      "contact": "02-3436-0410",
      "lat": "37.5375640",
      "lng": "127.0851472",
      "region": "서울특별시",
      "district": "광진구",
      "id": 181
    },
    {
      "name": "홍콩반점 구리돌다리점",
      "address": "경기도 구리시 검배로6번길 27 (2층)",
      "contact": "031-554-0410",
      "lat": "37.5997316",
      "lng": "127.1402457",
      "region": "경기도",
      "district": "구리시",
      "id": 182
    },
    {
      "name": "홍콩반점 구로디지털단지역점",
      "address": "서울특별시 구로구 시흥대로 557 (2층)",
      "contact": "02-863-3200",
      "lat": "37.4829989",
      "lng": "126.9010632",
      "region": "서울특별시",
      "district": "구로구",
      "id": 183
    },
    {
      "name": "홍콩반점 교대역점",
      "address": "서울특별시 서초구 서초대로54길 32",
      "contact": "02-522-9089",
      "lat": "37.4928132",
      "lng": "127.0161588",
      "region": "서울특별시",
      "district": "서초구",
      "id": 184
    },
    {
      "name": "홍콩반점 광명철산역점",
      "address": "경기도 광명시 오리로856번길 23, 명산빌딩 2층",
      "contact": "02-2060-9656",
      "lat": "37.4756994",
      "lng": "126.8693061",
      "region": "경기도",
      "district": "광명시",
      "id": 185
    },
    {
      "name": "홍콩반점 광명사거리역점",
      "address": "경기도 광명시 광명로 897 2층",
      "contact": "02-2611-0410",
      "lat": "37.4791325",
      "lng": "126.8539689",
      "region": "경기도",
      "district": "광명시",
      "id": 186
    },
    {
      "name": "홍콩반점 관악구청점",
      "address": "서울특별시 관악구 관악로 152, 1층",
      "contact": "02-886-8965",
      "lat": "37.4787122",
      "lng": "126.9525957",
      "region": "서울특별시",
      "district": "관악구",
      "id": 187
    },
    {
      "name": "홍콩반점 경희대점",
      "address": "서울특별시 동대문구 경희대로 12-1",
      "contact": "02-964-0410",
      "lat": "37.5926958",
      "lng": "127.0527244",
      "region": "서울특별시",
      "district": "동대문구",
      "id": 188
    },
    {
      "name": "홍콩반점 건대입구역점",
      "address": "서울특별시 광진구 아차산로 221 - 건대입구역 1번출구 성수방향으로 15M 직진, 건대역부동산 2층",
      "contact": "02-466-0410",
      "lat": "37.5410457",
      "lng": "127.0682225",
      "region": "서울특별시",
      "district": "광진구",
      "id": 189
    },
    {
      "name": "홍콩반점 거제디큐브점",
      "address": "경상남도 거제시 장평로 12, 거제디큐브백화점 (고현동 958-15)",
      "contact": "055-680-0410",
      "lat": "34.8910559",
      "lng": "128.6164023",
      "region": "경상남도",
      "district": "거제시",
      "id": 190
    },
    {
      "name": "홍콩반점 동대문점",
      "address": "서울특별시 중구 장충단로13길 11 (지하1층)",
      "contact": "02-2269-5778",
      "lat": "37.5677935",
      "lng": "127.0080459",
      "region": "서울특별시",
      "district": "중구",
      "id": 191
    },
    {
      "name": "홍콩반점 독산홈플러스점",
      "address": "서울특별시 금천구 시흥대로 405, 2층",
      "contact": "02-858-5558",
      "lat": "37.4699432",
      "lng": "126.8975730",
      "region": "서울특별시",
      "district": "금천구",
      "id": 192
    },
    {
      "name": "홍콩반점 대학로점",
      "address": "서울특별시 종로구 대학로10길 16 (지하1층)",
      "contact": "02-3675-5004",
      "lat": "37.5816377",
      "lng": "127.0031047",
      "region": "서울특별시",
      "district": "종로구",
      "id": 193
    },
    {
      "name": "홍콩반점 대전은행점",
      "address": "대전광역시 중구 대종로480번길 38, 2층",
      "contact": "042-256-4395",
      "lat": "36.3280022",
      "lng": "127.4286483",
      "region": "대전광역시",
      "district": "중구",
      "id": 194
    },
    {
      "name": "홍콩반점 당산역점",
      "address": "서울특별시 영등포구 양평로 70, 2층",
      "contact": "02-2676-5892",
      "lat": "37.5353925",
      "lng": "126.8993078",
      "region": "서울특별시",
      "district": "영등포구",
      "id": 195
    },
    {
      "name": "홍콩반점 노량진점",
      "address": "서울특별시 동작구 만양로 110 (2층)",
      "contact": "02-816-0411",
      "lat": "37.5131919",
      "lng": "126.9444467",
      "region": "서울특별시",
      "district": "동작구",
      "id": 196
    },
    {
      "name": "홍콩반점 까치산역점",
      "address": "서울특별시 강서구 강서로 33 2층 (화곡동 343-61)",
      "contact": "02-2695-0410",
      "lat": "37.5307232",
      "lng": "126.8470520",
      "region": "서울특별시",
      "district": "강서구",
      "id": 197
    },
    {
      "name": "홍콩반점 김해장유점",
      "address": "경상남도 김해시 삼문로 22",
      "contact": "055-904-0410",
      "lat": "35.1922654",
      "lng": "128.8029838",
      "region": "경상남도",
      "district": "김해시",
      "id": 198
    },
    {
      "name": "홍콩반점 김해아이스퀘어점",
      "address": "경상남도 김해시 김해대로 2342",
      "contact": "055-346-9002",
      "lat": "35.2257309",
      "lng": "128.8832403",
      "region": "경상남도",
      "district": "김해시",
      "id": 199
    },
    {
      "name": "홍콩반점 김해내동점",
      "address": "경상남도 김해시 내외중앙로 72 (스카이빌 103호)",
      "contact": "055-336-0410",
      "lat": "35.2361903",
      "lng": "128.8673239",
      "region": "경상남도",
      "district": "김해시",
      "id": 200
    },
    {
      "name": "홍콩반점 부산장산2호점",
      "address": "부산광역시 해운대구 세실로27번길 15 (노블시티 1층)",
      "contact": "051-866-0410",
      "lat": "35.1681757",
      "lng": "129.1782519",
      "region": "부산광역시",
      "district": "해운대구",
      "id": 201
    },
    {
      "name": "홍콩반점 부산연산동역점",
      "address": "부산광역시 연제구 중앙대로 1124",
      "contact": "051-861-0410",
      "lat": "35.1878925",
      "lng": "129.0814933",
      "region": "부산광역시",
      "district": "연제구",
      "id": 202
    },
    {
      "name": "홍콩반점 부산양정역점",
      "address": "부산광역시 부산진구 중앙대로 902",
      "contact": "051-853-0410",
      "lat": "35.1706851",
      "lng": "129.0698200",
      "region": "부산광역시",
      "district": "부산진구",
      "id": 203
    },
    {
      "name": "홍콩반점 양산역점",
      "address": "경상남도 양산시 중부동 691-2",
      "contact": "055-389-0410",
      "lat": "35.3367871",
      "lng": "129.0281228",
      "region": "경상남도",
      "district": "양산시",
      "id": 204
    },
    {
      "name": "홍콩반점 부산센텀인텔리움점",
      "address": "부산광역시 해운대구 센텀6로 21, 107호(인텔리움빌딩)",
      "contact": "051-746-8968",
      "lat": "35.1736093",
      "lng": "129.1291819",
      "region": "부산광역시",
      "district": "해운대구",
      "id": 205
    },
    {
      "name": "홍콩반점 부산서면롯데점",
      "address": "부산광역시 부산진구 가야대로784번길 27",
      "contact": "051-805-0410",
      "lat": "35.1562479",
      "lng": "129.0573721",
      "region": "부산광역시",
      "district": "부산진구",
      "id": 206
    },
    {
      "name": "홍콩반점 부산사직점",
      "address": "부산광역시 동래구 사직북로28번길 5",
      "contact": "051-504-0401",
      "lat": "35.1984228",
      "lng": "129.0603658",
      "region": "부산광역시",
      "district": "동래구",
      "id": 207
    },
    {
      "name": "홍콩반점 부산반여동점",
      "address": "부산광역시 해운대구 선수촌로 94 (대룡빌딩 1층)",
      "contact": "070-4177-0410",
      "lat": "35.2021038",
      "lng": "129.1195631",
      "region": "부산광역시",
      "district": "해운대구",
      "id": 208
    },
    {
      "name": "홍콩반점 부산덕천역점",
      "address": "부산광역시 북구 만덕대로28번길 15",
      "contact": "051-336-6066",
      "lat": "35.2101770",
      "lng": "129.0085376",
      "region": "부산광역시",
      "district": "북구",
      "id": 209
    },
    {
      "name": "홍콩반점 부산대점",
      "address": "부산광역시 금정구 부산대학로63번길 30",
      "contact": "051-516-0410",
      "lat": "35.2302903",
      "lng": "129.0839358",
      "region": "부산광역시",
      "district": "금정구",
      "id": 210
    },
    {
      "name": "홍콩반점 부산경성대점",
      "address": "부산광역시 남구 용소로7번길 6 (2층)",
      "contact": "051-626-0410",
      "lat": "35.1367590",
      "lng": "129.1007869",
      "region": "부산광역시",
      "district": "남구",
      "id": 211
    },
    {
      "name": "홍콩반점 보라매공원점",
      "address": "서울특별시 동작구 보라매로 5가길 16 204호",
      "contact": "02-845-0410",
      "lat": "37.4913912",
      "lng": "126.9241379",
      "region": "서울특별시",
      "district": "동작구",
      "id": 212
    },
    {
      "name": "홍콩반점 명동점",
      "address": "서울특별시 중구 명동10길 7-4 2, 2층",
      "contact": "02-778-0410",
      "lat": "37.5633600",
      "lng": "126.9854832",
      "region": "서울특별시",
      "district": "중구",
      "id": 213
    },
    {
      "name": "홍콩반점 성신여대점",
      "address": "서울특별시 성북구 동소문로20나길 18 (지하1층)",
      "contact": "02-923-0410",
      "lat": "37.5921255",
      "lng": "127.0176612",
      "region": "서울특별시",
      "district": "성북구",
      "id": 214
    },
    {
      "name": "홍콩반점 성남은행점",
      "address": "경기도 성남시 중원구 산성대로 522, 1층",
      "contact": "031-734-1663",
      "lat": "37.4572953",
      "lng": "127.1640713",
      "region": "경기도",
      "district": "성남시",
      "id": 215
    },
    {
      "name": "홍콩반점 부산구남역점",
      "address": "부산광역시 북구 구포동 백양대로 1038",
      "contact": "051-343-0410",
      "lat": "35.1980422",
      "lng": "128.9961186",
      "region": "부산광역시",
      "district": "북구",
      "id": 216
    },
    {
      "name": "홍콩반점 서초역점",
      "address": "서울특별시 서초구 반포대로28길 16 (태림빌딩 지하)",
      "contact": "02-585-0410",
      "lat": "37.4904757",
      "lng": "127.0095684",
      "region": "서울특별시",
      "district": "서초구",
      "id": 217
    },
    {
      "name": "홍콩반점 서면점",
      "address": "부산광역시 부산진구 중앙대로 680번가길 38, 109(부전동)",
      "contact": "070-8818-0410",
      "lat": "35.1551672",
      "lng": "129.0612480",
      "region": "부산광역시",
      "district": "부산진구",
      "id": 218
    },
    {
      "name": "홍콩반점 산본역점",
      "address": "경기도 군포시 산본로323번길 16-25 (2층)",
      "contact": "031-391-0410",
      "lat": "37.3597467",
      "lng": "126.9313158",
      "region": "경기도",
      "district": "군포시",
      "id": 219
    },
    {
      "name": "홍콩반점 사당역점",
      "address": "서울특별시 관악구 과천대로 951, 나호 지하층(남현동, 연송빌딩)",
      "contact": "02-3474-0410",
      "lat": "37.4755348",
      "lng": "126.9812920",
      "region": "서울특별시",
      "district": "관악구",
      "id": 220
    },
    {
      "name": "홍콩반점 분당수내점",
      "address": "경기도 성남시 분당구 백현로101번길 16 (대덕프라자 2층)",
      "contact": "031-718-0410",
      "lat": "37.3770230",
      "lng": "127.1128823",
      "region": "경기도",
      "district": "성남시",
      "id": 221
    },
    {
      "name": "홍콩반점 부산화명역점",
      "address": "부산광역시 북구 금곡대로285번길 16 (화명3동 2277-6 )",
      "contact": "051-364-0410",
      "lat": "35.2341429",
      "lng": "129.0126261",
      "region": "부산광역시",
      "district": "북구",
      "id": 222
    },
    {
      "name": "홍콩반점 광주쌍암공원점",
      "address": "광주광역시 광산구 첨단중앙로 182번길 24-3",
      "contact": "062-974-0410",
      "lat": "35.2214203",
      "lng": "126.8441769",
      "region": "광주광역시",
      "district": "광산구",
      "id": 223
    },
    {
      "name": "홍콩반점 신촌2호점",
      "address": "서울특별시 서대문구 명물길 19",
      "contact": "02-3147-0410",
      "lat": "37.5580243",
      "lng": "126.9376348",
      "region": "서울특별시",
      "district": "서대문구",
      "id": 224
    },
    {
      "name": "홍콩반점 신림역점",
      "address": "서울특별시 관악구 남부순환로 1592-8 (2층)",
      "contact": "02-883-0410",
      "lat": "37.4833964",
      "lng": "126.9279593",
      "region": "서울특별시",
      "district": "관악구",
      "id": 225
    },
    {
      "name": "홍콩반점 신림고시촌점",
      "address": "서울특별시 관악구 호암로24길 66 (2층)",
      "contact": "02-877-0410",
      "lat": "37.4692436",
      "lng": "126.9368088",
      "region": "서울특별시",
      "district": "관악구",
      "id": 226
    },
    {
      "name": "홍콩반점 신대방삼거리역점",
      "address": "서울특별시 동작구 국사봉 1길 25",
      "contact": "02-825-5088",
      "lat": "37.4990801",
      "lng": "126.9300129",
      "region": "서울특별시",
      "district": "동작구",
      "id": 227
    },
    {
      "name": "홍콩반점 수지구청점",
      "address": "경기도 용인시 수지구 수지로296번길 56",
      "contact": "031-264-4413",
      "lat": "37.3210100",
      "lng": "127.0942523",
      "region": "경기도",
      "district": "용인시",
      "id": 228
    },
    {
      "name": "홍콩반점 수원인계점",
      "address": "경기도 수원시 팔달구 권광로187번길 23 (형만빌딩 2층)",
      "contact": "031-221-5352",
      "lat": "37.2645378",
      "lng": "127.0314103",
      "region": "경기도",
      "district": "수원시",
      "id": 229
    },
    {
      "name": "홍콩반점 수원역점",
      "address": "경기도 수원시 팔달구 향교로 20 (지하1층)",
      "contact": "031-248-0414",
      "lat": "37.2680482",
      "lng": "127.0032637",
      "region": "경기도",
      "district": "수원시",
      "id": 230
    },
    {
      "name": "홍콩반점 의정부역점",
      "address": "경기도 의정부시 호국로1298번길 63 (2층)",
      "contact": "031-848-4410",
      "lat": "37.7406139",
      "lng": "127.0485196",
      "region": "경기도",
      "district": "의정부시",
      "id": 231
    },
    {
      "name": "홍콩반점 원주중앙점",
      "address": "강원특별자치도 원주시 중앙로 110 (2층)",
      "contact": "033-748-0410",
      "lat": "37.3496820",
      "lng": "127.9508092",
      "region": "강원특별자치도",
      "district": "원주시",
      "id": 232
    },
    {
      "name": "홍콩반점 원주단계점",
      "address": "강원특별자치도 원주시 장미공원길, 69",
      "contact": "033-733-0410",
      "lat": "37.3459150",
      "lng": "127.9292859",
      "region": "강원특별자치도",
      "district": "원주시",
      "id": 233
    },
    {
      "name": "홍콩반점 울산일산점",
      "address": "울산광역시 동구 일산진11길 23, 에이티마린타워 1층",
      "contact": "052-252-9002",
      "lat": "35.4974912",
      "lng": "129.4302886",
      "region": "울산광역시",
      "district": "동구",
      "id": 234
    },
    {
      "name": "홍콩반점 울산성남점",
      "address": "울산광역시 중구 젊음의거리 54 2층",
      "contact": "052-246-0939",
      "lat": "35.5537099",
      "lng": "129.3198301",
      "region": "울산광역시",
      "district": "중구",
      "id": 235
    },
    {
      "name": "홍콩반점 울산삼산점",
      "address": "울산광역시 남구 돋질로302번길 17, 1층",
      "contact": "070-4240-0410",
      "lat": "35.5424323",
      "lng": "129.3376804",
      "region": "울산광역시",
      "district": "남구",
      "id": 236
    },
    {
      "name": "홍콩반점 외대점",
      "address": "서울특별시 동대문구 휘경로 17( 외대앞역 1번출구 직선방향 70m)",
      "contact": "02-6407-8864",
      "lat": "37.5957907",
      "lng": "127.0621800",
      "region": "서울특별시",
      "district": "동대문구",
      "id": 237
    },
    {
      "name": "홍콩반점 연신내역점",
      "address": "서울특별시 은평구 통일로 855-15, 2층",
      "contact": "02-352-1814",
      "lat": "37.6192490",
      "lng": "126.9198115",
      "region": "서울특별시",
      "district": "은평구",
      "id": 238
    },
    {
      "name": "홍콩반점 양산물금CGV점",
      "address": "경상남도 양산시 물금읍 백호로 70",
      "contact": "055-372-0410",
      "lat": "35.3178406",
      "lng": "129.0020991",
      "region": "경상남도",
      "district": "양산시",
      "id": 239
    },
    {
      "name": "홍콩반점 안산중앙점",
      "address": "경기도 안산시 단원구 고잔1길 53",
      "contact": "031-410-8882",
      "lat": "37.3183527",
      "lng": "126.8395093",
      "region": "경기도",
      "district": "안산시",
      "id": 240
    },
    {
      "name": "홍콩반점 중앙대점",
      "address": "서울특별시 동작구 흑석로 101-3",
      "contact": "02-823-0410",
      "lat": "37.5078744",
      "lng": "126.9606934",
      "region": "서울특별시",
      "district": "동작구",
      "id": 241
    },
    {
      "name": "홍콩반점 죽전단대점",
      "address": "경기도 용인시 수지구 죽전로144번길 7-5 (로데오타워 1층)",
      "contact": "031-889-4477",
      "lat": "37.3235866",
      "lng": "127.1241784",
      "region": "경기도",
      "district": "용인시",
      "id": 242
    },
    {
      "name": "홍콩반점 주안역점",
      "address": "인천광역시 남구 미추홀대로734번길 17",
      "contact": "032-433-7853",
      "lat": "37.4631058",
      "lng": "126.6814616",
      "region": "인천광역시",
      "district": "남구",
      "id": 243
    },
    {
      "name": "홍콩반점 전북대점",
      "address": "전북특별자치도 전주시 덕진구 덕진광장로 10",
      "contact": "063-255-0410",
      "lat": "35.8442061",
      "lng": "127.1248994",
      "region": "전북특별자치도",
      "district": "전주시",
      "id": 244
    },
    {
      "name": "홍콩반점 일산웨스턴돔점",
      "address": "경기도 고양시 일산동구 정발산로 24 (웨스턴돔 B-201)",
      "contact": "031-931-5454",
      "lat": "37.6557939",
      "lng": "126.7721369",
      "region": "경기도",
      "district": "고양시",
      "id": 245
    },
    {
      "name": "홍콩반점 안양비산점",
      "address": "안양시 동안구 비산동 관악대로 177",
      "contact": "031-384-0513",
      "lat": "37.3992050",
      "lng": "126.9437899",
      "region": "안양시",
      "district": "동안구",
      "id": 246
    },
    {
      "name": "홍콩반점 인천청라점",
      "address": "인천광역시 서구 중봉대로586번길 22",
      "contact": "032-569-0410",
      "lat": "37.5314452",
      "lng": "126.6515468",
      "region": "인천광역시",
      "district": "서구",
      "id": 247
    },
    {
      "name": "홍콩반점 인천송도점",
      "address": "인천광역시 연수구 컨벤시아대로 81 드림시티 2층",
      "contact": "070-4140-0410",
      "lat": "37.3949168",
      "lng": "126.6501721",
      "region": "인천광역시",
      "district": "연수구",
      "id": 248
    },
    {
      "name": "홍콩반점 인천논현점",
      "address": "인천광역시 남동구 논고개로 121 (202호)",
      "contact": "032-428-0410",
      "lat": "37.4019437",
      "lng": "126.7237705",
      "region": "인천광역시",
      "district": "남동구",
      "id": 249
    },
    {
      "name": "홍콩반점 인천구월점",
      "address": "인천광역시 남동구 성말로 10 (구월동, 효명프라자) 104",
      "contact": "032-431-0410",
      "lat": "37.4451996",
      "lng": "126.7015395",
      "region": "인천광역시",
      "district": "남동구",
      "id": 250
    },
    {
      "name": "홍콩반점 이수역점",
      "address": "서울특별시 동작구 동작대로27가길 38, 1층(서울 동작구 사당동 145-13번지)",
      "contact": "02-535-7135",
      "lat": "37.4859087",
      "lng": "126.9809958",
      "region": "서울특별시",
      "district": "동작구",
      "id": 251
    },
    {
      "name": "홍콩반점 한양대점",
      "address": "서울특별시 성동구 마조로 25",
      "contact": "02-2293-0410",
      "lat": "37.5600682",
      "lng": "127.0409426",
      "region": "서울특별시",
      "district": "성동구",
      "id": 252
    },
    {
      "name": "홍콩반점 포항죽파점",
      "address": "경상북도 포항시 북구 중흥로 302 (죽도동) 1층",
      "contact": "054-284-0410",
      "lat": "36.0291754",
      "lng": "129.3635345",
      "region": "경상북도",
      "district": "포항시",
      "id": 253
    },
    {
      "name": "홍콩반점 평촌역점",
      "address": "경기도 안양시 동안구 관평로182번길 48 (신세대상가 2층)",
      "contact": "031-388-0410",
      "lat": "37.3937554",
      "lng": "126.9629617",
      "region": "경기도",
      "district": "안양시",
      "id": 254
    },
    {
      "name": "홍콩반점 청주성안로점",
      "address": "충청북도 청주시 상당구 성안로 15, 2,3층",
      "contact": "043-222-2410",
      "lat": "36.6354130",
      "lng": "127.4892363",
      "region": "충청북도",
      "district": "청주시",
      "id": 255
    },
    {
      "name": "홍콩반점 창원상남점",
      "address": "경상남도 창원시 성산구 마디미로27번길6,1층",
      "contact": "055-267-5855",
      "lat": "35.2216330",
      "lng": "128.6845612",
      "region": "경상남도",
      "district": "창원시",
      "id": 256
    },
    {
      "name": "홍콩반점 진주중앙로점",
      "address": "경상남도 진주시 촉석로 189-1, 2층",
      "contact": "055-745-8818",
      "lat": "35.1954530",
      "lng": "128.0827762",
      "region": "경상남도",
      "district": "진주시",
      "id": 257
    },
    {
      "name": "홍콩반점 화정역점",
      "address": "경기도 고양시 덕양구 화신로272번길 38, 성보월드프라자 105-106호",
      "contact": "031-814-5830",
      "lat": "37.6325549",
      "lng": "126.8319317",
      "region": "경기도",
      "district": "고양시",
      "id": 258
    },
    {
      "name": "홍콩반점 화곡역점",
      "address": "서울특별시 강서구 화곡로 140, 1층",
      "contact": "02-2691-1144",
      "lat": "37.5405158",
      "lng": "126.8372389",
      "region": "서울특별시",
      "district": "강서구",
      "id": 259
    },
    {
      "name": "홍콩반점 홍대입구역점",
      "address": "서울특별시 마포구 와우산로23길 44",
      "contact": "02-333-0410",
      "lat": "37.5547889",
      "lng": "126.9236960",
      "region": "서울특별시",
      "district": "마포구",
      "id": 260
    },
    {
      "name": "홍콩반점 분당야탑점",
      "address": "경기도 성남시 분당구 야탑로69번길 3 (강남프라자 2층)",
      "contact": "031-707-0418",
      "lat": "37.4100921",
      "lng": "127.1263732",
      "region": "경기도",
      "district": "성남시",
      "id": 261
    },
    {
      "name": "홍콩반점 분당서현점",
      "address": "경기도 성남시 분당구 분당로53번길 10 (동호프라자 2층)",
      "contact": "031-8017-0410",
      "lat": "37.3835251",
      "lng": "127.1217810",
      "region": "경기도",
      "district": "성남시",
      "id": 262
    },
    {
      "name": "홍콩반점 부평로데오점",
      "address": "인천광역시 부평구 부평대로 12번길 17",
      "contact": "032-504-0410",
      "lat": "37.4924847",
      "lng": "126.7242864",
      "region": "인천광역시",
      "district": "부평구",
      "id": 263
    },
    {
      "name": "홍콩반점 가락시장역점",
      "address": "서울특별시 송파구 송파대로28길 27 (성원상떼빌 2층)",
      "contact": "02-409-0410",
      "lat": "37.4950169",
      "lng": "127.1203666",
      "region": "서울특별시",
      "district": "송파구",
      "id": 264
    },
    {
      "name": "홍콩반점 부산남포1호점",
      "address": "부산광역시 중구 남포길 7-2 1층",
      "contact": "051-241-0410",
      "lat": "35.0990213",
      "lng": "129.0297829",
      "region": "부산광역시",
      "district": "중구",
      "id": 265
    },
    {
      "name": "홍콩반점 창원경남대점",
      "address": "경상남도 창원시 마산합포구 월영동2길 10, 1층",
      "contact": "055-222-1944",
      "lat": "35.1793171",
      "lng": "128.5589753",
      "region": "경상남도",
      "district": "창원시",
      "id": 266
    },
    {
      "name": "홍콩반점 인천연수점",
      "address": "인천광역시 연수구 먼우금로 190 연수프라자 107~108호(연수동)",
      "contact": "032-814-0410",
      "lat": "37.4140587",
      "lng": "126.6767294",
      "region": "인천광역시",
      "district": "연수구",
      "id": 267
    },
    {
      "name": "홍콩반점 진주혁신도시점",
      "address": "경상남도 진주시 충의로 20-26",
      "contact": "055-754-0410",
      "lat": "35.1750167",
      "lng": "128.1484873",
      "region": "경상남도",
      "district": "진주시",
      "id": 268
    },
    {
      "name": "홍콩반점 거제고현터미널점",
      "address": "경상남도 거제시 서문로 73",
      "contact": "055-634-0410",
      "lat": "34.8901334",
      "lng": "128.6235644",
      "region": "경상남도",
      "district": "거제시",
      "id": 269
    },
    {
      "name": "홍콩반점 시흥대야점",
      "address": "경기도 시흥시 비둘기공원 6길 16 1층 101호",
      "contact": "031-315-3988",
      "lat": "37.4424834",
      "lng": "126.7909208",
      "region": "경기도",
      "district": "시흥시",
      "id": 270
    }
  ]
}
